{
  "type": "FeatureCollection",
  "features": [
    {
      "type": "Feature",
      "geometry": {
        "type": "Point",
        "coordinates": [
          2.52261691038,
          48.37499898237
        ]
      },
      "properties": {
        "grade": "2a",
        "circuitNumber": "1",
        "steepness": "slab",
        "height": 3,
        "name": "La Motte de Grès",
        "bleauInfoId": "5826",
        "circuitColor": "orange"
      },
      "id": "problem_248"
    },
    {
      "type": "Feature",
      "geometry": {
        "type": "Point",
        "coordinates": [
          2.52242115211,
          48.37489131839
        ]
      },
      "properties": {
        "grade": "2c",
        "circuitNumber": "2",
        "steepness": "wall",
        "height": 4,
        "name": "Le Rebord",
        "bleauInfoId": "5827",
        "circuitColor": "orange"
      },
      "id": "problem_246"
    },
    {
      "type": "Feature",
      "geometry": {
        "type": "Point",
        "coordinates": [
          2.52211126868,
          48.37513500873
        ]
      },
      "properties": {
        "grade": "3a",
        "circuitNumber": "4",
        "steepness": "slab",
        "height": 3,
        "name": "L'Angle Rond",
        "bleauInfoId": "5829",
        "circuitColor": "orange"
      },
      "id": "problem_261"
    },
    {
      "type": "Feature",
      "geometry": {
        "type": "Point",
        "coordinates": [
          2.52243178712,
          48.37587287858
        ]
      },
      "properties": {
        "grade": "3a",
        "circuitNumber": "9",
        "steepness": "slab",
        "height": 2,
        "name": "Le Livret",
        "bleauInfoId": "5834",
        "circuitColor": "orange"
      },
      "id": "problem_271"
    },
    {
      "type": "Feature",
      "geometry": {
        "type": "Point",
        "coordinates": [
          2.52289721536,
          48.37620375485
        ]
      },
      "properties": {
        "grade": "2b",
        "circuitNumber": "13",
        "steepness": "slab",
        "height": 3,
        "name": "L'Indulgent",
        "bleauInfoId": "5838",
        "circuitColor": "orange"
      },
      "id": "problem_280"
    },
    {
      "type": "Feature",
      "geometry": {
        "type": "Point",
        "coordinates": [
          2.52469469444,
          48.37661340876
        ]
      },
      "properties": {
        "grade": "2b+",
        "circuitNumber": "28",
        "steepness": "other",
        "height": 3,
        "name": "Le Boisseau",
        "bleauInfoId": "5853",
        "circuitColor": "orange"
      },
      "id": "problem_324"
    },
    {
      "type": "Feature",
      "geometry": {
        "type": "Point",
        "coordinates": [
          2.52197852484,
          48.37535157662
        ]
      },
      "properties": {
        "grade": "5a",
        "circuitNumber": "4",
        "steepness": "wall",
        "height": 4,
        "name": "La Dignité",
        "bleauInfoId": "23928",
        "circuitColor": "blue"
      },
      "id": "problem_265"
    },
    {
      "type": "Feature",
      "geometry": {
        "type": "Point",
        "coordinates": [
          2.52209913434,
          48.37522124899
        ]
      },
      "properties": {
        "grade": "5c",
        "circuitNumber": "2",
        "steepness": "overhang",
        "height": 4,
        "name": "Antigel",
        "bleauInfoId": "8848",
        "circuitColor": "red"
      },
      "id": "problem_263"
    },
    {
      "type": "Feature",
      "geometry": {
        "type": "Point",
        "coordinates": [
          2.52317732027,
          48.37615874607
        ]
      },
      "properties": {
        "grade": "5b+",
        "circuitNumber": "9",
        "steepness": "wall",
        "height": 4,
        "name": "Mauvaise Pioche",
        "bleauInfoId": "5895",
        "circuitColor": "red"
      },
      "id": "problem_291"
    },
    {
      "type": "Feature",
      "geometry": {
        "type": "Point",
        "coordinates": [
          2.52498328619,
          48.37761679137
        ]
      },
      "properties": {
        "grade": "4c",
        "circuitNumber": null,
        "steepness": "traverse",
        "height": null,
        "name": "La Fosse Perplexe",
        "bleauInfoId": "23950",
        "circuitColor": null
      },
      "id": "problem_754"
    },
    {
      "type": "Feature",
      "geometry": {
        "type": "Point",
        "coordinates": [
          2.52257088926,
          48.37605479112
        ]
      },
      "properties": {
        "grade": "5b",
        "circuitNumber": "6",
        "steepness": "wall",
        "height": 5,
        "name": "Le Bilbo",
        "bleauInfoId": "23909",
        "circuitColor": "red"
      },
      "id": "problem_276"
    },
    {
      "type": "Feature",
      "geometry": {
        "type": "Point",
        "coordinates": [
          2.52485827451,
          48.37658605093
        ]
      },
      "properties": {
        "grade": "3a",
        "circuitNumber": "30",
        "steepness": "traverse",
        "height": 2,
        "name": "Le Couloir",
        "bleauInfoId": "5855",
        "circuitColor": "orange"
      },
      "id": "problem_327"
    },
    {
      "type": "Feature",
      "geometry": {
        "type": "Point",
        "coordinates": [
          2.52513214879,
          48.37794415423
        ]
      },
      "properties": {
        "grade": "5a",
        "circuitNumber": null,
        "steepness": "wall",
        "height": null,
        "name": "La Disparition",
        "bleauInfoId": "23937",
        "circuitColor": null
      },
      "id": "problem_753"
    },
    {
      "type": "Feature",
      "geometry": {
        "type": "Point",
        "coordinates": [
          2.52278084263,
          48.37600512504
        ]
      },
      "properties": {
        "grade": "4c",
        "circuitNumber": "5",
        "steepness": "overhang",
        "height": 3,
        "name": "Tentation pour Quatre",
        "bleauInfoId": "5888",
        "circuitColor": "red"
      },
      "id": "problem_274"
    },
    {
      "type": "Feature",
      "geometry": {
        "type": "Point",
        "coordinates": [
          2.52336835525,
          48.37610437078
        ]
      },
      "properties": {
        "grade": "5b+",
        "circuitNumber": "16",
        "steepness": "overhang",
        "height": 4,
        "name": "Vol à Vue",
        "bleauInfoId": "5893",
        "circuitColor": "red"
      },
      "id": "problem_297"
    },
    {
      "type": "Feature",
      "geometry": {
        "type": "Point",
        "coordinates": [
          2.52267714433,
          48.37589414853
        ]
      },
      "properties": {
        "grade": "3b+",
        "circuitNumber": "6",
        "steepness": "wall",
        "height": 4,
        "name": "L'Accusation",
        "bleauInfoId": "5823",
        "circuitColor": "blue"
      },
      "id": "problem_273"
    },
    {
      "type": "Feature",
      "geometry": {
        "type": "Point",
        "coordinates": [
          2.52680014785,
          48.37896163778
        ]
      },
      "properties": {
        "grade": "6b+",
        "circuitNumber": null,
        "steepness": "roof",
        "height": null,
        "name": "Zone à Défendre",
        "bleauInfoId": "24606",
        "circuitColor": null
      },
      "id": "problem_752"
    },
    {
      "type": "Feature",
      "geometry": {
        "type": "Point",
        "coordinates": [
          2.52325963212,
          48.37637045461
        ]
      },
      "properties": {
        "grade": "6a",
        "circuitNumber": null,
        "steepness": "overhang",
        "height": null,
        "name": "Le Coq",
        "bleauInfoId": "22891",
        "circuitColor": null
      },
      "id": "problem_699"
    },
    {
      "type": "Feature",
      "geometry": {
        "type": "Point",
        "coordinates": [
          2.52332596751,
          48.37614474602
        ]
      },
      "properties": {
        "grade": "5a",
        "circuitNumber": "10",
        "steepness": "wall",
        "height": 4,
        "name": "Le Lux",
        "bleauInfoId": "5819",
        "circuitColor": "blue"
      },
      "id": "problem_294"
    },
    {
      "type": "Feature",
      "geometry": {
        "type": "Point",
        "coordinates": [
          2.52352152455,
          48.37618569434
        ]
      },
      "properties": {
        "grade": "4a",
        "circuitNumber": "11",
        "steepness": "slab",
        "height": 4,
        "name": "La Borne",
        "bleauInfoId": "5816",
        "circuitColor": "blue"
      },
      "id": "problem_299"
    },
    {
      "type": "Feature",
      "geometry": {
        "type": "Point",
        "coordinates": [
          2.52388121594,
          48.37658008334
        ]
      },
      "properties": {
        "grade": "4a+",
        "circuitNumber": "13",
        "steepness": "wall",
        "height": 3,
        "name": "L'Indolent",
        "bleauInfoId": "24002",
        "circuitColor": "blue"
      },
      "id": "problem_308"
    },
    {
      "type": "Feature",
      "geometry": {
        "type": "Point",
        "coordinates": [
          2.52324202579,
          48.37637181576
        ]
      },
      "properties": {
        "grade": "6a+",
        "circuitNumber": "14",
        "steepness": "traverse",
        "height": 3,
        "name": "Coquetterie",
        "bleauInfoId": "5901",
        "circuitColor": "red"
      },
      "id": "problem_285"
    },
    {
      "type": "Feature",
      "geometry": {
        "type": "Point",
        "coordinates": [
          2.52463694628,
          48.37732127198
        ]
      },
      "properties": {
        "grade": "5a",
        "circuitNumber": null,
        "steepness": "wall",
        "height": null,
        "name": "L'Orage",
        "bleauInfoId": "23919",
        "circuitColor": null
      },
      "id": "problem_739"
    },
    {
      "type": "Feature",
      "geometry": {
        "type": "Point",
        "coordinates": [
          2.52345375683,
          48.37610220946
        ]
      },
      "properties": {
        "grade": "4b",
        "circuitNumber": null,
        "steepness": "slab",
        "height": null,
        "name": null,
        "bleauInfoId": "",
        "circuitColor": null
      },
      "id": "problem_706"
    },
    {
      "type": "Feature",
      "geometry": {
        "type": "Point",
        "coordinates": [
          2.52494414629,
          48.37717208359
        ]
      },
      "properties": {
        "grade": "5a",
        "circuitNumber": "29",
        "steepness": "wall",
        "height": 4,
        "name": "L'Éminence",
        "bleauInfoId": "23917",
        "circuitColor": "red"
      },
      "id": "problem_340"
    },
    {
      "type": "Feature",
      "geometry": {
        "type": "Point",
        "coordinates": [
          2.52482165642,
          48.37721016074
        ]
      },
      "properties": {
        "grade": "3a",
        "circuitNumber": "37",
        "steepness": "other",
        "height": 3,
        "name": "La Placette",
        "bleauInfoId": "5862",
        "circuitColor": "orange"
      },
      "id": "problem_342"
    },
    {
      "type": "Feature",
      "geometry": {
        "type": "Point",
        "coordinates": [
          2.52482143197,
          48.37654872735
        ]
      },
      "properties": {
        "grade": "3a",
        "circuitNumber": null,
        "steepness": "other",
        "height": null,
        "name": null,
        "bleauInfoId": "",
        "circuitColor": null
      },
      "id": "problem_731"
    },
    {
      "type": "Feature",
      "geometry": {
        "type": "Point",
        "coordinates": [
          2.52753775533,
          48.3791395673
        ]
      },
      "properties": {
        "grade": "6c",
        "circuitNumber": null,
        "steepness": "overhang",
        "height": null,
        "name": "Gros Ventre",
        "bleauInfoId": "12286",
        "circuitColor": null
      },
      "id": "problem_749"
    },
    {
      "type": "Feature",
      "geometry": {
        "type": "Point",
        "coordinates": [
          2.52329199082,
          48.37624197767
        ]
      },
      "properties": {
        "grade": "5c",
        "circuitNumber": "15",
        "steepness": "wall",
        "height": 3,
        "name": "Jeu de Quilles",
        "bleauInfoId": "5902",
        "circuitColor": "red"
      },
      "id": "problem_288"
    },
    {
      "type": "Feature",
      "geometry": {
        "type": "Point",
        "coordinates": [
          2.52463359352,
          48.37738184576
        ]
      },
      "properties": {
        "grade": "6c",
        "circuitNumber": null,
        "steepness": "traverse",
        "height": null,
        "name": "Long Way",
        "bleauInfoId": "9889",
        "circuitColor": null
      },
      "id": "problem_737"
    },
    {
      "type": "Feature",
      "geometry": {
        "type": "Point",
        "coordinates": [
          2.5220398974,
          48.3753735195
        ]
      },
      "properties": {
        "grade": "4c",
        "circuitNumber": null,
        "steepness": "other",
        "height": null,
        "name": "La peintre",
        "bleauInfoId": "",
        "circuitColor": null
      },
      "id": "problem_680"
    },
    {
      "type": "Feature",
      "geometry": {
        "type": "Point",
        "coordinates": [
          2.52252789147,
          48.37494525361
        ]
      },
      "properties": {
        "grade": "2a",
        "circuitNumber": null,
        "steepness": "other",
        "height": null,
        "name": "Zsa Zsa Gabor",
        "bleauInfoId": "",
        "circuitColor": null
      },
      "id": "problem_679"
    },
    {
      "type": "Feature",
      "geometry": {
        "type": "Point",
        "coordinates": [
          2.52260886066,
          48.37496440651
        ]
      },
      "properties": {
        "grade": "6b",
        "circuitNumber": null,
        "steepness": "slab",
        "height": null,
        "name": "Verglas Fréquent",
        "bleauInfoId": "8846",
        "circuitColor": null
      },
      "id": "problem_678"
    },
    {
      "type": "Feature",
      "geometry": {
        "type": "Point",
        "coordinates": [
          2.5247794388,
          48.37720502347
        ]
      },
      "properties": {
        "grade": "4b",
        "circuitNumber": null,
        "steepness": "slab",
        "height": null,
        "name": "La Marbrerie",
        "bleauInfoId": "23948",
        "circuitColor": null
      },
      "id": "problem_756"
    },
    {
      "type": "Feature",
      "geometry": {
        "type": "Point",
        "coordinates": [
          2.52202145722,
          48.37537953257
        ]
      },
      "properties": {
        "grade": "6b",
        "circuitNumber": null,
        "steepness": "traverse",
        "height": null,
        "name": "Coup de Manivelle",
        "bleauInfoId": "13702",
        "circuitColor": null
      },
      "id": "problem_681"
    },
    {
      "type": "Feature",
      "geometry": {
        "type": "Point",
        "coordinates": [
          2.52508888095,
          48.37711480299
        ]
      },
      "properties": {
        "grade": "4b",
        "circuitNumber": "18",
        "steepness": "wall",
        "height": 3,
        "name": "Le Bac Rond",
        "bleauInfoId": "5792",
        "circuitColor": "blue"
      },
      "id": "problem_335"
    },
    {
      "type": "Feature",
      "geometry": {
        "type": "Point",
        "coordinates": [
          2.52504344048,
          48.37768866215
        ]
      },
      "properties": {
        "grade": "3c",
        "circuitNumber": "25",
        "steepness": "wall",
        "height": 4,
        "name": "Le Velouté",
        "bleauInfoId": "5787",
        "circuitColor": "blue"
      },
      "id": "problem_358"
    },
    {
      "type": "Feature",
      "geometry": {
        "type": "Point",
        "coordinates": [
          2.52261523124,
          48.37589219995
        ]
      },
      "properties": {
        "grade": "3a",
        "circuitNumber": null,
        "steepness": "other",
        "height": null,
        "name": "Fissure Matin",
        "bleauInfoId": "",
        "circuitColor": null
      },
      "id": "problem_682"
    },
    {
      "type": "Feature",
      "geometry": {
        "type": "Point",
        "coordinates": [
          2.52430804057,
          48.37643125221
        ]
      },
      "properties": {
        "grade": "7c+",
        "circuitNumber": null,
        "steepness": "roof",
        "height": null,
        "name": "L'Œil de la Sibylle",
        "bleauInfoId": "180",
        "circuitColor": null
      },
      "id": "problem_729"
    },
    {
      "type": "Feature",
      "geometry": {
        "type": "Point",
        "coordinates": [
          2.52645085071,
          48.37893139987
        ]
      },
      "properties": {
        "grade": "4a",
        "circuitNumber": "34",
        "steepness": "wall",
        "height": 3,
        "name": "Le Barbot",
        "bleauInfoId": "5770",
        "circuitColor": "blue"
      },
      "id": "problem_376"
    },
    {
      "type": "Feature",
      "geometry": {
        "type": "Point",
        "coordinates": [
          2.52431650638,
          48.37640230093
        ]
      },
      "properties": {
        "grade": "8a",
        "circuitNumber": null,
        "steepness": "roof",
        "height": null,
        "name": "Lame de Fond",
        "bleauInfoId": "182",
        "circuitColor": null
      },
      "id": "problem_726"
    },
    {
      "type": "Feature",
      "geometry": {
        "type": "Point",
        "coordinates": [
          2.52258924751,
          48.37607938227
        ]
      },
      "properties": {
        "grade": "5a",
        "circuitNumber": null,
        "steepness": "other",
        "height": null,
        "name": "Le Crépuscule",
        "bleauInfoId": "",
        "circuitColor": null
      },
      "id": "problem_685"
    },
    {
      "type": "Feature",
      "geometry": {
        "type": "Point",
        "coordinates": [
          2.52277633158,
          48.37599687065
        ]
      },
      "properties": {
        "grade": "4a",
        "circuitNumber": null,
        "steepness": "other",
        "height": null,
        "name": "La Bataille",
        "bleauInfoId": "",
        "circuitColor": null
      },
      "id": "problem_687"
    },
    {
      "type": "Feature",
      "geometry": {
        "type": "Point",
        "coordinates": [
          2.52649437619,
          48.37891954912
        ]
      },
      "properties": {
        "grade": "3b",
        "circuitNumber": null,
        "steepness": "other",
        "height": null,
        "name": "La Voie de Crécelle",
        "bleauInfoId": "",
        "circuitColor": null
      },
      "id": "problem_747"
    },
    {
      "type": "Feature",
      "geometry": {
        "type": "Point",
        "coordinates": [
          2.52356221883,
          48.37618605702
        ]
      },
      "properties": {
        "grade": "5a",
        "circuitNumber": "",
        "steepness": "other",
        "height": null,
        "name": "Cigarettes",
        "bleauInfoId": "",
        "circuitColor": null
      },
      "id": "problem_708"
    },
    {
      "type": "Feature",
      "geometry": {
        "type": "Point",
        "coordinates": [
          2.52475041162,
          48.37657437848
        ]
      },
      "properties": {
        "grade": "3a+",
        "circuitNumber": "29",
        "steepness": "overhang",
        "height": 2,
        "name": "L'Audacieuse",
        "bleauInfoId": "5854",
        "circuitColor": "orange"
      },
      "id": "problem_326"
    },
    {
      "type": "Feature",
      "geometry": {
        "type": "Point",
        "coordinates": [
          2.52431633874,
          48.37640920468
        ]
      },
      "properties": {
        "grade": "7a+",
        "circuitNumber": null,
        "steepness": "roof",
        "height": null,
        "name": "Le Retour de la Chenille",
        "bleauInfoId": "954",
        "circuitColor": null
      },
      "id": "problem_727"
    },
    {
      "type": "Feature",
      "geometry": {
        "type": "Point",
        "coordinates": [
          2.52468254384,
          48.37729276665
        ]
      },
      "properties": {
        "grade": "4c",
        "circuitNumber": null,
        "steepness": "wall",
        "height": null,
        "name": "Le Sortant",
        "bleauInfoId": "24001",
        "circuitColor": null
      },
      "id": "problem_741"
    },
    {
      "type": "Feature",
      "geometry": {
        "type": "Point",
        "coordinates": [
          2.52346113257,
          48.37515816222
        ]
      },
      "properties": {
        "grade": "3b",
        "circuitNumber": null,
        "steepness": "slab",
        "height": null,
        "name": "Bombay",
        "bleauInfoId": "",
        "circuitColor": null
      },
      "id": "problem_710"
    },
    {
      "type": "Feature",
      "geometry": {
        "type": "Point",
        "coordinates": [
          2.52472277697,
          48.37663391049
        ]
      },
      "properties": {
        "grade": "4c",
        "circuitNumber": null,
        "steepness": "overhang",
        "height": null,
        "name": "L'Audacieux",
        "bleauInfoId": "5809",
        "circuitColor": null
      },
      "id": "problem_730"
    },
    {
      "type": "Feature",
      "geometry": {
        "type": "Point",
        "coordinates": [
          2.52430016171,
          48.37638220205
        ]
      },
      "properties": {
        "grade": "8a",
        "circuitNumber": null,
        "steepness": "roof",
        "height": null,
        "name": "La Totalité de l'Autre Toit",
        "bleauInfoId": "181",
        "circuitColor": null
      },
      "id": "problem_722"
    },
    {
      "type": "Feature",
      "geometry": {
        "type": "Point",
        "coordinates": [
          2.52269335058,
          48.37605187852
        ]
      },
      "properties": {
        "grade": "6b",
        "circuitNumber": "",
        "steepness": "roof",
        "height": null,
        "name": "Jour de Gloire",
        "bleauInfoId": "23628",
        "circuitColor": null,
        "tags": [
          "risky"
        ]
      },
      "id": "problem_688"
    },
    {
      "type": "Feature",
      "geometry": {
        "type": "Point",
        "coordinates": [
          2.52350605991,
          48.37518800477
        ]
      },
      "properties": {
        "grade": "6b",
        "circuitNumber": null,
        "steepness": "slab",
        "height": null,
        "name": "Comme Vous Voudrez",
        "bleauInfoId": "20179",
        "circuitColor": null
      },
      "id": "problem_712"
    },
    {
      "type": "Feature",
      "geometry": {
        "type": "Point",
        "coordinates": [
          2.52317247043,
          48.37617565637
        ]
      },
      "properties": {
        "grade": "4a",
        "circuitNumber": "8",
        "steepness": "wall",
        "height": 3,
        "name": "L'Écorce",
        "bleauInfoId": "24004",
        "circuitColor": "blue"
      },
      "id": "problem_290"
    },
    {
      "type": "Feature",
      "geometry": {
        "type": "Point",
        "coordinates": [
          2.52336700413,
          48.37609124133
        ]
      },
      "properties": {
        "grade": "5c",
        "circuitNumber": null,
        "steepness": "slab",
        "height": null,
        "name": "Libre Service",
        "bleauInfoId": "5892",
        "circuitColor": null
      },
      "id": "problem_702"
    },
    {
      "type": "Feature",
      "geometry": {
        "type": "Point",
        "coordinates": [
          2.52359193093,
          48.3752254717
        ]
      },
      "properties": {
        "grade": "5a",
        "circuitNumber": "22",
        "steepness": "wall",
        "height": 3,
        "name": "Pierre Ponce",
        "bleauInfoId": "5909",
        "circuitColor": "red"
      },
      "id": "problem_318"
    },
    {
      "type": "Feature",
      "geometry": {
        "type": "Point",
        "coordinates": [
          2.52431575201,
          48.3764150506
        ]
      },
      "properties": {
        "grade": "8a+",
        "circuitNumber": null,
        "steepness": "roof",
        "height": null,
        "name": "Jack in the Box",
        "bleauInfoId": "184",
        "circuitColor": null
      },
      "id": "problem_728"
    },
    {
      "type": "Feature",
      "geometry": {
        "type": "Point",
        "coordinates": [
          2.52466812696,
          48.37728630841
        ]
      },
      "properties": {
        "grade": "6a",
        "circuitNumber": null,
        "steepness": "overhang",
        "height": null,
        "name": "Pince-Oreille",
        "bleauInfoId": "13704",
        "circuitColor": null
      },
      "id": "problem_740"
    },
    {
      "type": "Feature",
      "geometry": {
        "type": "Point",
        "coordinates": [
          2.52329181846,
          48.3760701402
        ]
      },
      "properties": {
        "grade": "3c",
        "circuitNumber": null,
        "steepness": "other",
        "height": null,
        "name": "Fissure Physique",
        "bleauInfoId": "",
        "circuitColor": null
      },
      "id": "problem_705"
    },
    {
      "type": "Feature",
      "geometry": {
        "type": "Point",
        "coordinates": [
          2.52429345606,
          48.37637991944
        ]
      },
      "properties": {
        "grade": "7b+",
        "circuitNumber": null,
        "steepness": "roof",
        "height": null,
        "name": "Arabesque / L'Autre Toit",
        "bleauInfoId": "177",
        "circuitColor": null
      },
      "id": "problem_720"
    },
    {
      "type": "Feature",
      "geometry": {
        "type": "Point",
        "coordinates": [
          2.5250945982,
          48.37720480089
        ]
      },
      "properties": {
        "grade": "7a+",
        "circuitNumber": "",
        "steepness": "wall",
        "height": null,
        "name": "Mâle à l'Aise",
        "bleauInfoId": "174",
        "circuitColor": null,
        "tags": [
          "risky"
        ]
      },
      "id": "problem_743"
    },
    {
      "type": "Feature",
      "geometry": {
        "type": "Point",
        "coordinates": [
          2.52257147787,
          48.37606635413
        ]
      },
      "properties": {
        "grade": "5c",
        "circuitNumber": null,
        "steepness": "wall",
        "height": null,
        "name": "Abus de Confiance",
        "bleauInfoId": "5885",
        "circuitColor": null
      },
      "id": "problem_684"
    },
    {
      "type": "Feature",
      "geometry": {
        "type": "Point",
        "coordinates": [
          2.522422292,
          48.37485124412
        ]
      },
      "properties": {
        "grade": "4a+",
        "circuitNumber": "2",
        "steepness": "wall",
        "height": 3,
        "name": "Le Liseré",
        "bleauInfoId": "23932",
        "circuitColor": "blue"
      },
      "id": "problem_251"
    },
    {
      "type": "Feature",
      "geometry": {
        "type": "Point",
        "coordinates": [
          2.52319693498,
          48.37635052311
        ]
      },
      "properties": {
        "grade": "6a",
        "circuitNumber": null,
        "steepness": "other",
        "height": null,
        "name": "Aire de Repos",
        "bleauInfoId": "5897",
        "circuitColor": null
      },
      "id": "problem_697"
    },
    {
      "type": "Feature",
      "geometry": {
        "type": "Point",
        "coordinates": [
          2.52311177535,
          48.37630420072
        ]
      },
      "properties": {
        "grade": "4a",
        "circuitNumber": null,
        "steepness": "other",
        "height": null,
        "name": "Cyanure",
        "bleauInfoId": "",
        "circuitColor": null
      },
      "id": "problem_701"
    },
    {
      "type": "Feature",
      "geometry": {
        "type": "Point",
        "coordinates": [
          2.52318369208,
          48.37624407107
        ]
      },
      "properties": {
        "grade": "4c",
        "circuitNumber": null,
        "steepness": "other",
        "height": null,
        "name": "Décadence",
        "bleauInfoId": "",
        "circuitColor": null
      },
      "id": "problem_700"
    },
    {
      "type": "Feature",
      "geometry": {
        "type": "Point",
        "coordinates": [
          2.52760013015,
          48.37913208567
        ]
      },
      "properties": {
        "grade": "3c",
        "circuitNumber": "30",
        "steepness": "wall",
        "height": 5,
        "name": "Le Phare",
        "bleauInfoId": "5798",
        "circuitColor": "blue"
      },
      "id": "problem_373"
    },
    {
      "type": "Feature",
      "geometry": {
        "type": "Point",
        "coordinates": [
          2.52314525033,
          48.37619746612
        ]
      },
      "properties": {
        "grade": "2a",
        "circuitNumber": "15",
        "steepness": "wall",
        "height": 4,
        "name": "Le Cireur",
        "bleauInfoId": "5840",
        "circuitColor": "orange"
      },
      "id": "problem_289"
    },
    {
      "type": "Feature",
      "geometry": {
        "type": "Point",
        "coordinates": [
          2.52305746045,
          48.37664226177
        ]
      },
      "properties": {
        "grade": "6a",
        "circuitNumber": null,
        "steepness": "overhang",
        "height": null,
        "name": "G Force",
        "bleauInfoId": "",
        "circuitColor": null
      },
      "id": "problem_696"
    },
    {
      "type": "Feature",
      "geometry": {
        "type": "Point",
        "coordinates": [
          2.52252168886,
          48.3759621292
        ]
      },
      "properties": {
        "grade": "6a",
        "circuitNumber": null,
        "steepness": "other",
        "height": null,
        "name": "Coup de Fou",
        "bleauInfoId": "",
        "circuitColor": null
      },
      "id": "problem_686"
    },
    {
      "type": "Feature",
      "geometry": {
        "type": "Point",
        "coordinates": [
          2.52260467055,
          48.37609909937
        ]
      },
      "properties": {
        "grade": "2b",
        "circuitNumber": "11",
        "steepness": "traverse",
        "height": 6,
        "name": "L'Envers du Toit",
        "bleauInfoId": "5836",
        "circuitColor": "orange"
      },
      "id": "problem_277"
    },
    {
      "type": "Feature",
      "geometry": {
        "type": "Point",
        "coordinates": [
          2.52328390923,
          48.37608634046
        ]
      },
      "properties": {
        "grade": "5b",
        "circuitNumber": "8",
        "steepness": "wall",
        "height": 4,
        "name": "Navigation",
        "bleauInfoId": "5891",
        "circuitColor": "red"
      },
      "id": "problem_296"
    },
    {
      "type": "Feature",
      "geometry": {
        "type": "Point",
        "coordinates": [
          2.52270223556,
          48.37608105255
        ]
      },
      "properties": {
        "grade": "7b",
        "circuitNumber": "",
        "steepness": "roof",
        "height": null,
        "name": "Le Toit aux Grattons",
        "bleauInfoId": "176",
        "circuitColor": null,
        "tags": [
          "risky"
        ]
      },
      "id": "problem_691"
    },
    {
      "type": "Feature",
      "geometry": {
        "type": "Point",
        "coordinates": [
          2.522764796,
          48.37599034553
        ]
      },
      "properties": {
        "grade": "4a",
        "circuitNumber": "7",
        "steepness": "wall",
        "height": 2,
        "name": "La Coque",
        "bleauInfoId": "5822",
        "circuitColor": "blue"
      },
      "id": "problem_275"
    },
    {
      "type": "Feature",
      "geometry": {
        "type": "Point",
        "coordinates": [
          2.52497806746,
          48.37657443179
        ]
      },
      "properties": {
        "grade": "2a+",
        "circuitNumber": "32",
        "steepness": "other",
        "height": 3,
        "name": "La Trace",
        "bleauInfoId": "5857",
        "circuitColor": "orange"
      },
      "id": "problem_329"
    },
    {
      "type": "Feature",
      "geometry": {
        "type": "Point",
        "coordinates": [
          2.52364441635,
          48.3750918406
        ]
      },
      "properties": {
        "grade": "5a",
        "circuitNumber": "21",
        "steepness": "wall",
        "height": 4,
        "name": "Le Puzzle Brisé",
        "bleauInfoId": "5907",
        "circuitColor": "red"
      },
      "id": "problem_319"
    },
    {
      "type": "Feature",
      "geometry": {
        "type": "Point",
        "coordinates": [
          2.52647761239,
          48.37892433697
        ]
      },
      "properties": {
        "grade": "5a",
        "circuitNumber": null,
        "steepness": "other",
        "height": null,
        "name": "La Saison",
        "bleauInfoId": "",
        "circuitColor": null
      },
      "id": "problem_746"
    },
    {
      "type": "Feature",
      "geometry": {
        "type": "Point",
        "coordinates": [
          2.52322778072,
          48.37636900715
        ]
      },
      "properties": {
        "grade": "6b",
        "circuitNumber": "",
        "steepness": "traverse",
        "height": null,
        "name": "La Grande Coquetterie",
        "bleauInfoId": "13707",
        "circuitColor": null,
        "tags": [
          "sit_start"
        ]
      },
      "id": "problem_698"
    },
    {
      "type": "Feature",
      "geometry": {
        "type": "Point",
        "coordinates": [
          2.52509493347,
          48.37721192723
        ]
      },
      "properties": {
        "grade": "7a+",
        "circuitNumber": null,
        "steepness": "wall",
        "height": null,
        "name": "Laisse Béton",
        "bleauInfoId": "1202",
        "circuitColor": null
      },
      "id": "problem_742"
    },
    {
      "type": "Feature",
      "geometry": {
        "type": "Point",
        "coordinates": [
          2.52256963369,
          48.37603383955
        ]
      },
      "properties": {
        "grade": "5b",
        "circuitNumber": null,
        "steepness": "wall",
        "height": null,
        "name": "Pleine Lune",
        "bleauInfoId": "5886",
        "circuitColor": null
      },
      "id": "problem_683"
    },
    {
      "type": "Feature",
      "geometry": {
        "type": "Point",
        "coordinates": [
          2.52271598188,
          48.37610855639
        ]
      },
      "properties": {
        "grade": "6a+",
        "circuitNumber": null,
        "steepness": "wall",
        "height": null,
        "name": "Jus de Citron",
        "bleauInfoId": "9532",
        "circuitColor": null
      },
      "id": "problem_693"
    },
    {
      "type": "Feature",
      "geometry": {
        "type": "Point",
        "coordinates": [
          2.52305611935,
          48.37661130635
        ]
      },
      "properties": {
        "grade": "4b",
        "circuitNumber": null,
        "steepness": "other",
        "height": null,
        "name": "Moses",
        "bleauInfoId": "",
        "circuitColor": null
      },
      "id": "problem_695"
    },
    {
      "type": "Feature",
      "geometry": {
        "type": "Point",
        "coordinates": [
          2.52333976312,
          48.37613516941
        ]
      },
      "properties": {
        "grade": "4a+",
        "circuitNumber": null,
        "steepness": "other",
        "height": null,
        "name": "Vol au Vent",
        "bleauInfoId": "",
        "circuitColor": null
      },
      "id": "problem_704"
    },
    {
      "type": "Feature",
      "geometry": {
        "type": "Point",
        "coordinates": [
          2.52304623285,
          48.37659413653
        ]
      },
      "properties": {
        "grade": "2b",
        "circuitNumber": "52",
        "steepness": "overhang",
        "height": 3,
        "name": "Le Bustier",
        "bleauInfoId": "5877",
        "circuitColor": "orange"
      },
      "id": "problem_284"
    },
    {
      "type": "Feature",
      "geometry": {
        "type": "Point",
        "coordinates": [
          2.52761746748,
          48.37913249673
        ]
      },
      "properties": {
        "grade": "3a",
        "circuitNumber": null,
        "steepness": "other",
        "height": null,
        "name": null,
        "bleauInfoId": "",
        "circuitColor": null
      },
      "id": "problem_751"
    },
    {
      "type": "Feature",
      "geometry": {
        "type": "Point",
        "coordinates": [
          2.5226975417,
          48.37606668819
        ]
      },
      "properties": {
        "grade": "7a",
        "circuitNumber": "",
        "steepness": "roof",
        "height": null,
        "name": "Le Toit du Cul de Chien",
        "bleauInfoId": "173",
        "circuitColor": null,
        "tags": [
          "risky"
        ]
      },
      "id": "problem_690"
    },
    {
      "type": "Feature",
      "geometry": {
        "type": "Point",
        "coordinates": [
          2.52293236442,
          48.37712190346
        ]
      },
      "properties": {
        "grade": "2b+",
        "circuitNumber": "56",
        "steepness": "other",
        "height": 4,
        "name": "Le Terminal",
        "bleauInfoId": "5881",
        "circuitColor": "orange"
      },
      "id": "problem_385"
    },
    {
      "type": "Feature",
      "geometry": {
        "type": "Point",
        "coordinates": [
          2.52366548387,
          48.37509858766
        ]
      },
      "properties": {
        "grade": "7a",
        "circuitNumber": null,
        "steepness": "slab",
        "height": null,
        "name": "Belle Lurette",
        "bleauInfoId": "171",
        "circuitColor": null
      },
      "id": "problem_714"
    },
    {
      "type": "Feature",
      "geometry": {
        "type": "Point",
        "coordinates": [
          2.52359490825,
          48.37521506357
        ]
      },
      "properties": {
        "grade": "6a",
        "circuitNumber": null,
        "steepness": "slab",
        "height": null,
        "name": "Doléance",
        "bleauInfoId": "13699",
        "circuitColor": null
      },
      "id": "problem_713"
    },
    {
      "type": "Feature",
      "geometry": {
        "type": "Point",
        "coordinates": [
          2.52421609093,
          48.3763938941
        ]
      },
      "properties": {
        "grade": "7c",
        "circuitNumber": "",
        "steepness": "overhang",
        "height": null,
        "name": "La Noirâtre (assis)",
        "bleauInfoId": "24642",
        "circuitColor": null,
        "tags": [
          "sit_start"
        ]
      },
      "id": "problem_717"
    },
    {
      "type": "Feature",
      "geometry": {
        "type": "Point",
        "coordinates": [
          2.52382121913,
          48.37533677316
        ]
      },
      "properties": {
        "grade": "6c",
        "circuitNumber": null,
        "steepness": "wall",
        "height": null,
        "name": "Hammer's Break",
        "bleauInfoId": "172",
        "circuitColor": null
      },
      "id": "problem_716"
    },
    {
      "type": "Feature",
      "geometry": {
        "type": "Point",
        "coordinates": [
          2.52427560244,
          48.37637703834
        ]
      },
      "properties": {
        "grade": "7c",
        "circuitNumber": null,
        "steepness": "roof",
        "height": null,
        "name": "Eclipse",
        "bleauInfoId": "178",
        "circuitColor": null
      },
      "id": "problem_719"
    },
    {
      "type": "Feature",
      "geometry": {
        "type": "Point",
        "coordinates": [
          2.52461515334,
          48.37737204707
        ]
      },
      "properties": {
        "grade": "3a",
        "circuitNumber": null,
        "steepness": "other",
        "height": null,
        "name": "Sideway",
        "bleauInfoId": "",
        "circuitColor": null
      },
      "id": "problem_738"
    },
    {
      "type": "Feature",
      "geometry": {
        "type": "Point",
        "coordinates": [
          2.52333506925,
          48.37613850996
        ]
      },
      "properties": {
        "grade": "6a",
        "circuitNumber": null,
        "steepness": "wall",
        "height": null,
        "name": "Trompe l'Œil",
        "bleauInfoId": "5894",
        "circuitColor": null
      },
      "id": "problem_703"
    },
    {
      "type": "Feature",
      "geometry": {
        "type": "Point",
        "coordinates": [
          2.52645498125,
          48.37893491478
        ]
      },
      "properties": {
        "grade": "6a+",
        "circuitNumber": "",
        "steepness": "wall",
        "height": null,
        "name": "Le Barbot (assis)",
        "bleauInfoId": "24607",
        "circuitColor": null,
        "tags": [
          "sit_start"
        ]
      },
      "id": "problem_745"
    },
    {
      "type": "Feature",
      "geometry": {
        "type": "Point",
        "coordinates": [
          2.52646705119,
          48.3789271206
        ]
      },
      "properties": {
        "grade": "6c",
        "circuitNumber": null,
        "steepness": "wall",
        "height": null,
        "name": "Basse Saison",
        "bleauInfoId": "17017",
        "circuitColor": null
      },
      "id": "problem_748"
    },
    {
      "type": "Feature",
      "geometry": {
        "type": "Point",
        "coordinates": [
          2.52270692943,
          48.37609374663
        ]
      },
      "properties": {
        "grade": "6a",
        "circuitNumber": null,
        "steepness": "other",
        "height": null,
        "name": "La Nano",
        "bleauInfoId": "5889",
        "circuitColor": null
      },
      "id": "problem_692"
    },
    {
      "type": "Feature",
      "geometry": {
        "type": "Point",
        "coordinates": [
          2.52368593572,
          48.3751057143
        ]
      },
      "properties": {
        "grade": "6a",
        "circuitNumber": "",
        "steepness": "wall",
        "height": null,
        "name": "Bel Interlude",
        "bleauInfoId": "5906",
        "circuitColor": null
      },
      "id": "problem_715"
    },
    {
      "type": "Feature",
      "geometry": {
        "type": "Point",
        "coordinates": [
          2.52421332515,
          48.37639111016
        ]
      },
      "properties": {
        "grade": "7a+",
        "circuitNumber": "",
        "steepness": "overhang",
        "height": null,
        "name": "La Noirâtre",
        "bleauInfoId": "20034",
        "circuitColor": null
      },
      "id": "problem_718"
    },
    {
      "type": "Feature",
      "geometry": {
        "type": "Point",
        "coordinates": [
          2.5246461943,
          48.37737466415
        ]
      },
      "properties": {
        "grade": "3a",
        "circuitNumber": "41",
        "steepness": "other",
        "height": 5,
        "name": "La Cheminée",
        "bleauInfoId": "5865",
        "circuitColor": "orange"
      },
      "id": "problem_348"
    },
    {
      "type": "Feature",
      "geometry": {
        "type": "Point",
        "coordinates": [
          2.5243077892,
          48.37638559828
        ]
      },
      "properties": {
        "grade": "7c+",
        "circuitNumber": null,
        "steepness": "roof",
        "height": null,
        "name": "The Maxx",
        "bleauInfoId": "183",
        "circuitColor": null
      },
      "id": "problem_724"
    },
    {
      "type": "Feature",
      "geometry": {
        "type": "Point",
        "coordinates": [
          2.52428599617,
          48.37637713567
        ]
      },
      "properties": {
        "grade": "8a+",
        "circuitNumber": null,
        "steepness": "roof",
        "height": null,
        "name": "Total Eclipse",
        "bleauInfoId": "185",
        "circuitColor": null
      },
      "id": "problem_721"
    },
    {
      "type": "Feature",
      "geometry": {
        "type": "Point",
        "coordinates": [
          2.52431306971,
          48.37638949562
        ]
      },
      "properties": {
        "grade": "8b",
        "circuitNumber": null,
        "steepness": "roof",
        "height": null,
        "name": "Mad Maxx",
        "bleauInfoId": "1172",
        "circuitColor": null
      },
      "id": "problem_723"
    },
    {
      "type": "Feature",
      "geometry": {
        "type": "Point",
        "coordinates": [
          2.52461698892,
          48.3766480985
        ]
      },
      "properties": {
        "grade": "2b",
        "circuitNumber": "27",
        "steepness": "wall",
        "height": 2,
        "name": "Le Bourru",
        "bleauInfoId": "5852",
        "circuitColor": "orange"
      },
      "id": "problem_322"
    },
    {
      "type": "Feature",
      "geometry": {
        "type": "Point",
        "coordinates": [
          2.52469667113,
          48.37658237422
        ]
      },
      "properties": {
        "grade": "5b+",
        "circuitNumber": "26",
        "steepness": "overhang",
        "height": 3,
        "name": "Du Genou",
        "bleauInfoId": "23997",
        "circuitColor": "red"
      },
      "id": "problem_325"
    },
    {
      "type": "Feature",
      "geometry": {
        "type": "Point",
        "coordinates": [
          2.52355474107,
          48.37593203636
        ]
      },
      "properties": {
        "grade": "2a+",
        "circuitNumber": "20",
        "steepness": "overhang",
        "height": 4,
        "name": "L'Aérien",
        "bleauInfoId": "5845",
        "circuitColor": "orange"
      },
      "id": "problem_305"
    },
    {
      "type": "Feature",
      "geometry": {
        "type": "Point",
        "coordinates": [
          2.52418793981,
          48.37711620536
        ]
      },
      "properties": {
        "grade": "2b",
        "circuitNumber": "44",
        "steepness": "wall",
        "height": 3,
        "name": "Le Briscard",
        "bleauInfoId": "5869",
        "circuitColor": "orange"
      },
      "id": "problem_333"
    },
    {
      "type": "Feature",
      "geometry": {
        "type": "Point",
        "coordinates": [
          2.5250079828,
          48.37789702555
        ]
      },
      "properties": {
        "grade": "4b+",
        "circuitNumber": "42",
        "steepness": "slab",
        "height": 3,
        "name": "Le Billet Doux",
        "bleauInfoId": "23938",
        "circuitColor": "blue"
      },
      "id": "problem_359"
    },
    {
      "type": "Feature",
      "geometry": {
        "type": "Point",
        "coordinates": [
          2.52500859813,
          48.37721216731
        ]
      },
      "properties": {
        "grade": "5b",
        "circuitNumber": "28",
        "steepness": "overhang",
        "height": 3,
        "name": "Le Sourire",
        "bleauInfoId": "23916",
        "circuitColor": "red"
      },
      "id": "problem_336"
    },
    {
      "type": "Feature",
      "geometry": {
        "type": "Point",
        "coordinates": [
          2.52497690317,
          48.37696431818
        ]
      },
      "properties": {
        "grade": "5b",
        "circuitNumber": "27",
        "steepness": "overhang",
        "height": 2,
        "name": "La Caisse",
        "bleauInfoId": "23915",
        "circuitColor": "red"
      },
      "id": "problem_255"
    },
    {
      "type": "Feature",
      "geometry": {
        "type": "Point",
        "coordinates": [
          2.525036292,
          48.37715999798
        ]
      },
      "properties": {
        "grade": "2b+",
        "circuitNumber": "35",
        "steepness": "traverse",
        "height": 5,
        "name": "Le Pas de Géant",
        "bleauInfoId": "5860",
        "circuitColor": "orange"
      },
      "id": "problem_338"
    },
    {
      "type": "Feature",
      "geometry": {
        "type": "Point",
        "coordinates": [
          2.52418530308,
          48.37626969209
        ]
      },
      "properties": {
        "grade": "6a",
        "circuitNumber": "25",
        "steepness": "overhang",
        "height": 3,
        "name": "La Mer à Boire",
        "bleauInfoId": "23913",
        "circuitColor": "red"
      },
      "id": "problem_314"
    },
    {
      "type": "Feature",
      "geometry": {
        "type": "Point",
        "coordinates": [
          2.52416856564,
          48.3764527614
        ]
      },
      "properties": {
        "grade": "3a",
        "circuitNumber": "26",
        "steepness": "wall",
        "height": 4,
        "name": "L'Autre Voie",
        "bleauInfoId": "5851",
        "circuitColor": "orange"
      },
      "id": "problem_311"
    },
    {
      "type": "Feature",
      "geometry": {
        "type": "Point",
        "coordinates": [
          2.52491839997,
          48.37719233631
        ]
      },
      "properties": {
        "grade": "4c",
        "circuitNumber": "20",
        "steepness": "wall",
        "height": 4,
        "name": "Le Kyste",
        "bleauInfoId": "5794",
        "circuitColor": "blue"
      },
      "id": "problem_339"
    },
    {
      "type": "Feature",
      "geometry": {
        "type": "Point",
        "coordinates": [
          2.52385223429,
          48.37527405685
        ]
      },
      "properties": {
        "grade": "5c",
        "circuitNumber": "23",
        "steepness": "overhang",
        "height": 2,
        "name": "La Tanière",
        "bleauInfoId": "23912",
        "circuitColor": "red"
      },
      "id": "problem_316"
    },
    {
      "type": "Feature",
      "geometry": {
        "type": "Point",
        "coordinates": [
          2.52534123677,
          48.37863921237
        ]
      },
      "properties": {
        "grade": "6a",
        "circuitNumber": "36",
        "steepness": "wall",
        "height": 3,
        "name": "Le Curseur",
        "bleauInfoId": "23923",
        "circuitColor": "red"
      },
      "id": "problem_368"
    },
    {
      "type": "Feature",
      "geometry": {
        "type": "Point",
        "coordinates": [
          2.52283420953,
          48.37618771162
        ]
      },
      "properties": {
        "grade": "2a",
        "circuitNumber": "12",
        "steepness": "slab",
        "height": 3,
        "name": "Le Paisible",
        "bleauInfoId": "5837",
        "circuitColor": "orange"
      },
      "id": "problem_279"
    },
    {
      "type": "Feature",
      "geometry": {
        "type": "Point",
        "coordinates": [
          2.52359156258,
          48.37603951543
        ]
      },
      "properties": {
        "grade": "3b",
        "circuitNumber": "19",
        "steepness": "traverse",
        "height": 2,
        "name": "Le Vigoureux",
        "bleauInfoId": "5844",
        "circuitColor": "orange"
      },
      "id": "problem_304"
    },
    {
      "type": "Feature",
      "geometry": {
        "type": "Point",
        "coordinates": [
          2.52415177546,
          48.37634039916
        ]
      },
      "properties": {
        "grade": "3a+",
        "circuitNumber": "25",
        "steepness": "wall",
        "height": 4,
        "name": "La Gageure",
        "bleauInfoId": "5850",
        "circuitColor": "orange"
      },
      "id": "problem_313"
    },
    {
      "type": "Feature",
      "geometry": {
        "type": "Point",
        "coordinates": [
          2.52464840856,
          48.37738779903
        ]
      },
      "properties": {
        "grade": "2b",
        "circuitNumber": "40",
        "steepness": "other",
        "height": 3,
        "name": "L'Abri",
        "bleauInfoId": "5866",
        "circuitColor": "orange"
      },
      "id": "problem_347"
    },
    {
      "type": "Feature",
      "geometry": {
        "type": "Point",
        "coordinates": [
          2.52352894726,
          48.37616210511
        ]
      },
      "properties": {
        "grade": "2c",
        "circuitNumber": "49",
        "steepness": "wall",
        "height": 4,
        "name": "L'Obstiné",
        "bleauInfoId": "5874",
        "circuitColor": "orange"
      },
      "id": "problem_300"
    },
    {
      "type": "Feature",
      "geometry": {
        "type": "Point",
        "coordinates": [
          2.5252519914,
          48.37746085961
        ]
      },
      "properties": {
        "grade": "3a",
        "circuitNumber": "24",
        "steepness": "traverse",
        "height": 4,
        "name": "Les Précieuses",
        "bleauInfoId": "23949",
        "circuitColor": "blue"
      },
      "id": "problem_357"
    },
    {
      "type": "Feature",
      "geometry": {
        "type": "Point",
        "coordinates": [
          2.52650613492,
          48.37875026916
        ]
      },
      "properties": {
        "grade": "4a",
        "circuitNumber": "29",
        "steepness": "traverse",
        "height": 3,
        "name": "Le Succédané",
        "bleauInfoId": "23929",
        "circuitColor": "blue"
      },
      "id": "problem_379"
    },
    {
      "type": "Feature",
      "geometry": {
        "type": "Point",
        "coordinates": [
          2.52481726257,
          48.37867969997
        ]
      },
      "properties": {
        "grade": "4b",
        "circuitNumber": "41",
        "steepness": "overhang",
        "height": 4,
        "name": "L'Angle Solide",
        "bleauInfoId": "5781",
        "circuitColor": "blue"
      },
      "id": "problem_360"
    },
    {
      "type": "Feature",
      "geometry": {
        "type": "Point",
        "coordinates": [
          2.52352814848,
          48.37563310918
        ]
      },
      "properties": {
        "grade": "5a",
        "circuitNumber": "19",
        "steepness": "wall",
        "height": 3,
        "name": "La Bordée",
        "bleauInfoId": "23910",
        "circuitColor": "red"
      },
      "id": "problem_254"
    },
    {
      "type": "Feature",
      "geometry": {
        "type": "Point",
        "coordinates": [
          2.52508012574,
          48.37882606813
        ]
      },
      "properties": {
        "grade": "5c",
        "circuitNumber": "34",
        "steepness": "wall",
        "height": 3,
        "name": "Le Pare-Chocs",
        "bleauInfoId": "23922",
        "circuitColor": "red"
      },
      "id": "problem_363"
    },
    {
      "type": "Feature",
      "geometry": {
        "type": "Point",
        "coordinates": [
          2.52651556928,
          48.37883046282
        ]
      },
      "properties": {
        "grade": "5b",
        "circuitNumber": "37",
        "steepness": "wall",
        "height": 4,
        "name": "La Coquâtre",
        "bleauInfoId": "23925",
        "circuitColor": "red"
      },
      "id": "problem_378"
    },
    {
      "type": "Feature",
      "geometry": {
        "type": "Point",
        "coordinates": [
          2.52502301691,
          48.37694647004
        ]
      },
      "properties": {
        "grade": "6a",
        "circuitNumber": null,
        "steepness": "wall",
        "height": null,
        "name": "Kimoudom",
        "bleauInfoId": "13701",
        "circuitColor": null
      },
      "id": "problem_735"
    },
    {
      "type": "Feature",
      "geometry": {
        "type": "Point",
        "coordinates": [
          2.52504162457,
          48.37692085971
        ]
      },
      "properties": {
        "grade": "4b+",
        "circuitNumber": null,
        "steepness": "wall",
        "height": null,
        "name": "Le Quartzite",
        "bleauInfoId": "5790",
        "circuitColor": null
      },
      "id": "problem_734"
    },
    {
      "type": "Feature",
      "geometry": {
        "type": "Point",
        "coordinates": [
          2.52420611646,
          48.3771114902
        ]
      },
      "properties": {
        "grade": "4a",
        "circuitNumber": null,
        "steepness": "other",
        "height": null,
        "name": "Myrtalles",
        "bleauInfoId": "",
        "circuitColor": null
      },
      "id": "problem_733"
    },
    {
      "type": "Feature",
      "geometry": {
        "type": "Point",
        "coordinates": [
          2.52503588124,
          48.37692893681
        ]
      },
      "properties": {
        "grade": "4b",
        "circuitNumber": "17",
        "steepness": "wall",
        "height": 4,
        "name": "La Camée",
        "bleauInfoId": "5791",
        "circuitColor": "blue"
      },
      "id": "problem_330"
    },
    {
      "type": "Feature",
      "geometry": {
        "type": "Point",
        "coordinates": [
          2.52355007993,
          48.37618957436
        ]
      },
      "properties": {
        "grade": "5c",
        "circuitNumber": "17",
        "steepness": "wall",
        "height": 3,
        "name": "Passage à Tabac",
        "bleauInfoId": "5904",
        "circuitColor": "red"
      },
      "id": "problem_298"
    },
    {
      "type": "Feature",
      "geometry": {
        "type": "Point",
        "coordinates": [
          2.52345409211,
          48.37609486026
        ]
      },
      "properties": {
        "grade": "2b",
        "circuitNumber": null,
        "steepness": "other",
        "height": null,
        "name": "Cool Dude",
        "bleauInfoId": "",
        "circuitColor": null
      },
      "id": "problem_707"
    },
    {
      "type": "Feature",
      "geometry": {
        "type": "Point",
        "coordinates": [
          2.5230510902,
          48.37660284371
        ]
      },
      "properties": {
        "grade": "4a",
        "circuitNumber": null,
        "steepness": "other",
        "height": null,
        "name": "Fruits de Mer",
        "bleauInfoId": "",
        "circuitColor": null
      },
      "id": "problem_694"
    },
    {
      "type": "Feature",
      "geometry": {
        "type": "Point",
        "coordinates": [
          2.52349760009,
          48.3752504739
        ]
      },
      "properties": {
        "grade": "4b",
        "circuitNumber": "20",
        "steepness": "slab",
        "height": 3,
        "name": "La Plaque Avant",
        "bleauInfoId": "23911",
        "circuitColor": "red"
      },
      "id": "problem_317"
    },
    {
      "type": "Feature",
      "geometry": {
        "type": "Point",
        "coordinates": [
          2.52461923372,
          48.37733386538
        ]
      },
      "properties": {
        "grade": "4b",
        "circuitNumber": "46",
        "steepness": "wall",
        "height": 5,
        "name": "La Bastille",
        "bleauInfoId": "5800",
        "circuitColor": "blue"
      },
      "id": "problem_349"
    },
    {
      "type": "Feature",
      "geometry": {
        "type": "Point",
        "coordinates": [
          2.52501362926,
          48.37721176004
        ]
      },
      "properties": {
        "grade": "6c",
        "circuitNumber": "",
        "steepness": "overhang",
        "height": null,
        "name": "Idées Noires",
        "bleauInfoId": "5825",
        "circuitColor": null,
        "tags": [
          "sit_start"
        ]
      },
      "id": "problem_736"
    },
    {
      "type": "Feature",
      "geometry": {
        "type": "Point",
        "coordinates": [
          2.52430938151,
          48.37706895472
        ]
      },
      "properties": {
        "grade": "4c",
        "circuitNumber": null,
        "steepness": "other",
        "height": null,
        "name": "Sonneratia",
        "bleauInfoId": "",
        "circuitColor": null
      },
      "id": "problem_732"
    },
    {
      "type": "Feature",
      "geometry": {
        "type": "Point",
        "coordinates": [
          2.52224262144,
          48.37508776419
        ]
      },
      "properties": {
        "grade": "3c",
        "circuitNumber": "3",
        "steepness": "traverse",
        "height": null,
        "name": "Les Petits Pas",
        "bleauInfoId": "5828",
        "circuitColor": "orange"
      },
      "id": "problem_260"
    },
    {
      "type": "Feature",
      "geometry": {
        "type": "Point",
        "coordinates": [
          2.52199436748,
          48.37530838438
        ]
      },
      "properties": {
        "grade": "2b+",
        "circuitNumber": "5",
        "steepness": "wall",
        "height": 4,
        "name": "La Bête de Somme",
        "bleauInfoId": "5830",
        "circuitColor": "orange"
      },
      "id": "problem_264"
    },
    {
      "type": "Feature",
      "geometry": {
        "type": "Point",
        "coordinates": [
          2.52231749016,
          48.37551064201
        ]
      },
      "properties": {
        "grade": "2a+",
        "circuitNumber": "6",
        "steepness": "wall",
        "height": 2,
        "name": "Le Flop",
        "bleauInfoId": "5831",
        "circuitColor": "orange"
      },
      "id": "problem_267"
    },
    {
      "type": "Feature",
      "geometry": {
        "type": "Point",
        "coordinates": [
          2.52235914294,
          48.37565161162
        ]
      },
      "properties": {
        "grade": "2a+",
        "circuitNumber": "8",
        "steepness": "overhang",
        "height": 2,
        "name": "L'Aisée",
        "bleauInfoId": "5833",
        "circuitColor": "orange"
      },
      "id": "problem_268"
    },
    {
      "type": "Feature",
      "geometry": {
        "type": "Point",
        "coordinates": [
          2.52319925033,
          48.37610861942
        ]
      },
      "properties": {
        "grade": "2b",
        "circuitNumber": "16",
        "steepness": "overhang",
        "height": 3,
        "name": "Le Réta",
        "bleauInfoId": "5841",
        "circuitColor": "orange"
      },
      "id": "problem_292"
    },
    {
      "type": "Feature",
      "geometry": {
        "type": "Point",
        "coordinates": [
          2.52349050124,
          48.37611702165
        ]
      },
      "properties": {
        "grade": "2a",
        "circuitNumber": "18",
        "steepness": "wall",
        "height": 4,
        "name": "La Rampe",
        "bleauInfoId": "5843",
        "circuitColor": "orange"
      },
      "id": "problem_301"
    },
    {
      "type": "Feature",
      "geometry": {
        "type": "Point",
        "coordinates": [
          2.5237784957,
          48.3761431805
        ]
      },
      "properties": {
        "grade": "2b",
        "circuitNumber": "22",
        "steepness": "slab",
        "height": 3,
        "name": "La Glissade",
        "bleauInfoId": "5847",
        "circuitColor": "orange"
      },
      "id": "problem_307"
    },
    {
      "type": "Feature",
      "geometry": {
        "type": "Point",
        "coordinates": [
          2.52385587483,
          48.37645756027
        ]
      },
      "properties": {
        "grade": "2a",
        "circuitNumber": "24",
        "steepness": "wall",
        "height": 2,
        "name": "La Marche",
        "bleauInfoId": "5849",
        "circuitColor": "orange"
      },
      "id": "problem_310"
    },
    {
      "type": "Feature",
      "geometry": {
        "type": "Point",
        "coordinates": [
          2.52500870056,
          48.37686964091
        ]
      },
      "properties": {
        "grade": "2b",
        "circuitNumber": "33",
        "steepness": "other",
        "height": 3,
        "name": "La Mogette",
        "bleauInfoId": "5858",
        "circuitColor": "orange"
      },
      "id": "problem_331"
    },
    {
      "type": "Feature",
      "geometry": {
        "type": "Point",
        "coordinates": [
          2.52462963004,
          48.37748053563
        ]
      },
      "properties": {
        "grade": "2a",
        "circuitNumber": "38",
        "steepness": "wall",
        "height": 3,
        "name": "Le Sortant",
        "bleauInfoId": "5863",
        "circuitColor": "orange"
      },
      "id": "problem_352"
    },
    {
      "type": "Feature",
      "geometry": {
        "type": "Point",
        "coordinates": [
          2.52459666501,
          48.37751149296
        ]
      },
      "properties": {
        "grade": "2a+",
        "circuitNumber": "39",
        "steepness": "wall",
        "height": 3,
        "name": "La Rotation",
        "bleauInfoId": "5864",
        "circuitColor": "orange"
      },
      "id": "problem_355"
    },
    {
      "type": "Feature",
      "geometry": {
        "type": "Point",
        "coordinates": [
          2.52425962756,
          48.37732723148
        ]
      },
      "properties": {
        "grade": "2a",
        "circuitNumber": "43",
        "steepness": "wall",
        "height": 4,
        "name": "L'Oblique",
        "bleauInfoId": "5868",
        "circuitColor": "orange"
      },
      "id": "problem_346"
    },
    {
      "type": "Feature",
      "geometry": {
        "type": "Point",
        "coordinates": [
          2.5243404313,
          48.37664522154
        ]
      },
      "properties": {
        "grade": "2b",
        "circuitNumber": "46",
        "steepness": "traverse",
        "height": 5,
        "name": "Le Vigoureux",
        "bleauInfoId": "5871",
        "circuitColor": "orange"
      },
      "id": "problem_321"
    },
    {
      "type": "Feature",
      "geometry": {
        "type": "Point",
        "coordinates": [
          2.52423910829,
          48.37654706956
        ]
      },
      "properties": {
        "grade": "2c",
        "circuitNumber": "47",
        "steepness": "slab",
        "height": 4,
        "name": "L'Autorisation",
        "bleauInfoId": "5872",
        "circuitColor": "orange"
      },
      "id": "problem_320"
    },
    {
      "type": "Feature",
      "geometry": {
        "type": "Point",
        "coordinates": [
          2.52356330365,
          48.37657142816
        ]
      },
      "properties": {
        "grade": "2c",
        "circuitNumber": "48",
        "steepness": "traverse",
        "height": 3,
        "name": "L'Additif",
        "bleauInfoId": "5873",
        "circuitColor": "orange"
      },
      "id": "problem_259"
    },
    {
      "type": "Feature",
      "geometry": {
        "type": "Point",
        "coordinates": [
          2.5232442853,
          48.37625765446
        ]
      },
      "properties": {
        "grade": "3a",
        "circuitNumber": "50",
        "steepness": "other",
        "height": 3,
        "name": "L'Embarras",
        "bleauInfoId": "5875",
        "circuitColor": "orange"
      },
      "id": "problem_286"
    },
    {
      "type": "Feature",
      "geometry": {
        "type": "Point",
        "coordinates": [
          2.52294138773,
          48.3770579611
        ]
      },
      "properties": {
        "grade": "2b",
        "circuitNumber": "55",
        "steepness": "other",
        "height": 4,
        "name": "Le Brise-Lame",
        "bleauInfoId": "5880",
        "circuitColor": "orange"
      },
      "id": "problem_384"
    },
    {
      "type": "Feature",
      "geometry": {
        "type": "Point",
        "coordinates": [
          2.52260358093,
          48.3749418556
        ]
      },
      "properties": {
        "grade": "3a",
        "circuitNumber": "1",
        "steepness": "wall",
        "height": 3,
        "name": "La Meringue",
        "bleauInfoId": "23930",
        "circuitColor": "blue"
      },
      "id": "problem_249"
    },
    {
      "type": "Feature",
      "geometry": {
        "type": "Point",
        "coordinates": [
          2.5226942276,
          48.37564583867
        ]
      },
      "properties": {
        "grade": "4a",
        "circuitNumber": "5",
        "steepness": "slab",
        "height": 3,
        "name": "Le Château Fort",
        "bleauInfoId": "23942",
        "circuitColor": "blue"
      },
      "id": "problem_270"
    },
    {
      "type": "Feature",
      "geometry": {
        "type": "Point",
        "coordinates": [
          2.52474046991,
          48.37663421195
        ]
      },
      "properties": {
        "grade": "5a",
        "circuitNumber": "15",
        "steepness": "wall",
        "height": 4,
        "name": "La Téméraire",
        "bleauInfoId": "5808",
        "circuitColor": "blue"
      },
      "id": "problem_323"
    },
    {
      "type": "Feature",
      "geometry": {
        "type": "Point",
        "coordinates": [
          2.52466936194,
          48.37732162555
        ]
      },
      "properties": {
        "grade": "4a",
        "circuitNumber": "23",
        "steepness": "wall",
        "height": 3,
        "name": "La Dülfer",
        "bleauInfoId": "5797",
        "circuitColor": "blue"
      },
      "id": "problem_350"
    },
    {
      "type": "Feature",
      "geometry": {
        "type": "Point",
        "coordinates": [
          2.52521671776,
          48.37851170802
        ]
      },
      "properties": {
        "grade": "4c",
        "circuitNumber": "27",
        "steepness": "wall",
        "height": 4,
        "name": "Le Pied de Nez",
        "bleauInfoId": "5784",
        "circuitColor": "blue"
      },
      "id": "problem_370"
    },
    {
      "type": "Feature",
      "geometry": {
        "type": "Point",
        "coordinates": [
          2.52642707969,
          48.37867754616
        ]
      },
      "properties": {
        "grade": "4c",
        "circuitNumber": "28",
        "steepness": "wall",
        "height": 2,
        "name": "Le Baraqué",
        "bleauInfoId": "23953",
        "circuitColor": "blue"
      },
      "id": "problem_380"
    },
    {
      "type": "Feature",
      "geometry": {
        "type": "Point",
        "coordinates": [
          2.5267157705,
          48.37903751316
        ]
      },
      "properties": {
        "grade": "4b",
        "circuitNumber": "32",
        "steepness": "wall",
        "height": 4,
        "name": "Les Bourses",
        "bleauInfoId": "5768",
        "circuitColor": "blue"
      },
      "id": "problem_375"
    },
    {
      "type": "Feature",
      "geometry": {
        "type": "Point",
        "coordinates": [
          2.52541715211,
          48.3786400862
        ]
      },
      "properties": {
        "grade": "5a",
        "circuitNumber": "37",
        "steepness": "slab",
        "height": 4,
        "name": "La Moucheture",
        "bleauInfoId": "23936",
        "circuitColor": "blue"
      },
      "id": "problem_367"
    },
    {
      "type": "Feature",
      "geometry": {
        "type": "Point",
        "coordinates": [
          2.52494251042,
          48.37881042121
        ]
      },
      "properties": {
        "grade": "4a+",
        "circuitNumber": "39",
        "steepness": "overhang",
        "height": 4,
        "name": "Le Crack",
        "bleauInfoId": "5779",
        "circuitColor": "blue"
      },
      "id": "problem_362"
    },
    {
      "type": "Feature",
      "geometry": {
        "type": "Point",
        "coordinates": [
          2.52479455704,
          48.37875993508
        ]
      },
      "properties": {
        "grade": "3c",
        "circuitNumber": "40",
        "steepness": "wall",
        "height": 4,
        "name": "La Dépêche",
        "bleauInfoId": "5780",
        "circuitColor": "blue"
      },
      "id": "problem_252"
    },
    {
      "type": "Feature",
      "geometry": {
        "type": "Point",
        "coordinates": [
          2.52456727728,
          48.37751738376
        ]
      },
      "properties": {
        "grade": "4a+",
        "circuitNumber": "44",
        "steepness": "traverse",
        "height": 3,
        "name": "La Traversée du Temps",
        "bleauInfoId": "5799",
        "circuitColor": "blue"
      },
      "id": "problem_354"
    },
    {
      "type": "Feature",
      "geometry": {
        "type": "Point",
        "coordinates": [
          2.5246476417,
          48.37746339222
        ]
      },
      "properties": {
        "grade": "4a",
        "circuitNumber": "45",
        "steepness": "wall",
        "height": 3,
        "name": "La Bascule",
        "bleauInfoId": "5801",
        "circuitColor": "blue"
      },
      "id": "problem_353"
    },
    {
      "type": "Feature",
      "geometry": {
        "type": "Point",
        "coordinates": [
          2.52251941774,
          48.37496431854
        ]
      },
      "properties": {
        "grade": "6a",
        "circuitNumber": "1",
        "steepness": "wall",
        "height": 3,
        "name": "Pince sans Rire",
        "bleauInfoId": "8847",
        "circuitColor": "red"
      },
      "id": "problem_247"
    },
    {
      "type": "Feature",
      "geometry": {
        "type": "Point",
        "coordinates": [
          2.52198542576,
          48.37535967273
        ]
      },
      "properties": {
        "grade": "5c",
        "circuitNumber": "3",
        "steepness": "wall",
        "height": 4,
        "name": "Coup de Sang",
        "bleauInfoId": "8849",
        "circuitColor": "red"
      },
      "id": "problem_266"
    },
    {
      "type": "Feature",
      "geometry": {
        "type": "Point",
        "coordinates": [
          2.52259037913,
          48.37589182313
        ]
      },
      "properties": {
        "grade": "5b",
        "circuitNumber": "4",
        "steepness": "wall",
        "height": 4,
        "name": "Rage de Dents",
        "bleauInfoId": "5887",
        "circuitColor": "red"
      },
      "id": "problem_258"
    },
    {
      "type": "Feature",
      "geometry": {
        "type": "Point",
        "coordinates": [
          2.52311882457,
          48.3763036805
        ]
      },
      "properties": {
        "grade": "5c",
        "circuitNumber": "11",
        "steepness": "traverse",
        "height": 3,
        "name": "Le Cyanure Sucré",
        "bleauInfoId": "5898",
        "circuitColor": "red"
      },
      "id": "problem_282"
    },
    {
      "type": "Feature",
      "geometry": {
        "type": "Point",
        "coordinates": [
          2.52309730862,
          48.37638337902
        ]
      },
      "properties": {
        "grade": "5a",
        "circuitNumber": "12",
        "steepness": "slab",
        "height": 3,
        "name": "Bourre en Bref",
        "bleauInfoId": "5899",
        "circuitColor": "red"
      },
      "id": "problem_253"
    },
    {
      "type": "Feature",
      "geometry": {
        "type": "Point",
        "coordinates": [
          2.52306199082,
          48.3766196121
        ]
      },
      "properties": {
        "grade": "5b",
        "circuitNumber": "13",
        "steepness": "traverse",
        "height": 2,
        "name": "Épreuve de Force",
        "bleauInfoId": "5900",
        "circuitColor": "red"
      },
      "id": "problem_283"
    },
    {
      "type": "Feature",
      "geometry": {
        "type": "Point",
        "coordinates": [
          2.52394700115,
          48.37539693031
        ]
      },
      "properties": {
        "grade": "6a",
        "circuitNumber": "24",
        "steepness": "overhang",
        "height": 4,
        "name": "Belle au Fond de Teint",
        "bleauInfoId": "5905",
        "circuitColor": "red"
      },
      "id": "problem_315"
    },
    {
      "type": "Feature",
      "geometry": {
        "type": "Point",
        "coordinates": [
          2.52518598892,
          48.37850025419
        ]
      },
      "properties": {
        "grade": "6a",
        "circuitNumber": "32",
        "steepness": "wall",
        "height": 3,
        "name": "Le Bouton Salvateur",
        "bleauInfoId": "23954",
        "circuitColor": "red"
      },
      "id": "problem_371"
    },
    {
      "type": "Feature",
      "geometry": {
        "type": "Point",
        "coordinates": [
          2.524972146,
          48.3788335473
        ]
      },
      "properties": {
        "grade": "4c",
        "circuitNumber": "33",
        "steepness": "overhang",
        "height": 4,
        "name": "Le Virtuose",
        "bleauInfoId": "5778",
        "circuitColor": "red"
      },
      "id": "problem_361"
    },
    {
      "type": "Feature",
      "geometry": {
        "type": "Point",
        "coordinates": [
          2.52756433499,
          48.37913070651
        ]
      },
      "properties": {
        "grade": "5c",
        "circuitNumber": "38",
        "steepness": "overhang",
        "height": 5,
        "name": "Les Plaquettes de Chocolat",
        "bleauInfoId": "23926",
        "circuitColor": "red"
      },
      "id": "problem_257"
    },
    {
      "type": "Feature",
      "geometry": {
        "type": "Point",
        "coordinates": [
          2.522666073,
          48.37564639326
        ]
      },
      "properties": {
        "grade": "3a",
        "circuitNumber": "7",
        "steepness": "wall",
        "height": 3,
        "name": "L'Encoignure",
        "bleauInfoId": "5832",
        "circuitColor": "orange"
      },
      "id": "problem_269"
    },
    {
      "type": "Feature",
      "geometry": {
        "type": "Point",
        "coordinates": [
          2.52255613128,
          48.37589627721
        ]
      },
      "properties": {
        "grade": "2a+",
        "circuitNumber": "10",
        "steepness": "traverse",
        "height": 3,
        "name": "Le bac à Eau",
        "bleauInfoId": "5835",
        "circuitColor": "orange"
      },
      "id": "problem_272"
    },
    {
      "type": "Feature",
      "geometry": {
        "type": "Point",
        "coordinates": [
          2.52303883623,
          48.37627922639
        ]
      },
      "properties": {
        "grade": "3a",
        "circuitNumber": "14",
        "steepness": "wall",
        "height": 3,
        "name": "L'Évitable Bi",
        "bleauInfoId": "5839",
        "circuitColor": "orange"
      },
      "id": "problem_281"
    },
    {
      "type": "Feature",
      "geometry": {
        "type": "Point",
        "coordinates": [
          2.52325816568,
          48.37607203012
        ]
      },
      "properties": {
        "grade": "3a",
        "circuitNumber": "17",
        "steepness": "wall",
        "height": 3,
        "name": "Le Coiné",
        "bleauInfoId": "5842",
        "circuitColor": "orange"
      },
      "id": "problem_293"
    },
    {
      "type": "Feature",
      "geometry": {
        "type": "Point",
        "coordinates": [
          2.52386611657,
          48.37605113178
        ]
      },
      "properties": {
        "grade": "2b+",
        "circuitNumber": "21",
        "steepness": "wall",
        "height": 2,
        "name": "Le Montant",
        "bleauInfoId": "5846",
        "circuitColor": "orange"
      },
      "id": "problem_306"
    },
    {
      "type": "Feature",
      "geometry": {
        "type": "Point",
        "coordinates": [
          2.52385851042,
          48.37654349425
        ]
      },
      "properties": {
        "grade": "3b",
        "circuitNumber": "23",
        "steepness": "traverse",
        "height": 4,
        "name": "La Fuite en Amont",
        "bleauInfoId": "5848",
        "circuitColor": "orange"
      },
      "id": "problem_309"
    },
    {
      "type": "Feature",
      "geometry": {
        "type": "Point",
        "coordinates": [
          2.52490242911,
          48.37648713119
        ]
      },
      "properties": {
        "grade": "4a",
        "circuitNumber": "31",
        "steepness": "wall",
        "height": 3,
        "name": "La Combine",
        "bleauInfoId": "5856",
        "circuitColor": "orange"
      },
      "id": "problem_328"
    },
    {
      "type": "Feature",
      "geometry": {
        "type": "Point",
        "coordinates": [
          2.52514344353,
          48.37715907298
        ]
      },
      "properties": {
        "grade": "2a",
        "circuitNumber": "34",
        "steepness": "other",
        "height": 4,
        "name": "Le Terminus",
        "bleauInfoId": "5859",
        "circuitColor": "orange"
      },
      "id": "problem_334"
    },
    {
      "type": "Feature",
      "geometry": {
        "type": "Point",
        "coordinates": [
          2.52493171776,
          48.37713771302
        ]
      },
      "properties": {
        "grade": "2b",
        "circuitNumber": "36",
        "steepness": "other",
        "height": 4,
        "name": "La Rabiboche",
        "bleauInfoId": "5861",
        "circuitColor": "orange"
      },
      "id": "problem_341"
    },
    {
      "type": "Feature",
      "geometry": {
        "type": "Point",
        "coordinates": [
          2.52472070304,
          48.37729961695
        ]
      },
      "properties": {
        "grade": "2c",
        "circuitNumber": "42",
        "steepness": "wall",
        "height": 4,
        "name": "La Bravoure",
        "bleauInfoId": "5867",
        "circuitColor": "orange"
      },
      "id": "problem_344"
    },
    {
      "type": "Feature",
      "geometry": {
        "type": "Point",
        "coordinates": [
          2.52423345883,
          48.37702809372
        ]
      },
      "properties": {
        "grade": "2b",
        "circuitNumber": "45",
        "steepness": "slab",
        "height": 5,
        "name": "Le Roi Mage",
        "bleauInfoId": "5870",
        "circuitColor": "orange"
      },
      "id": "problem_332"
    },
    {
      "type": "Feature",
      "geometry": {
        "type": "Point",
        "coordinates": [
          2.52303675463,
          48.37636689907
        ]
      },
      "properties": {
        "grade": "2a+",
        "circuitNumber": "51",
        "steepness": "traverse",
        "height": 4,
        "name": "La Sortie du Tunnel",
        "bleauInfoId": "5876",
        "circuitColor": "orange"
      },
      "id": "problem_381"
    },
    {
      "type": "Feature",
      "geometry": {
        "type": "Point",
        "coordinates": [
          2.52305824173,
          48.3768203157
        ]
      },
      "properties": {
        "grade": "2a+",
        "circuitNumber": "53",
        "steepness": "other",
        "height": 3,
        "name": "L'Embarcadère",
        "bleauInfoId": "5878",
        "circuitColor": "orange"
      },
      "id": "problem_382"
    },
    {
      "type": "Feature",
      "geometry": {
        "type": "Point",
        "coordinates": [
          2.52302598528,
          48.37694013869
        ]
      },
      "properties": {
        "grade": "3a",
        "circuitNumber": "54",
        "steepness": "wall",
        "height": 3,
        "name": "Le Front de Mer",
        "bleauInfoId": "5879",
        "circuitColor": "orange"
      },
      "id": "problem_383"
    },
    {
      "type": "Feature",
      "geometry": {
        "type": "Point",
        "coordinates": [
          2.52353526505,
          48.37609467671
        ]
      },
      "properties": {
        "grade": "4a",
        "circuitNumber": "12",
        "steepness": "wall",
        "height": 3,
        "name": "La Pacotille",
        "bleauInfoId": "5817",
        "circuitColor": "blue"
      },
      "id": "problem_303"
    },
    {
      "type": "Feature",
      "geometry": {
        "type": "Point",
        "coordinates": [
          2.52207176992,
          48.37519977293
        ]
      },
      "properties": {
        "grade": "4a",
        "circuitNumber": "3",
        "steepness": "wall",
        "height": 3,
        "name": "Le Chameau",
        "bleauInfoId": "23921",
        "circuitColor": "blue"
      },
      "id": "problem_262"
    },
    {
      "type": "Feature",
      "geometry": {
        "type": "Point",
        "coordinates": [
          2.52327049818,
          48.37612306488
        ]
      },
      "properties": {
        "grade": "4c",
        "circuitNumber": "9",
        "steepness": "traverse",
        "height": 4,
        "name": "La Bottine",
        "bleauInfoId": "5821",
        "circuitColor": "blue"
      },
      "id": "problem_295"
    },
    {
      "type": "Feature",
      "geometry": {
        "type": "Point",
        "coordinates": [
          2.52410494172,
          48.37634918079
        ]
      },
      "properties": {
        "grade": "3a",
        "circuitNumber": "14",
        "steepness": "slab",
        "height": 5,
        "name": "L'Autre Dalle",
        "bleauInfoId": "5811",
        "circuitColor": "blue"
      },
      "id": "problem_312"
    },
    {
      "type": "Feature",
      "geometry": {
        "type": "Point",
        "coordinates": [
          2.52472467973,
          48.37666924218
        ]
      },
      "properties": {
        "grade": "4b",
        "circuitNumber": "16",
        "steepness": "slab",
        "height": 3,
        "name": "L'Élégante",
        "bleauInfoId": "5806",
        "circuitColor": "blue"
      },
      "id": "problem_250"
    },
    {
      "type": "Feature",
      "geometry": {
        "type": "Point",
        "coordinates": [
          2.52505936194,
          48.37716611578
        ]
      },
      "properties": {
        "grade": "4a+",
        "circuitNumber": "19",
        "steepness": "wall",
        "height": 5,
        "name": "L'Existentiel",
        "bleauInfoId": "5793",
        "circuitColor": "blue"
      },
      "id": "problem_337"
    },
    {
      "type": "Feature",
      "geometry": {
        "type": "Point",
        "coordinates": [
          2.5246341202,
          48.3771817837
        ]
      },
      "properties": {
        "grade": "4b+",
        "circuitNumber": "21",
        "steepness": "wall",
        "height": 4,
        "name": "Le Bon Coin",
        "bleauInfoId": "5795",
        "circuitColor": "blue"
      },
      "id": "problem_343"
    },
    {
      "type": "Feature",
      "geometry": {
        "type": "Point",
        "coordinates": [
          2.52470524537,
          48.37726448198
        ]
      },
      "properties": {
        "grade": "4a",
        "circuitNumber": "22",
        "steepness": "wall",
        "height": 4,
        "name": "Le Rentrant",
        "bleauInfoId": "5796",
        "circuitColor": "blue"
      },
      "id": "problem_345"
    },
    {
      "type": "Feature",
      "geometry": {
        "type": "Point",
        "coordinates": [
          2.52513881101,
          48.37846956498
        ]
      },
      "properties": {
        "grade": "4b",
        "circuitNumber": "26",
        "steepness": "wall",
        "height": 3,
        "name": "La Bafouille",
        "bleauInfoId": "23951",
        "circuitColor": "blue"
      },
      "id": "problem_372"
    },
    {
      "type": "Feature",
      "geometry": {
        "type": "Point",
        "coordinates": [
          2.5269541288,
          48.37897858875
        ]
      },
      "properties": {
        "grade": "4b",
        "circuitNumber": "31",
        "steepness": "wall",
        "height": 3,
        "name": "Le Combinard",
        "bleauInfoId": "5767",
        "circuitColor": "blue"
      },
      "id": "problem_374"
    },
    {
      "type": "Feature",
      "geometry": {
        "type": "Point",
        "coordinates": [
          2.52668169444,
          48.37893874867
        ]
      },
      "properties": {
        "grade": "3c",
        "circuitNumber": "33",
        "steepness": "traverse",
        "height": 3,
        "name": "Le Pain Blanc",
        "bleauInfoId": "5769",
        "circuitColor": "blue"
      },
      "id": "problem_377"
    },
    {
      "type": "Feature",
      "geometry": {
        "type": "Point",
        "coordinates": [
          2.52570053373,
          48.37849617888
        ]
      },
      "properties": {
        "grade": "4b",
        "circuitNumber": "35",
        "steepness": "wall",
        "height": 4,
        "name": "La Poulette",
        "bleauInfoId": "5773",
        "circuitColor": "blue"
      },
      "id": "problem_365"
    },
    {
      "type": "Feature",
      "geometry": {
        "type": "Point",
        "coordinates": [
          2.52550333862,
          48.37857030486
        ]
      },
      "properties": {
        "grade": "3c",
        "circuitNumber": "36",
        "steepness": "wall",
        "height": 3,
        "name": "La Bourrique",
        "bleauInfoId": "5775",
        "circuitColor": "blue"
      },
      "id": "problem_366"
    },
    {
      "type": "Feature",
      "geometry": {
        "type": "Point",
        "coordinates": [
          2.52510687789,
          48.37877924441
        ]
      },
      "properties": {
        "grade": "4b",
        "circuitNumber": "38",
        "steepness": "wall",
        "height": 3,
        "name": "La Coqueluche",
        "bleauInfoId": "5776",
        "circuitColor": "blue"
      },
      "id": "problem_364"
    },
    {
      "type": "Feature",
      "geometry": {
        "type": "Point",
        "coordinates": [
          2.52450269998,
          48.37775214333
        ]
      },
      "properties": {
        "grade": "4b+",
        "circuitNumber": "43",
        "steepness": "wall",
        "height": 3,
        "name": "Et Tic en Toc",
        "bleauInfoId": "24739",
        "circuitColor": "blue"
      },
      "id": "problem_356"
    },
    {
      "type": "Feature",
      "geometry": {
        "type": "Point",
        "coordinates": [
          2.52272115154,
          48.37611718269
        ]
      },
      "properties": {
        "grade": "6a",
        "circuitNumber": "7",
        "steepness": "wall",
        "height": 4,
        "name": "Citron Vert",
        "bleauInfoId": "148085",
        "circuitColor": "red"
      },
      "id": "problem_278"
    },
    {
      "type": "Feature",
      "geometry": {
        "type": "Point",
        "coordinates": [
          2.5231895215,
          48.37623775496
        ]
      },
      "properties": {
        "grade": "5b",
        "circuitNumber": "10",
        "steepness": "wall",
        "height": 3,
        "name": "Indécence",
        "bleauInfoId": "5896",
        "circuitColor": "red"
      },
      "id": "problem_287"
    },
    {
      "type": "Feature",
      "geometry": {
        "type": "Point",
        "coordinates": [
          2.52346213682,
          48.37611025729
        ]
      },
      "properties": {
        "grade": "5b",
        "circuitNumber": "18",
        "steepness": "slab",
        "height": 4,
        "name": "Coule Douce",
        "bleauInfoId": "5903",
        "circuitColor": "red"
      },
      "id": "problem_302"
    },
    {
      "type": "Feature",
      "geometry": {
        "type": "Point",
        "coordinates": [
          2.52447023065,
          48.3775902508
        ]
      },
      "properties": {
        "grade": "5a",
        "circuitNumber": "31",
        "steepness": "wall",
        "height": 2,
        "name": "La Constance",
        "bleauInfoId": "23920",
        "circuitColor": "red"
      },
      "id": "problem_256"
    },
    {
      "type": "Feature",
      "geometry": {
        "type": "Point",
        "coordinates": [
          2.52521116683,
          48.37860063246
        ]
      },
      "properties": {
        "grade": "5b",
        "circuitNumber": "35",
        "steepness": "wall",
        "height": 5,
        "name": "L'Œuf du Chien",
        "bleauInfoId": "23996",
        "circuitColor": "red"
      },
      "id": "problem_369"
    },
    {
      "type": "Feature",
      "geometry": {
        "type": "Point",
        "coordinates": [
          2.5243165902,
          48.37639573122
        ]
      },
      "properties": {
        "grade": "7c",
        "circuitNumber": null,
        "steepness": "roof",
        "height": null,
        "name": "Nouvelle Vague",
        "bleauInfoId": "179",
        "circuitColor": null
      },
      "id": "problem_725"
    },
    {
      "type": "Feature",
      "geometry": {
        "type": "Point",
        "coordinates": [
          2.52753071453,
          48.3791549329
        ]
      },
      "properties": {
        "grade": "6a+",
        "circuitNumber": null,
        "steepness": "overhang",
        "height": null,
        "name": "Petit Ventre",
        "bleauInfoId": "23914",
        "circuitColor": null
      },
      "id": "problem_750"
    },
    {
      "type": "Feature",
      "geometry": {
        "type": "Point",
        "coordinates": [
          2.52268647758,
          48.37605477356
        ]
      },
      "properties": {
        "grade": "6c",
        "circuitNumber": "",
        "steepness": "roof",
        "height": null,
        "name": "Jour de Gloire (assis)",
        "bleauInfoId": "25075",
        "circuitColor": null,
        "tags": [
          "sit_start",
          "risky"
        ]
      },
      "id": "problem_689"
    },
    {
      "type": "Feature",
      "geometry": {
        "type": "Point",
        "coordinates": [
          2.52345912091,
          48.37514569061
        ]
      },
      "properties": {
        "grade": "3a+",
        "circuitNumber": null,
        "steepness": "slab",
        "height": null,
        "name": "Goa",
        "bleauInfoId": "",
        "circuitColor": null
      },
      "id": "problem_709"
    },
    {
      "type": "Feature",
      "geometry": {
        "type": "Point",
        "coordinates": [
          2.52354025774,
          48.37518800499
        ]
      },
      "properties": {
        "grade": "5a",
        "circuitNumber": null,
        "steepness": "slab",
        "height": null,
        "name": "Pierre Douce",
        "bleauInfoId": "5908",
        "circuitColor": null
      },
      "id": "problem_711"
    },
    {
      "type": "Feature",
      "geometry": {
        "type": "Point",
        "coordinates": [
          2.5246506926,
          48.37748940857
        ]
      },
      "properties": {
        "grade": "4a",
        "circuitNumber": null,
        "steepness": "slab",
        "height": null,
        "name": "L'Échalas",
        "bleauInfoId": "23940",
        "circuitColor": null
      },
      "id": "problem_755"
    },
    {
      "type": "Feature",
      "geometry": {
        "type": "Point",
        "coordinates": [
          2.5251100209,
          48.37879773719
        ]
      },
      "properties": {
        "grade": "6b",
        "circuitNumber": null,
        "steepness": "wall",
        "height": null,
        "name": "Ping-Pong",
        "bleauInfoId": "17015",
        "circuitColor": null
      },
      "id": "problem_744"
    },
    {
      "type": "Feature",
      "geometry": {
        "type": "Point",
        "coordinates": [
          2.52460658647,
          48.37734664271
        ]
      },
      "properties": {
        "grade": "5a",
        "circuitNumber": "30",
        "steepness": "overhang",
        "height": 5,
        "name": "L'Arête Principale",
        "bleauInfoId": "23918",
        "circuitColor": "red"
      },
      "id": "problem_351"
    },
    {
      "type": "Feature",
      "geometry": {
        "type": "Polygon",
        "coordinates": [
          [
            [
              2.52498462662,
              48.37696874077
            ],
            [
              2.52494171128,
              48.37694468923
            ],
            [
              2.52493500575,
              48.37692776407
            ],
            [
              2.52493366465,
              48.3769099481
            ],
            [
              2.52494037017,
              48.37689213212
            ],
            [
              2.52498999104,
              48.37687431614
            ],
            [
              2.52501547202,
              48.37687075295
            ],
            [
              2.5250382708,
              48.37687877014
            ],
            [
              2.52504497632,
              48.37691707449
            ],
            [
              2.5250074254,
              48.37696695917
            ],
            [
              2.52498462662,
              48.37696874077
            ]
          ]
        ]
      },
      "properties": {
      },
      "id": "boulder_565"
    },
    {
      "type": "Feature",
      "geometry": {
        "type": "Polygon",
        "coordinates": [
          [
            [
              2.52315988697,
              48.37619997628
            ],
            [
              2.52316206627,
              48.3761932952
            ],
            [
              2.52317681842,
              48.37616835248
            ],
            [
              2.52317681842,
              48.37615899896
            ],
            [
              2.52314865522,
              48.37612737514
            ],
            [
              2.52313591473,
              48.37612336648
            ],
            [
              2.52312250368,
              48.3761242573
            ],
            [
              2.52311110429,
              48.37613004757
            ],
            [
              2.52309769325,
              48.376146973
            ],
            [
              2.52309501104,
              48.37615632653
            ],
            [
              2.52310909264,
              48.37617280654
            ],
            [
              2.52311915092,
              48.37617993303
            ],
            [
              2.52314798467,
              48.37619953088
            ],
            [
              2.52315519361,
              48.37620108946
            ],
            [
              2.52315988697,
              48.37619997628
            ]
          ]
        ]
      },
      "properties": {
      },
      "id": "boulder_566"
    },
    {
      "type": "Feature",
      "geometry": {
        "type": "Polygon",
        "coordinates": [
          [
            [
              2.52358920738,
              48.37593852304
            ],
            [
              2.5235355632,
              48.37592872407
            ],
            [
              2.52353288099,
              48.37591179857
            ],
            [
              2.52355903253,
              48.37589932715
            ],
            [
              2.52362273499,
              48.3758966547
            ],
            [
              2.52364151046,
              48.37591001694
            ],
            [
              2.52364016935,
              48.37592872407
            ],
            [
              2.52358920738,
              48.37593852304
            ]
          ]
        ]
      },
      "properties": {
      },
      "id": "boulder_567"
    },