{
  "type": "FeatureCollection",
  "features": [
    {
      "type": "Feature",
      "geometry": {
        "type": "Point",
        "coordinates": [
          2.52922989395,
          48.38590421356
        ]
      },
      "properties": {
        "grade": "3c",
        "circuitNumber": "40",
        "steepness": "wall",
        "height": null,
        "name": "La Fausse Fosse",
        "circuitColor": "blue",
        "circuitId": 38,
        "tags": [
          "risky"
        ]
      },
      "id": "problem_2963"
    },
    {
      "type": "Feature",
      "geometry": {
        "type": "Point",
        "coordinates": [
          2.53091448901,
          48.38644148988
        ]
      },
      "properties": {
        "grade": "5b",
        "circuitNumber": "21",
        "steepness": "wall",
        "height": null,
        "name": null,
        "circuitColor": "white",
        "circuitId": 40,
        "tags": [
          "risky"
        ]
      },
      "id": "problem_3014"
    },
    {
      "type": "Feature",
      "geometry": {
        "type": "Point",
        "coordinates": [
          2.53081675602,
          48.38492127014
        ]
      },
      "properties": {
        "grade": "7a+",
        "circuitNumber": "",
        "steepness": "other",
        "height": null,
        "name": "Le Jeté Michaud / Jump",
        "circuitColor": null,
        "circuitId": null,
        "tags": [

        ]
      },
      "id": "problem_3135"
    },
    {
      "type": "Feature",
      "geometry": {
        "type": "Point",
        "coordinates": [
          2.5288017465,
          48.38580468421
        ]
      },
      "properties": {
        "grade": "2c",
        "circuitNumber": "29",
        "steepness": "other",
        "height": null,
        "name": null,
        "circuitColor": "orange",
        "circuitId": 37,
        "tags": [

        ]
      },
      "id": "problem_2939"
    },
    {
      "type": "Feature",
      "geometry": {
        "type": "Point",
        "coordinates": [
          2.53100769578,
          48.38568066204
        ]
      },
      "properties": {
        "grade": "6c",
        "circuitNumber": "",
        "steepness": "overhang",
        "height": null,
        "name": "Vodka Martini",
        "circuitColor": null,
        "circuitId": null,
        "tags": [
          "sit_start"
        ]
      },
      "id": "problem_3082"
    },
    {
      "type": "Feature",
      "geometry": {
        "type": "Point",
        "coordinates": [
          2.52842338739,
          48.38571940508
        ]
      },
      "properties": {
        "grade": "3c",
        "circuitNumber": "21",
        "steepness": "other",
        "height": null,
        "name": null,
        "circuitColor": "orange",
        "circuitId": 37,
        "tags": [

        ]
      },
      "id": "problem_2931"
    },
    {
      "type": "Feature",
      "geometry": {
        "type": "Point",
        "coordinates": [
          2.53068977002,
          48.38484088827
        ]
      },
      "properties": {
        "grade": "4b",
        "circuitNumber": "2",
        "steepness": "slab",
        "height": null,
        "name": "Le Saut de la Peur",
        "circuitColor": "blue",
        "circuitId": 38,
        "tags": [

        ]
      },
      "id": "problem_3146"
    },
    {
      "type": "Feature",
      "geometry": {
        "type": "Point",
        "coordinates": [
          2.53080518899,
          48.38608312068
        ]
      },
      "properties": {
        "grade": "6c",
        "circuitNumber": "",
        "steepness": "wall",
        "height": null,
        "name": "La Porte Étroite",
        "circuitColor": null,
        "circuitId": null,
        "tags": [
          "risky"
        ]
      },
      "id": "problem_3031"
    },
    {
      "type": "Feature",
      "geometry": {
        "type": "Point",
        "coordinates": [
          2.53102177737,
          48.38519381086
        ]
      },
      "properties": {
        "grade": "5a",
        "circuitNumber": "6",
        "steepness": "overhang",
        "height": null,
        "name": null,
        "circuitColor": "white",
        "circuitId": 40,
        "tags": [
          "risky"
        ]
      },
      "id": "problem_3115"
    },
    {
      "type": "Feature",
      "geometry": {
        "type": "Point",
        "coordinates": [
          2.53036078049,
          48.38551299783
        ]
      },
      "properties": {
        "grade": "4b+",
        "circuitNumber": "25",
        "steepness": "slab",
        "height": null,
        "name": "Bien Précieux",
        "circuitColor": "blue",
        "circuitId": 38,
        "tags": [
          "risky"
        ]
      },
      "id": "problem_3211"
    },
    {
      "type": "Feature",
      "geometry": {
        "type": "Point",
        "coordinates": [
          2.53086235357,
          48.38616472532
        ]
      },
      "properties": {
        "grade": "4c",
        "circuitNumber": "",
        "steepness": "other",
        "height": null,
        "name": "Sans Escalier",
        "circuitColor": null,
        "circuitId": null,
        "tags": [

        ]
      },
      "id": "problem_3025"
    },
    {
      "type": "Feature",
      "geometry": {
        "type": "Point",
        "coordinates": [
          2.52927448567,
          48.38581626268
        ]
      },
      "properties": {
        "grade": "7a",
        "circuitNumber": "",
        "steepness": "overhang",
        "height": null,
        "name": "Triplette",
        "circuitColor": null,
        "circuitId": null,
        "tags": [

        ]
      },
      "id": "problem_2977"
    },
    {
      "type": "Feature",
      "geometry": {
        "type": "Point",
        "coordinates": [
          2.53102772861,
          48.38622361857
        ]
      },
      "properties": {
        "grade": "5a",
        "circuitNumber": "8",
        "steepness": "wall",
        "height": null,
        "name": "L'Étroiture",
        "circuitColor": "red",
        "circuitId": 39,
        "tags": [

        ]
      },
      "id": "problem_3021"
    },
    {
      "type": "Feature",
      "geometry": {
        "type": "Point",
        "coordinates": [
          2.52942167206,
          48.38552424226
        ]
      },
      "properties": {
        "grade": "4c",
        "circuitNumber": "34",
        "steepness": "traverse",
        "height": null,
        "name": "Sauvé du Sable",
        "circuitColor": "blue",
        "circuitId": 38,
        "tags": [

        ]
      },
      "id": "problem_2998"
    },
    {
      "type": "Feature",
      "geometry": {
        "type": "Point",
        "coordinates": [
          2.5293108633,
          48.38572441496
        ]
      },
      "properties": {
        "grade": "3c+",
        "circuitNumber": "36",
        "steepness": "overhang",
        "height": null,
        "name": "Mise à Table",
        "circuitColor": "blue",
        "circuitId": 38,
        "tags": [

        ]
      },
      "id": "problem_2981"
    },
    {
      "type": "Feature",
      "geometry": {
        "type": "Point",
        "coordinates": [
          2.53058943889,
          48.38523377887
        ]
      },
      "properties": {
        "grade": "4a+",
        "circuitNumber": "12",
        "steepness": "slab",
        "height": null,
        "name": "La Facilité",
        "circuitColor": "blue",
        "circuitId": 38,
        "tags": [

        ]
      },
      "id": "problem_3172"
    },
    {
      "type": "Feature",
      "geometry": {
        "type": "Point",
        "coordinates": [
          2.52828148185,
          48.38581091865
        ]
      },
      "properties": {
        "grade": "3b+",
        "circuitNumber": "34",
        "steepness": "other",
        "height": null,
        "name": null,
        "circuitColor": "orange",
        "circuitId": 37,
        "tags": [

        ]
      },
      "id": "problem_2944"
    },
    {
      "type": "Feature",
      "geometry": {
        "type": "Point",
        "coordinates": [
          2.52928731023,
          48.38576644216
        ]
      },
      "properties": {
        "grade": "4a",
        "circuitNumber": "",
        "steepness": "other",
        "height": null,
        "name": "Karr",
        "circuitColor": null,
        "circuitId": null,
        "tags": [

        ]
      },
      "id": "problem_2983"
    },
    {
      "type": "Feature",
      "geometry": {
        "type": "Point",
        "coordinates": [
          2.53049639968,
          48.38548783702
        ]
      },
      "properties": {
        "grade": "6a",
        "circuitNumber": "31",
        "steepness": "wall",
        "height": null,
        "name": "Pubis Infernal",
        "circuitColor": "white",
        "circuitId": 40,
        "tags": [

        ]
      },
      "id": "problem_3200"
    },
    {
      "type": "Feature",
      "geometry": {
        "type": "Point",
        "coordinates": [
          2.53094634024,
          48.38651841814
        ]
      },
      "properties": {
        "grade": "4c",
        "circuitNumber": "2",
        "steepness": "slab",
        "height": null,
        "name": "Hommage",
        "circuitColor": "red",
        "circuitId": 39,
        "tags": [

        ]
      },
      "id": "problem_3010"
    },
    {
      "type": "Feature",
      "geometry": {
        "type": "Point",
        "coordinates": [
          2.53052892147,
          48.38516987454
        ]
      },
      "properties": {
        "grade": "5b",
        "circuitNumber": "31",
        "steepness": "wall",
        "height": null,
        "name": "Effet Loupe",
        "circuitColor": "red",
        "circuitId": 39,
        "tags": [

        ]
      },
      "id": "problem_3169"
    },
    {
      "type": "Feature",
      "geometry": {
        "type": "Point",
        "coordinates": [
          2.53037603555,
          48.38550976923
        ]
      },
      "properties": {
        "grade": "5b",
        "circuitNumber": "39",
        "steepness": "slab",
        "height": null,
        "name": "Haltérophilie",
        "circuitColor": "red",
        "circuitId": 39,
        "tags": [

        ]
      },
      "id": "problem_3210"
    },
    {
      "type": "Feature",
      "geometry": {
        "type": "Point",
        "coordinates": [
          2.52928940571,
          48.38577841018
        ]
      },
      "properties": {
        "grade": "6a",
        "circuitNumber": "25",
        "steepness": "other",
        "height": null,
        "name": null,
        "circuitColor": "white",
        "circuitId": 40,
        "tags": [

        ]
      },
      "id": "problem_2966"
    },
    {
      "type": "Feature",
      "geometry": {
        "type": "Point",
        "coordinates": [
          2.53094617261,
          48.38564726284
        ]
      },
      "properties": {
        "grade": "4a",
        "circuitNumber": "20",
        "steepness": "other",
        "height": null,
        "name": "Le Reposoir",
        "circuitColor": "blue",
        "circuitId": 38,
        "tags": [

        ]
      },
      "id": "problem_3079"
    },
    {
      "type": "Feature",
      "geometry": {
        "type": "Point",
        "coordinates": [
          2.53080233915,
          48.38486727395
        ]
      },
      "properties": {
        "grade": "5c",
        "circuitNumber": "3",
        "steepness": "wall",
        "height": null,
        "name": null,
        "circuitColor": "white",
        "circuitId": 40,
        "tags": [

        ]
      },
      "id": "problem_3143"
    },
    {
      "type": "Feature",
      "geometry": {
        "type": "Point",
        "coordinates": [
          2.53108212708,
          48.38546579347
        ]
      },
      "properties": {
        "grade": "3b",
        "circuitNumber": "25",
        "steepness": "wall",
        "height": null,
        "name": "La Déviation",
        "circuitColor": "orange",
        "circuitId": 45,
        "tags": [

        ]
      },
      "id": "problem_3103"
    },
    {
      "type": "Feature",
      "geometry": {
        "type": "Point",
        "coordinates": [
          2.52856839431,
          48.38551990035
        ]
      },
      "properties": {
        "grade": "2b+",
        "circuitNumber": "23",
        "steepness": "other",
        "height": null,
        "name": null,
        "circuitColor": "orange",
        "circuitId": 37,
        "tags": [

        ]
      },
      "id": "problem_2933"
    },
    {
      "type": "Feature",
      "geometry": {
        "type": "Point",
        "coordinates": [
          2.53102613596,
          48.38542894286
        ]
      },
      "properties": {
        "grade": "4c",
        "circuitNumber": "15",
        "steepness": "slab",
        "height": null,
        "name": "Grattons Bonheur",
        "circuitColor": "blue",
        "circuitId": 38,
        "tags": [

        ]
      },
      "id": "problem_3106"
    },
    {
      "type": "Feature",
      "geometry": {
        "type": "Point",
        "coordinates": [
          2.53136023846,
          48.38569179521
        ]
      },
      "properties": {
        "grade": "3a",
        "circuitNumber": "14",
        "steepness": "wall",
        "height": null,
        "name": "Pince Oreille",
        "circuitColor": "orange",
        "circuitId": 45,
        "tags": [

        ]
      },
      "id": "problem_3059"
    },
    {
      "type": "Feature",
      "geometry": {
        "type": "Point",
        "coordinates": [
          2.52735821522,
          48.38540044201
        ]
      },
      "properties": {
        "grade": "6c",
        "circuitNumber": "",
        "steepness": "roof",
        "height": null,
        "name": "Les Pieds dans la Lune (droite)",
        "circuitColor": null,
        "circuitId": null,
        "tags": [
          "sit_start"
        ]
      },
      "id": "problem_2890"
    },
    {
      "type": "Feature",
      "geometry": {
        "type": "Point",
        "coordinates": [
          2.52752702666,
          48.3856710876
        ]
      },
      "properties": {
        "grade": "4a",
        "circuitNumber": "9",
        "steepness": "wall",
        "height": null,
        "name": null,
        "circuitColor": "orange",
        "circuitId": 37,
        "tags": [

        ]
      },
      "id": "problem_2917"
    },
    {
      "type": "Feature",
      "geometry": {
        "type": "Point",
        "coordinates": [
          2.53101507185,
          48.38552491025
        ]
      },
      "properties": {
        "grade": "4a",
        "circuitNumber": "",
        "steepness": "other",
        "height": null,
        "name": "Jeu d'Arête",
        "circuitColor": null,
        "circuitId": null,
        "tags": [

        ]
      },
      "id": "problem_3087"
    },
    {
      "type": "Feature",
      "geometry": {
        "type": "Point",
        "coordinates": [
          2.53113342432,
          48.38545633032
        ]
      },
      "properties": {
        "grade": "6a+",
        "circuitNumber": "7",
        "steepness": "slab",
        "height": null,
        "name": "Sans l'Arête",
        "circuitColor": "white",
        "circuitId": 40,
        "tags": [

        ]
      },
      "id": "problem_3100"
    },
    {
      "type": "Feature",
      "geometry": {
        "type": "Point",
        "coordinates": [
          2.52957556363,
          48.38535513034
        ]
      },
      "properties": {
        "grade": "4b",
        "circuitNumber": "32",
        "steepness": "overhang",
        "height": null,
        "name": "Carie Dentaire",
        "circuitColor": "blue",
        "circuitId": 38,
        "tags": [

        ]
      },
      "id": "problem_3004"
    },
    {
      "type": "Feature",
      "geometry": {
        "type": "Point",
        "coordinates": [
          2.52843327804,
          48.38568667389
        ]
      },
      "properties": {
        "grade": "2b",
        "circuitNumber": "20",
        "steepness": "other",
        "height": null,
        "name": null,
        "circuitColor": "orange",
        "circuitId": 37,
        "tags": [

        ]
      },
      "id": "problem_2930"
    },
    {
      "type": "Feature",
      "geometry": {
        "type": "Point",
        "coordinates": [
          2.52796347245,
          48.38625751838
        ]
      },
      "properties": {
        "grade": "7c",
        "circuitNumber": "",
        "steepness": "roof",
        "height": null,
        "name": "Symbiose",
        "circuitColor": null,
        "circuitId": null,
        "tags": [
          "sit_start"
        ]
      },
      "id": "problem_2952"
    },
    {
      "type": "Feature",
      "geometry": {
        "type": "Point",
        "coordinates": [
          2.53051366649,
          48.38488291609
        ]
      },
      "properties": {
        "grade": "5b",
        "circuitNumber": "29",
        "steepness": "wall",
        "height": null,
        "name": "La Fissure du Kilo de Beurre",
        "circuitColor": "red",
        "circuitId": 39,
        "tags": [

        ]
      },
      "id": "problem_3159"
    },
    {
      "type": "Feature",
      "geometry": {
        "type": "Point",
        "coordinates": [
          2.52734195407,
          48.38565817336
        ]
      },
      "properties": {
        "grade": "3c+",
        "circuitNumber": "5",
        "steepness": "other",
        "height": null,
        "name": null,
        "circuitColor": "orange",
        "circuitId": 37,
        "tags": [

        ]
      },
      "id": "problem_2899"
    },
    {
      "type": "Feature",
      "geometry": {
        "type": "Point",
        "coordinates": [
          2.53040906025,
          48.38531137699
        ]
      },
      "properties": {
        "grade": "4a",
        "circuitNumber": "30",
        "steepness": "slab",
        "height": null,
        "name": "La Malapprise",
        "circuitColor": "orange",
        "circuitId": 45,
        "tags": [

        ]
      },
      "id": "problem_3177"
    },
    {
      "type": "Feature",
      "geometry": {
        "type": "Point",
        "coordinates": [
          2.53023639305,
          48.38530848238
        ]
      },
      "properties": {
        "grade": "4c",
        "circuitNumber": "28",
        "steepness": "wall",
        "height": null,
        "name": "Coup de Force",
        "circuitColor": "blue",
        "circuitId": 38,
        "tags": [

        ]
      },
      "id": "problem_3185"
    },
    {
      "type": "Feature",
      "geometry": {
        "type": "Point",
        "coordinates": [
          2.52922520033,
          48.38600752766
        ]
      },
      "properties": {
        "grade": "7a+",
        "circuitNumber": "",
        "steepness": "other",
        "height": null,
        "name": "Pierre Précieuse / Le Yaniro",
        "circuitColor": null,
        "circuitId": null,
        "tags": [

        ]
      },
      "id": "problem_2960"
    },
    {
      "type": "Feature",
      "geometry": {
        "type": "Point",
        "coordinates": [
          2.53091650067,
          48.38651719352
        ]
      },
      "properties": {
        "grade": "5a+",
        "circuitNumber": "23",
        "steepness": "wall",
        "height": null,
        "name": null,
        "circuitColor": "white",
        "circuitId": 40,
        "tags": [

        ]
      },
      "id": "problem_3007"
    },
    {
      "type": "Feature",
      "geometry": {
        "type": "Point",
        "coordinates": [
          2.53089252826,
          48.38486504741
        ]
      },
      "properties": {
        "grade": "6c",
        "circuitNumber": "",
        "steepness": "overhang",
        "height": null,
        "name": "Congélateur",
        "circuitColor": null,
        "circuitId": null,
        "tags": [
          "sit_start"
        ]
      },
      "id": "problem_3140"
    },
    {
      "type": "Feature",
      "geometry": {
        "type": "Point",
        "coordinates": [
          2.53179626523,
          48.38614357269
        ]
      },
      "properties": {
        "grade": "3a+",
        "circuitNumber": "6",
        "steepness": "traverse",
        "height": null,
        "name": "La Dernière Cartouche",
        "circuitColor": "orange",
        "circuitId": 45,
        "tags": [

        ]
      },
      "id": "problem_3048"
    },
    {
      "type": "Feature",
      "geometry": {
        "type": "Point",
        "coordinates": [
          2.53059681488,
          48.38480270111
        ]
      },
      "properties": {
        "grade": "6b",
        "circuitNumber": "",
        "steepness": "overhang",
        "height": null,
        "name": "Rheingold",
        "circuitColor": null,
        "circuitId": null,
        "tags": [

        ]
      },
      "id": "problem_3152"
    },
    {
      "type": "Feature",
      "geometry": {
        "type": "Point",
        "coordinates": [
          2.52732586099,
          48.38541402448
        ]
      },
      "properties": {
        "grade": "7a+",
        "circuitNumber": "",
        "steepness": "other",
        "height": null,
        "name": "Zyno",
        "circuitColor": null,
        "circuitId": null,
        "tags": [

        ]
      },
      "id": "problem_2886"
    },
    {
      "type": "Feature",
      "geometry": {
        "type": "Point",
        "coordinates": [
          2.52934589965,
          48.38576104269
        ]
      },
      "properties": {
        "grade": "3a+",
        "circuitNumber": "44",
        "steepness": "slab",
        "height": null,
        "name": "La Lutte Finale",
        "circuitColor": "orange",
        "circuitId": 45,
        "tags": [

        ]
      },
      "id": "problem_2980"
    },
    {
      "type": "Feature",
      "geometry": {
        "type": "Point",
        "coordinates": [
          2.5273510906,
          48.38569752857
        ]
      },
      "properties": {
        "grade": "5c",
        "circuitNumber": "",
        "steepness": "other",
        "height": null,
        "name": "Louvre",
        "circuitColor": null,
        "circuitId": null,
        "tags": [

        ]
      },
      "id": "problem_2906"
    },
    {
      "type": "Feature",
      "geometry": {
        "type": "Point",
        "coordinates": [
          2.52795919768,
          48.3862475544
        ]
      },
      "properties": {
        "grade": "7a",
        "circuitNumber": "",
        "steepness": "overhang",
        "height": null,
        "name": "Bob l'Éponge (droite assis)",
        "circuitColor": null,
        "circuitId": null,
        "tags": [
          "sit_start"
        ]
      },
      "id": "problem_2951"
    },
    {
      "type": "Feature",
      "geometry": {
        "type": "Point",
        "coordinates": [
          2.53023069335,
          48.38531605291
        ]
      },
      "properties": {
        "grade": "7a",
        "circuitNumber": "32",
        "steepness": "wall",
        "height": null,
        "name": "Le Mur de la Fosse aux Ours",
        "circuitColor": "white",
        "circuitId": 40,
        "tags": [

        ]
      },
      "id": "problem_3186"
    },
    {
      "type": "Feature",
      "geometry": {
        "type": "Point",
        "coordinates": [
          2.52734790548,
          48.38569402165
        ]
      },
      "properties": {
        "grade": "5c",
        "circuitNumber": "",
        "steepness": "wall",
        "height": null,
        "name": "Bouboules",
        "circuitColor": null,
        "circuitId": null,
        "tags": [

        ]
      },
      "id": "problem_2905"
    },
    {
      "type": "Feature",
      "geometry": {
        "type": "Point",
        "coordinates": [
          2.5309245473,
          48.38630767229
        ]
      },
      "properties": {
        "grade": "5a",
        "circuitNumber": "20",
        "steepness": "slab",
        "height": null,
        "name": null,
        "circuitColor": "white",
        "circuitId": 40,
        "tags": [

        ]
      },
      "id": "problem_3017"
    },
    {
      "type": "Feature",
      "geometry": {
        "type": "Point",
        "coordinates": [
          2.53086084483,
          48.38620435863
        ]
      },
      "properties": {
        "grade": "5a+",
        "circuitNumber": "9",
        "steepness": "other",
        "height": null,
        "name": "Grise Mine",
        "circuitColor": "red",
        "circuitId": 39,
        "tags": [

        ]
      },
      "id": "problem_3022"
    },
    {
      "type": "Feature",
      "geometry": {
        "type": "Point",
        "coordinates": [
          2.5308963841,
          48.38553314874
        ]
      },
      "properties": {
        "grade": "7a",
        "circuitNumber": "",
        "steepness": "other",
        "height": null,
        "name": "Tim Tim",
        "circuitColor": null,
        "circuitId": null,
        "tags": [
          "sit_start"
        ]
      },
      "id": "problem_3092"
    },
    {
      "type": "Feature",
      "geometry": {
        "type": "Point",
        "coordinates": [
          2.52751143632,
          48.38568055071
        ]
      },
      "properties": {
        "grade": "3c",
        "circuitNumber": "8",
        "steepness": "wall",
        "height": null,
        "name": null,
        "circuitColor": "orange",
        "circuitId": 37,
        "tags": [

        ]
      },
      "id": "problem_2916"
    },
    {
      "type": "Feature",
      "geometry": {
        "type": "Point",
        "coordinates": [
          2.53153257038,
          48.38606341542
        ]
      },
      "properties": {
        "grade": "2b",
        "circuitNumber": "9",
        "steepness": "slab",
        "height": null,
        "name": "Coup Tordu",
        "circuitColor": "orange",
        "circuitId": 45,
        "tags": [

        ]
      },
      "id": "problem_3054"
    },
    {
      "type": "Feature",
      "geometry": {
        "type": "Point",
        "coordinates": [
          2.53107575683,
          48.38542593692
        ]
      },
      "properties": {
        "grade": "2b+",
        "circuitNumber": "22",
        "steepness": "slab",
        "height": null,
        "name": "Verrues Plantaires",
        "circuitColor": "orange",
        "circuitId": 45,
        "tags": [

        ]
      },
      "id": "problem_3110"
    },
    {
      "type": "Feature",
      "geometry": {
        "type": "Point",
        "coordinates": [
          2.5307946278,
          48.38609024578
        ]
      },
      "properties": {
        "grade": "5b",
        "circuitNumber": "16",
        "steepness": "wall",
        "height": null,
        "name": null,
        "circuitColor": "white",
        "circuitId": 40,
        "tags": [

        ]
      },
      "id": "problem_3030"
    },
    {
      "type": "Feature",
      "geometry": {
        "type": "Point",
        "coordinates": [
          2.53046086041,
          48.38521963981
        ]
      },
      "properties": {
        "grade": "4c",
        "circuitNumber": "33",
        "steepness": "wall",
        "height": null,
        "name": "La Vacherie",
        "circuitColor": "red",
        "circuitId": 39,
        "tags": [

        ]
      },
      "id": "problem_3173"
    },
    {
      "type": "Feature",
      "geometry": {
        "type": "Point",
        "coordinates": [
          2.52750942467,
          48.38567832409
        ]
      },
      "properties": {
        "grade": "6b+",
        "circuitNumber": "",
        "steepness": "wall",
        "height": null,
        "name": "This is Sparta!",
        "circuitColor": null,
        "circuitId": null,
        "tags": [
          "sit_start"
        ]
      },
      "id": "problem_2915"
    },
    {
      "type": "Feature",
      "geometry": {
        "type": "Point",
        "coordinates": [
          2.53076545861,
          48.38636200105
        ]
      },
      "properties": {
        "grade": "6b",
        "circuitNumber": "",
        "steepness": "overhang",
        "height": null,
        "name": "Ouvreurs de l'Inutile",
        "circuitColor": null,
        "circuitId": null,
        "tags": [
          "sit_start"
        ]
      },
      "id": "problem_3018"
    },
    {
      "type": "Feature",
      "geometry": {
        "type": "Point",
        "coordinates": [
          2.53066772578,
          48.38598704301
        ]
      },
      "properties": {
        "grade": "3a",
        "circuitNumber": "",
        "steepness": "other",
        "height": null,
        "name": "Fondue",
        "circuitColor": null,
        "circuitId": null,
        "tags": [

        ]
      },
      "id": "problem_3037"
    },
    {
      "type": "Feature",
      "geometry": {
        "type": "Point",
        "coordinates": [
          2.53050637423,
          48.38548677932
        ]
      },
      "properties": {
        "grade": "7a",
        "circuitNumber": "",
        "steepness": "wall",
        "height": null,
        "name": "Tarte aux Poils / La Croupe est Pleine",
        "circuitColor": null,
        "circuitId": null,
        "tags": [

        ]
      },
      "id": "problem_3201"
    },
    {
      "type": "Feature",
      "geometry": {
        "type": "Point",
        "coordinates": [
          2.5308385488,
          48.38484790222
        ]
      },
      "properties": {
        "grade": "4a",
        "circuitNumber": "5",
        "steepness": "wall",
        "height": null,
        "name": "Cordon Bleu",
        "circuitColor": "blue",
        "circuitId": 38,
        "tags": [

        ]
      },
      "id": "problem_3139"
    },
    {
      "type": "Feature",
      "geometry": {
        "type": "Point",
        "coordinates": [
          2.53082195289,
          48.38489677697
        ]
      },
      "properties": {
        "grade": "7b+",
        "circuitNumber": "",
        "steepness": "overhang",
        "height": null,
        "name": "Télépathie (assis)",
        "circuitColor": null,
        "circuitId": null,
        "tags": [
          "sit_start"
        ]
      },
      "id": "problem_3133"
    },
    {
      "type": "Feature",
      "geometry": {
        "type": "Point",
        "coordinates": [
          2.53091599775,
          48.38567520683
        ]
      },
      "properties": {
        "grade": "5c",
        "circuitNumber": "11",
        "steepness": "wall",
        "height": null,
        "name": null,
        "circuitColor": "white",
        "circuitId": 40,
        "tags": [

        ]
      },
      "id": "problem_3075"
    },
    {
      "type": "Feature",
      "geometry": {
        "type": "Point",
        "coordinates": [
          2.53080300953,
          48.38575926151
        ]
      },
      "properties": {
        "grade": "4c",
        "circuitNumber": "18",
        "steepness": "wall",
        "height": null,
        "name": "Topaz",
        "circuitColor": "red",
        "circuitId": 39,
        "tags": [

        ]
      },
      "id": "problem_3067"
    },
    {
      "type": "Feature",
      "geometry": {
        "type": "Point",
        "coordinates": [
          2.53172703071,
          48.38619144441
        ]
      },
      "properties": {
        "grade": "3a",
        "circuitNumber": "5",
        "steepness": "slab",
        "height": null,
        "name": "File à Gauche",
        "circuitColor": "orange",
        "circuitId": 45,
        "tags": [

        ]
      },
      "id": "problem_3047"
    },
    {
      "type": "Feature",
      "geometry": {
        "type": "Point",
        "coordinates": [
          2.52774797363,
          48.38570136953
        ]
      },
      "properties": {
        "grade": "2c",
        "circuitNumber": "13",
        "steepness": "other",
        "height": null,
        "name": null,
        "circuitColor": "orange",
        "circuitId": 37,
        "tags": [

        ]
      },
      "id": "problem_2921"
    },
    {
      "type": "Feature",
      "geometry": {
        "type": "Point",
        "coordinates": [
          2.52935478447,
          48.38570693606
        ]
      },
      "properties": {
        "grade": "4c",
        "circuitNumber": "35",
        "steepness": "wall",
        "height": null,
        "name": "Boyau Rouge",
        "circuitColor": "blue",
        "circuitId": 38,
        "tags": [

        ]
      },
      "id": "problem_2987"
    },
    {
      "type": "Feature",
      "geometry": {
        "type": "Point",
        "coordinates": [
          2.53021795286,
          48.38500231998
        ]
      },
      "properties": {
        "grade": "5c",
        "circuitNumber": "36",
        "steepness": "wall",
        "height": null,
        "name": null,
        "circuitColor": "white",
        "circuitId": 40,
        "tags": [

        ]
      },
      "id": "problem_3163"
    },
    {
      "type": "Feature",
      "geometry": {
        "type": "Point",
        "coordinates": [
          2.53145378075,
          48.38612614955
        ]
      },
      "properties": {
        "grade": "7a+",
        "circuitNumber": "",
        "steepness": "other",
        "height": null,
        "name": "P'tite Mousse (assis)",
        "circuitColor": null,
        "circuitId": null,
        "tags": [
          "sit_start"
        ]
      },
      "id": "problem_3052"
    },
    {
      "type": "Feature",
      "geometry": {
        "type": "Point",
        "coordinates": [
          2.53051651625,
          48.38548638971
        ]
      },
      "properties": {
        "grade": "5c",
        "circuitNumber": "38",
        "steepness": "other",
        "height": null,
        "name": "Jeu de Cubes",
        "circuitColor": "red",
        "circuitId": 39,
        "tags": [

        ]
      },
      "id": "problem_3202"
    },
    {
      "type": "Feature",
      "geometry": {
        "type": "Point",
        "coordinates": [
          2.53029079168,
          48.38531226759
        ]
      },
      "properties": {
        "grade": "4b",
        "circuitNumber": "29",
        "steepness": "wall",
        "height": null,
        "name": "Bleu Azur",
        "circuitColor": "blue",
        "circuitId": 38,
        "tags": [

        ]
      },
      "id": "problem_3180"
    },
    {
      "type": "Feature",
      "geometry": {
        "type": "Point",
        "coordinates": [
          2.52822725086,
          48.38584576509
        ]
      },
      "properties": {
        "grade": "2b",
        "circuitNumber": "35",
        "steepness": "traverse",
        "height": null,
        "name": null,
        "circuitColor": "orange",
        "circuitId": 37,
        "tags": [

        ]
      },
      "id": "problem_2945"
    },
    {
      "type": "Feature",
      "geometry": {
        "type": "Point",
        "coordinates": [
          2.53052858627,
          48.38515996596
        ]
      },
      "properties": {
        "grade": "4a+",
        "circuitNumber": "11",
        "steepness": "overhang",
        "height": null,
        "name": "Sortie de Virages",
        "circuitColor": "blue",
        "circuitId": 38,
        "tags": [

        ]
      },
      "id": "problem_3170"
    },
    {
      "type": "Feature",
      "geometry": {
        "type": "Point",
        "coordinates": [
          2.53145227192,
          48.38612854319
        ]
      },
      "properties": {
        "grade": "7a",
        "circuitNumber": "",
        "steepness": "other",
        "height": null,
        "name": "P'tite Mousse",
        "circuitColor": null,
        "circuitId": null,
        "tags": [

        ]
      },
      "id": "problem_3051"
    },
    {
      "type": "Feature",
      "geometry": {
        "type": "Point",
        "coordinates": [
          2.52921648315,
          48.38598860157
        ]
      },
      "properties": {
        "grade": "5c",
        "circuitNumber": "",
        "steepness": "other",
        "height": null,
        "name": "Le Quartz (droite)",
        "circuitColor": null,
        "circuitId": null,
        "tags": [

        ]
      },
      "id": "problem_2962"
    },
    {
      "type": "Feature",
      "geometry": {
        "type": "Point",
        "coordinates": [
          2.52749484016,
          48.38562889327
        ]
      },
      "properties": {
        "grade": "5c",
        "circuitNumber": "",
        "steepness": "wall",
        "height": null,
        "name": "Rio Bravo",
        "circuitColor": null,
        "circuitId": null,
        "tags": [

        ]
      },
      "id": "problem_2910"
    },
    {
      "type": "Feature",
      "geometry": {
        "type": "Point",
        "coordinates": [
          2.52947581915,
          48.38549908145
        ]
      },
      "properties": {
        "grade": "4a",
        "circuitNumber": "33",
        "steepness": "other",
        "height": null,
        "name": "La Sablière",
        "circuitColor": "blue",
        "circuitId": 38,
        "tags": [

        ]
      },
      "id": "problem_3003"
    },
    {
      "type": "Feature",
      "geometry": {
        "type": "Point",
        "coordinates": [
          2.528277207,
          48.38576460526
        ]
      },
      "properties": {
        "grade": "3b",
        "circuitNumber": "32",
        "steepness": "wall",
        "height": null,
        "name": null,
        "circuitColor": "orange",
        "circuitId": 37,
        "tags": [

        ]
      },
      "id": "problem_2942"
    },
    {
      "type": "Feature",
      "geometry": {
        "type": "Point",
        "coordinates": [
          2.53114314733,
          48.38546189688
        ]
      },
      "properties": {
        "grade": "5c+",
        "circuitNumber": "22",
        "steepness": "slab",
        "height": null,
        "name": "Pincée de Poudre",
        "circuitColor": "red",
        "circuitId": 39,
        "tags": [

        ]
      },
      "id": "problem_3099"
    },
    {
      "type": "Feature",
      "geometry": {
        "type": "Point",
        "coordinates": [
          2.52944597958,
          48.38553838129
        ]
      },
      "properties": {
        "grade": "3a",
        "circuitNumber": "38",
        "steepness": "wall",
        "height": null,
        "name": "Gros Câlin",
        "circuitColor": "orange",
        "circuitId": 45,
        "tags": [

        ]
      },
      "id": "problem_2999"
    },
    {
      "type": "Feature",
      "geometry": {
        "type": "Point",
        "coordinates": [
          2.53074416874,
          48.38571706714
        ]
      },
      "properties": {
        "grade": "4a+",
        "circuitNumber": "",
        "steepness": "other",
        "height": null,
        "name": "Mumbo Jumbo",
        "circuitColor": null,
        "circuitId": null,
        "tags": [
          "sit_start"
        ]
      },
      "id": "problem_3074"
    },
    {
      "type": "Feature",
      "geometry": {
        "type": "Point",
        "coordinates": [
          2.53052573634,
          48.38488608912
        ]
      },
      "properties": {
        "grade": "7c",
        "circuitNumber": "",
        "steepness": "overhang",
        "height": null,
        "name": "L'Ange Naïf",
        "circuitColor": null,
        "circuitId": null,
        "tags": [

        ]
      },
      "id": "problem_3160"
    },
    {
      "type": "Feature",
      "geometry": {
        "type": "Point",
        "coordinates": [
          2.530527748,
          48.38549863613
        ]
      },
      "properties": {
        "grade": "7a+",
        "circuitNumber": "",
        "steepness": "other",
        "height": null,
        "name": "Mister Proper",
        "circuitColor": null,
        "circuitId": null,
        "tags": [

        ]
      },
      "id": "problem_3204"
    },
    {
      "type": "Feature",
      "geometry": {
        "type": "Point",
        "coordinates": [
          2.53055708474,
          48.38516085661
        ]
      },
      "properties": {
        "grade": "5a",
        "circuitNumber": "",
        "steepness": "other",
        "height": null,
        "name": "Le Bijou Fantasie",
        "circuitColor": null,
        "circuitId": null,
        "tags": [

        ]
      },
      "id": "problem_3171"
    },
    {
      "type": "Feature",
      "geometry": {
        "type": "Point",
        "coordinates": [
          2.5294702871,
          48.38554661978
        ]
      },
      "properties": {
        "grade": "5a",
        "circuitNumber": "",
        "steepness": "other",
        "height": null,
        "name": "Amiens",
        "circuitColor": null,
        "circuitId": null,
        "tags": [

        ]
      },
      "id": "problem_3000"
    },
    {
      "type": "Feature",
      "geometry": {
        "type": "Point",
        "coordinates": [
          2.53099746985,
          48.38546790876
        ]
      },
      "properties": {
        "grade": "5c",
        "circuitNumber": "21",
        "steepness": "other",
        "height": null,
        "name": "Fil Retors",
        "circuitColor": "red",
        "circuitId": 39,
        "tags": [

        ]
      },
      "id": "problem_3094"
    },
    {
      "type": "Feature",
      "geometry": {
        "type": "Point",
        "coordinates": [
          2.53105798719,
          48.3863100102
        ]
      },
      "properties": {
        "grade": "4b",
        "circuitNumber": "6",
        "steepness": "traverse",
        "height": null,
        "name": "La Coquette",
        "circuitColor": "red",
        "circuitId": 39,
        "tags": [

        ]
      },
      "id": "problem_3019"
    },
    {
      "type": "Feature",
      "geometry": {
        "type": "Point",
        "coordinates": [
          2.52927515639,
          48.38574222784
        ]
      },
      "properties": {
        "grade": "3b",
        "circuitNumber": "42",
        "steepness": "slab",
        "height": null,
        "name": "La Contractuelle",
        "circuitColor": "orange",
        "circuitId": 45,
        "tags": [

        ]
      },
      "id": "problem_2978"
    },
    {
      "type": "Feature",
      "geometry": {
        "type": "Point",
        "coordinates": [
          2.52928739397,
          48.38572396963
        ]
      },
      "properties": {
        "grade": "3b",
        "circuitNumber": "41",
        "steepness": "wall",
        "height": null,
        "name": "La Sueur du Vide",
        "circuitColor": "orange",
        "circuitId": 45,
        "tags": [

        ]
      },
      "id": "problem_2979"
    },
    {
      "type": "Feature",
      "geometry": {
        "type": "Point",
        "coordinates": [
          2.5305352918,
          48.38488926204
        ]
      },
      "properties": {
        "grade": "7a+",
        "circuitNumber": "",
        "steepness": "overhang",
        "height": null,
        "name": "L'Ange Naïf (droite)",
        "circuitColor": null,
        "circuitId": null,
        "tags": [

        ]
      },
      "id": "problem_3161"
    },
    {
      "type": "Feature",
      "geometry": {
        "type": "Point",
        "coordinates": [
          2.53135671822,
          48.38565928655
        ]
      },
      "properties": {
        "grade": "5c",
        "circuitNumber": "",
        "steepness": "overhang",
        "height": null,
        "name": "Diesel Power (direct)",
        "circuitColor": null,
        "circuitId": null,
        "tags": [

        ]
      },
      "id": "problem_3061"
    },
    {
      "type": "Feature",
      "geometry": {
        "type": "Point",
        "coordinates": [
          2.52924749611,
          48.38576605256
        ]
      },
      "properties": {
        "grade": "3c",
        "circuitNumber": "43",
        "steepness": "overhang",
        "height": null,
        "name": "La Rigolade",
        "circuitColor": "orange",
        "circuitId": 45,
        "tags": [

        ]
      },
      "id": "problem_2976"
    },
    {
      "type": "Feature",
      "geometry": {
        "type": "Point",
        "coordinates": [
          2.53079982458,
          48.38577017178
        ]
      },
      "properties": {
        "grade": "4a",
        "circuitNumber": "",
        "steepness": "other",
        "height": null,
        "name": "Illusion",
        "circuitColor": null,
        "circuitId": null,
        "tags": [

        ]
      },
      "id": "problem_3068"
    },
    {
      "type": "Feature",
      "geometry": {
        "type": "Point",
        "coordinates": [
          2.53093913181,
          48.38511465396
        ]
      },
      "properties": {
        "grade": "5a",
        "circuitNumber": "",
        "steepness": "other",
        "height": null,
        "name": "Gaz",
        "circuitColor": null,
        "circuitId": null,
        "tags": [

        ]
      },
      "id": "problem_3118"
    },
    {
      "type": "Feature",
      "geometry": {
        "type": "Point",
        "coordinates": [
          2.52948252467,
          48.38555474694
        ]
      },
      "properties": {
        "grade": "5b",
        "circuitNumber": "",
        "steepness": "other",
        "height": null,
        "name": "Arras",
        "circuitColor": null,
        "circuitId": null,
        "tags": [

        ]
      },
      "id": "problem_3001"
    },
    {
      "type": "Feature",
      "geometry": {
        "type": "Point",
        "coordinates": [
          2.53046706302,
          48.38525281662
        ]
      },
      "properties": {
        "grade": "5c",
        "circuitNumber": "34",
        "steepness": "overhang",
        "height": null,
        "name": null,
        "circuitColor": "white",
        "circuitId": 40,
        "tags": [

        ]
      },
      "id": "problem_3175"
    },
    {
      "type": "Feature",
      "geometry": {
        "type": "Point",
        "coordinates": [
          2.53109453229,
          48.38546256486
        ]
      },
      "properties": {
        "grade": "7b",
        "circuitNumber": "",
        "steepness": "wall",
        "height": null,
        "name": "Captain Hook",
        "circuitColor": null,
        "circuitId": null,
        "tags": [
          "sit_start"
        ]
      },
      "id": "problem_3104"
    },
    {
      "type": "Feature",
      "geometry": {
        "type": "Point",
        "coordinates": [
          2.53070510907,
          48.38598904695
        ]
      },
      "properties": {
        "grade": "4c",
        "circuitNumber": "14",
        "steepness": "traverse",
        "height": null,
        "name": "Le Poinçonneur",
        "circuitColor": "red",
        "circuitId": 39,
        "tags": [

        ]
      },
      "id": "problem_3035"
    },
    {
      "type": "Feature",
      "geometry": {
        "type": "Point",
        "coordinates": [
          2.52960070934,
          48.38537784193
        ]
      },
      "properties": {
        "grade": "4c",
        "circuitNumber": "",
        "steepness": "overhang",
        "height": null,
        "name": "Dent Gâtée",
        "circuitColor": null,
        "circuitId": null,
        "tags": [

        ]
      },
      "id": "problem_3005"
    },
    {
      "type": "Feature",
      "geometry": {
        "type": "Point",
        "coordinates": [
          2.52933248873,
          48.38577891114
        ]
      },
      "properties": {
        "grade": "5b",
        "circuitNumber": "38",
        "steepness": "overhang",
        "height": null,
        "name": "L'Ectoplasme",
        "circuitColor": "blue",
        "circuitId": 38,
        "tags": [

        ]
      },
      "id": "problem_2972"
    },
    {
      "type": "Feature",
      "geometry": {
        "type": "Point",
        "coordinates": [
          2.52948671563,
          48.38567409353
        ]
      },
      "properties": {
        "grade": "7a+",
        "circuitNumber": "",
        "steepness": "slab",
        "height": null,
        "name": "Le Test de Turing",
        "circuitColor": null,
        "circuitId": null,
        "tags": [

        ]
      },
      "id": "problem_2994"
    },
    {
      "type": "Feature",
      "geometry": {
        "type": "Point",
        "coordinates": [
          2.53091583012,
          48.38618699123
        ]
      },
      "properties": {
        "grade": "6a",
        "circuitNumber": "19",
        "steepness": "wall",
        "height": null,
        "name": null,
        "circuitColor": "white",
        "circuitId": 40,
        "tags": [

        ]
      },
      "id": "problem_3028"
    },
    {
      "type": "Feature",
      "geometry": {
        "type": "Point",
        "coordinates": [
          2.53092169745,
          48.38555485827
        ]
      },
      "properties": {
        "grade": "6a+",
        "circuitNumber": "10",
        "steepness": "overhang",
        "height": null,
        "name": null,
        "circuitColor": "white",
        "circuitId": 40,
        "tags": [

        ]
      },
      "id": "problem_3090"
    },
    {
      "type": "Feature",
      "geometry": {
        "type": "Point",
        "coordinates": [
          2.5308229168,
          48.38489510699
        ]
      },
      "properties": {
        "grade": "7a",
        "circuitNumber": "",
        "steepness": "overhang",
        "height": null,
        "name": "Télépathie (gauche)",
        "circuitColor": null,
        "circuitId": null,
        "tags": [
          "sit_start"
        ]
      },
      "id": "problem_3131"
    },
    {
      "type": "Feature",
      "geometry": {
        "type": "Point",
        "coordinates": [
          2.53082329399,
          48.38606475121
        ]
      },
      "properties": {
        "grade": "6a",
        "circuitNumber": "11",
        "steepness": "slab",
        "height": null,
        "name": "La Dalle Courage",
        "circuitColor": "red",
        "circuitId": 39,
        "tags": [
          "risky"
        ]
      },
      "id": "problem_3032"
    },
    {
      "type": "Feature",
      "geometry": {
        "type": "Point",
        "coordinates": [
          2.53047293035,
          48.38528243081
        ]
      },
      "properties": {
        "grade": "3c",
        "circuitNumber": "29",
        "steepness": "wall",
        "height": null,
        "name": "Prise de Masse",
        "circuitColor": "orange",
        "circuitId": 45,
        "tags": [

        ]
      },
      "id": "problem_3176"
    },
    {
      "type": "Feature",
      "geometry": {
        "type": "Point",
        "coordinates": [
          2.5277963373,
          48.38578080378
        ]
      },
      "properties": {
        "grade": "2a",
        "circuitNumber": "16",
        "steepness": "other",
        "height": null,
        "name": null,
        "circuitColor": "orange",
        "circuitId": 37,
        "tags": [

        ]
      },
      "id": "problem_2924"
    },
    {
      "type": "Feature",
      "geometry": {
        "type": "Point",
        "coordinates": [
          2.53107240407,
          48.38541513779
        ]
      },
      "properties": {
        "grade": "4c",
        "circuitNumber": "16",
        "steepness": "slab",
        "height": null,
        "name": "La Formule des Chefs",
        "circuitColor": "blue",
        "circuitId": 38,
        "tags": [

        ]
      },
      "id": "problem_3107"
    },
    {
      "type": "Feature",
      "geometry": {
        "type": "Point",
        "coordinates": [
          2.53146316823,
          48.38594830028
        ]
      },
      "properties": {
        "grade": "3a+",
        "circuitNumber": "11",
        "steepness": "other",
        "height": null,
        "name": "Le Plomb dans L'Aile",
        "circuitColor": "orange",
        "circuitId": 45,
        "tags": [

        ]
      },
      "id": "problem_3056"
    },
    {
      "type": "Feature",
      "geometry": {
        "type": "Point",
        "coordinates": [
          2.52822842432,
          48.38575725745
        ]
      },
      "properties": {
        "grade": "3b",
        "circuitNumber": "36",
        "steepness": "wall",
        "height": null,
        "name": null,
        "circuitColor": "orange",
        "circuitId": 37,
        "tags": [

        ]
      },
      "id": "problem_2946"
    },
    {
      "type": "Feature",
      "geometry": {
        "type": "Point",
        "coordinates": [
          2.5302749498,
          48.38529100334
        ]
      },
      "properties": {
        "grade": "5a",
        "circuitNumber": "35",
        "steepness": "wall",
        "height": null,
        "name": "Présence Hostile",
        "circuitColor": "red",
        "circuitId": 39,
        "tags": [

        ]
      },
      "id": "problem_3181"
    },
    {
      "type": "Feature",
      "geometry": {
        "type": "Point",
        "coordinates": [
          2.53079513071,
          48.38573454603
        ]
      },
      "properties": {
        "grade": "5c",
        "circuitNumber": "",
        "steepness": "other",
        "height": null,
        "name": null,
        "circuitColor": null,
        "circuitId": null,
        "tags": [

        ]
      },
      "id": "problem_3071"
    },
    {
      "type": "Feature",
      "geometry": {
        "type": "Point",
        "coordinates": [
          2.53098439408,
          48.38533509058
        ]
      },
      "properties": {
        "grade": "5a",
        "circuitNumber": "",
        "steepness": "other",
        "height": null,
        "name": "Rodez",
        "circuitColor": null,
        "circuitId": null,
        "tags": [

        ]
      },
      "id": "problem_3112"
    },
    {
      "type": "Feature",
      "geometry": {
        "type": "Point",
        "coordinates": [
          2.52934975533,
          48.3856500461
        ]
      },
      "properties": {
        "grade": "5b",
        "circuitNumber": "",
        "steepness": "other",
        "height": null,
        "name": "Le Trafiquant d'Armes",
        "circuitColor": null,
        "circuitId": null,
        "tags": [

        ]
      },
      "id": "problem_2992"
    },
    {
      "type": "Feature",
      "geometry": {
        "type": "Point",
        "coordinates": [
          2.53052255122,
          48.38550720862
        ]
      },
      "properties": {
        "grade": "7a+",
        "circuitNumber": "",
        "steepness": "wall",
        "height": null,
        "name": "Miss KGB",
        "circuitColor": null,
        "circuitId": null,
        "tags": [

        ]
      },
      "id": "problem_3205"
    },
    {
      "type": "Feature",
      "geometry": {
        "type": "Point",
        "coordinates": [
          2.53083050217,
          48.38488909521
        ]
      },
      "properties": {
        "grade": "4b",
        "circuitNumber": "6",
        "steepness": "other",
        "height": null,
        "name": "L'Incognito",
        "circuitColor": "blue",
        "circuitId": 38,
        "tags": [

        ]
      },
      "id": "problem_3130"
    },
    {
      "type": "Feature",
      "geometry": {
        "type": "Point",
        "coordinates": [
          2.53090191599,
          48.38586903323
        ]
      },
      "properties": {
        "grade": "5a+",
        "circuitNumber": "17",
        "steepness": "slab",
        "height": null,
        "name": "Le Champagne",
        "circuitColor": "red",
        "circuitId": 39,
        "tags": [

        ]
      },
      "id": "problem_3041"
    },
    {
      "type": "Feature",
      "geometry": {
        "type": "Point",
        "coordinates": [
          2.53078993393,
          48.38574823968
        ]
      },
      "properties": {
        "grade": "6a+",
        "circuitNumber": "12",
        "steepness": "slab",
        "height": null,
        "name": null,
        "circuitColor": "white",
        "circuitId": 40,
        "tags": [

        ]
      },
      "id": "problem_3070"
    },
    {
      "type": "Feature",
      "geometry": {
        "type": "Point",
        "coordinates": [
          2.5309508663,
          48.38651340845
        ]
      },
      "properties": {
        "grade": "5c+",
        "circuitNumber": "22",
        "steepness": "slab",
        "height": null,
        "name": null,
        "circuitColor": "white",
        "circuitId": 40,
        "tags": [

        ]
      },
      "id": "problem_3008"
    },
    {
      "type": "Feature",
      "geometry": {
        "type": "Point",
        "coordinates": [
          2.5303093156,
          48.38532573875
        ]
      },
      "properties": {
        "grade": "6b",
        "circuitNumber": "",
        "steepness": "other",
        "height": null,
        "name": "Méta",
        "circuitColor": null,
        "circuitId": null,
        "tags": [

        ]
      },
      "id": "problem_3178"
    },
    {
      "type": "Feature",
      "geometry": {
        "type": "Point",
        "coordinates": [
          2.5313121265,
          48.385681998
        ]
      },
      "properties": {
        "grade": "2a",
        "circuitNumber": "15",
        "steepness": "traverse",
        "height": null,
        "name": "L'Amarrée Basse",
        "circuitColor": "orange",
        "circuitId": 45,
        "tags": [

        ]
      },
      "id": "problem_3062"
    },
    {
      "type": "Feature",
      "geometry": {
        "type": "Point",
        "coordinates": [
          2.52738310951,
          48.38540726102
        ]
      },
      "properties": {
        "grade": "7a",
        "circuitNumber": "",
        "steepness": "roof",
        "height": null,
        "name": "Rudeboy",
        "circuitColor": null,
        "circuitId": null,
        "tags": [

        ]
      },
      "id": "problem_2893"
    },
    {
      "type": "Feature",
      "geometry": {
        "type": "Point",
        "coordinates": [
          2.53059044447,
          48.38480381455
        ]
      },
      "properties": {
        "grade": "7a",
        "circuitNumber": "",
        "steepness": "overhang",
        "height": null,
        "name": "Coince et Danse",
        "circuitColor": null,
        "circuitId": null,
        "tags": [
          "sit_start"
        ]
      },
      "id": "problem_3151"
    },
    {
      "type": "Feature",
      "geometry": {
        "type": "Point",
        "coordinates": [
          2.53075607104,
          48.38485925801
        ]
      },
      "properties": {
        "grade": "4a+",
        "circuitNumber": "28",
        "steepness": "wall",
        "height": null,
        "name": "Le Grand Prix",
        "circuitColor": "red",
        "circuitId": 39,
        "tags": [

        ]
      },
      "id": "problem_3141"
    },
    {
      "type": "Feature",
      "geometry": {
        "type": "Point",
        "coordinates": [
          2.52779013469,
          48.38580190089
        ]
      },
      "properties": {
        "grade": "3b+",
        "circuitNumber": "15",
        "steepness": "other",
        "height": null,
        "name": null,
        "circuitColor": "orange",
        "circuitId": 37,
        "tags": [

        ]
      },
      "id": "problem_2923"
    },
    {
      "type": "Feature",
      "geometry": {
        "type": "Point",
        "coordinates": [
          2.53019548936,
          48.38527786622
        ]
      },
      "properties": {
        "grade": "4c",
        "circuitNumber": "30",
        "steepness": "overhang",
        "height": null,
        "name": "L'Œil Bleu",
        "circuitColor": "blue",
        "circuitId": 38,
        "tags": [

        ]
      },
      "id": "problem_3182"
    },
    {
      "type": "Feature",
      "geometry": {
        "type": "Point",
        "coordinates": [
          2.53052188075,
          48.3848898187
        ]
      },
      "properties": {
        "grade": "7b+",
        "circuitNumber": "",
        "steepness": "overhang",
        "height": null,
        "name": "L'Ange Naïf (sans convention)",
        "circuitColor": null,
        "circuitId": null,
        "tags": [

        ]
      },
      "id": "problem_3162"
    },
    {
      "type": "Feature",
      "geometry": {
        "type": "Point",
        "coordinates": [
          2.52731077356,
          48.38573376672
        ]
      },
      "properties": {
        "grade": "4a",
        "circuitNumber": "6",
        "steepness": "overhang",
        "height": null,
        "name": null,
        "circuitColor": "orange",
        "circuitId": 37,
        "tags": [

        ]
      },
      "id": "problem_2900"
    },
    {
      "type": "Feature",
      "geometry": {
        "type": "Point",
        "coordinates": [
          2.53081206216,
          48.38615993815
        ]
      },
      "properties": {
        "grade": "6c",
        "circuitNumber": "",
        "steepness": "other",
        "height": null,
        "name": "L'Amante Est Fait Mère",
        "circuitColor": null,
        "circuitId": null,
        "tags": [

        ]
      },
      "id": "problem_3024"
    },
    {
      "type": "Feature",
      "geometry": {
        "type": "Point",
        "coordinates": [
          2.53051199002,
          48.38551845305
        ]
      },
      "properties": {
        "grade": "5c",
        "circuitNumber": "29",
        "steepness": "traverse",
        "height": null,
        "name": null,
        "circuitColor": "white",
        "circuitId": 40,
        "tags": [

        ]
      },
      "id": "problem_3206"
    },
    {
      "type": "Feature",
      "geometry": {
        "type": "Point",
        "coordinates": [
          2.53144338693,
          48.38589218991
        ]
      },
      "properties": {
        "grade": "3b",
        "circuitNumber": "12",
        "steepness": "other",
        "height": null,
        "name": "L'Arête au Mur",
        "circuitColor": "orange",
        "circuitId": 45,
        "tags": [

        ]
      },
      "id": "problem_3057"
    },
    {
      "type": "Feature",
      "geometry": {
        "type": "Point",
        "coordinates": [
          2.53030017941,
          48.38532056178
        ]
      },
      "properties": {
        "grade": "5c",
        "circuitNumber": "33",
        "steepness": "wall",
        "height": null,
        "name": null,
        "circuitColor": "white",
        "circuitId": 40,
        "tags": [

        ]
      },
      "id": "problem_3179"
    },
    {
      "type": "Feature",
      "geometry": {
        "type": "Point",
        "coordinates": [
          2.53118656559,
          48.38543428675
        ]
      },
      "properties": {
        "grade": "2c",
        "circuitNumber": "23",
        "steepness": "other",
        "height": null,
        "name": "Le Conciliabule",
        "circuitColor": "orange",
        "circuitId": 45,
        "tags": [

        ]
      },
      "id": "problem_3102"
    },
    {
      "type": "Feature",
      "geometry": {
        "type": "Point",
        "coordinates": [
          2.53079362197,
          48.38511587861
        ]
      },
      "properties": {
        "grade": "5a+",
        "circuitNumber": "25",
        "steepness": "wall",
        "height": null,
        "name": "La Mendoza",
        "circuitColor": "red",
        "circuitId": 39,
        "tags": [

        ]
      },
      "id": "problem_3124"
    },
    {
      "type": "Feature",
      "geometry": {
        "type": "Point",
        "coordinates": [
          2.52881247517,
          48.38586124011
        ]
      },
      "properties": {
        "grade": "2c",
        "circuitNumber": "28",
        "steepness": "other",
        "height": null,
        "name": null,
        "circuitColor": "orange",
        "circuitId": 37,
        "tags": [

        ]
      },
      "id": "problem_2938"
    },
    {
      "type": "Feature",
      "geometry": {
        "type": "Point",
        "coordinates": [
          2.53096628917,
          48.38550353469
        ]
      },
      "properties": {
        "grade": "4a",
        "circuitNumber": "22",
        "steepness": "traverse",
        "height": null,
        "name": "Jeu Complet",
        "circuitColor": "blue",
        "circuitId": 38,
        "tags": [

        ]
      },
      "id": "problem_3088"
    },
    {
      "type": "Feature",
      "geometry": {
        "type": "Point",
        "coordinates": [
          2.52750707782,
          48.38562477397
        ]
      },
      "properties": {
        "grade": "7a",
        "circuitNumber": "",
        "steepness": "other",
        "height": null,
        "name": "Tentation",
        "circuitColor": null,
        "circuitId": null,
        "tags": [

        ]
      },
      "id": "problem_2911"
    },
    {
      "type": "Feature",
      "geometry": {
        "type": "Point",
        "coordinates": [
          2.52947112537,
          48.38569713891
        ]
      },
      "properties": {
        "grade": "5c",
        "circuitNumber": "",
        "steepness": "other",
        "height": null,
        "name": "28 blanc (assis)",
        "circuitColor": null,
        "circuitId": null,
        "tags": [
          "sit_start"
        ]
      },
      "id": "problem_2996"
    },
    {
      "type": "Feature",
      "geometry": {
        "type": "Point",
        "coordinates": [
          2.52852078494,
          48.3855553037
        ]
      },
      "properties": {
        "grade": "3a",
        "circuitNumber": "22",
        "steepness": "other",
        "height": null,
        "name": null,
        "circuitColor": "orange",
        "circuitId": 37,
        "tags": [

        ]
      },
      "id": "problem_2932"
    },
    {
      "type": "Feature",
      "geometry": {
        "type": "Point",
        "coordinates": [
          2.52935511975,
          48.38579087924
        ]
      },
      "properties": {
        "grade": "6b",
        "circuitNumber": "",
        "steepness": "wall",
        "height": null,
        "name": "Message in a Bottle",
        "circuitColor": null,
        "circuitId": null,
        "tags": [

        ]
      },
      "id": "problem_2973"
    },
    {
      "type": "Feature",
      "geometry": {
        "type": "Point",
        "coordinates": [
          2.53089303134,
          48.38619322568
        ]
      },
      "properties": {
        "grade": "6b",
        "circuitNumber": "17",
        "steepness": "slab",
        "height": null,
        "name": null,
        "circuitColor": "white",
        "circuitId": 40,
        "tags": [

        ]
      },
      "id": "problem_3026"
    },
    {
      "type": "Feature",
      "geometry": {
        "type": "Point",
        "coordinates": [
          2.52920759825,
          48.38593427258
        ]
      },
      "properties": {
        "grade": "7b+",
        "circuitNumber": "",
        "steepness": "overhang",
        "height": null,
        "name": "Absynthe",
        "circuitColor": null,
        "circuitId": null,
        "tags": [

        ]
      },
      "id": "problem_2965"
    },
    {
      "type": "Feature",
      "geometry": {
        "type": "Point",
        "coordinates": [
          2.5288738307,
          48.38573922203
        ]
      },
      "properties": {
        "grade": "3b",
        "circuitNumber": "25",
        "steepness": "wall",
        "height": null,
        "name": null,
        "circuitColor": "orange",
        "circuitId": 37,
        "tags": [

        ]
      },
      "id": "problem_2935"
    },
    {
      "type": "Feature",
      "geometry": {
        "type": "Point",
        "coordinates": [
          2.53097332997,
          48.38548149115
        ]
      },
      "properties": {
        "grade": "5a",
        "circuitNumber": "",
        "steepness": "other",
        "height": null,
        "name": "Gouda",
        "circuitColor": null,
        "circuitId": null,
        "tags": [

        ]
      },
      "id": "problem_3096"
    },
    {
      "type": "Feature",
      "geometry": {
        "type": "Point",
        "coordinates": [
          2.53068499259,
          48.38598965921
        ]
      },
      "properties": {
        "grade": "4b",
        "circuitNumber": "",
        "steepness": "other",
        "height": null,
        "name": "Mur d'Emmenthal",
        "circuitColor": null,
        "circuitId": null,
        "tags": [

        ]
      },
      "id": "problem_3036"
    },
    {
      "type": "Feature",
      "geometry": {
        "type": "Point",
        "coordinates": [
          2.53047695367,
          48.38549139961
        ]
      },
      "properties": {
        "grade": "4c",
        "circuitNumber": "24",
        "steepness": "wall",
        "height": null,
        "name": "Boulet Rouge",
        "circuitColor": "blue",
        "circuitId": 38,
        "tags": [

        ]
      },
      "id": "problem_3199"
    },
    {
      "type": "Feature",
      "geometry": {
        "type": "Point",
        "coordinates": [
          2.5309364496,
          48.38565550131
        ]
      },
      "properties": {
        "grade": "6b+",
        "circuitNumber": "",
        "steepness": "wall",
        "height": null,
        "name": "Manchuria",
        "circuitColor": null,
        "circuitId": null,
        "tags": [

        ]
      },
      "id": "problem_3077"
    },
    {
      "type": "Feature",
      "geometry": {
        "type": "Point",
        "coordinates": [
          2.5314551216,
          48.38600329729
        ]
      },
      "properties": {
        "grade": "2b+",
        "circuitNumber": "10",
        "steepness": "slab",
        "height": null,
        "name": "La Dalle Cirée",
        "circuitColor": "orange",
        "circuitId": 45,
        "tags": [

        ]
      },
      "id": "problem_3055"
    },
    {
      "type": "Feature",
      "geometry": {
        "type": "Point",
        "coordinates": [
          2.52746282129,
          48.38564125098
        ]
      },
      "properties": {
        "grade": "5a",
        "circuitNumber": "",
        "steepness": "other",
        "height": null,
        "name": "Mephisto",
        "circuitColor": null,
        "circuitId": null,
        "tags": [

        ]
      },
      "id": "problem_2908"
    },
    {
      "type": "Feature",
      "geometry": {
        "type": "Point",
        "coordinates": [
          2.53091230972,
          48.38567988272
        ]
      },
      "properties": {
        "grade": "7c",
        "circuitNumber": "",
        "steepness": "traverse",
        "height": null,
        "name": "Manchuria Express",
        "circuitColor": null,
        "circuitId": null,
        "tags": [

        ]
      },
      "id": "problem_3076"
    },
    {
      "type": "Feature",
      "geometry": {
        "type": "Point",
        "coordinates": [
          2.53113962693,
          48.38542972218
        ]
      },
      "properties": {
        "grade": "2b+",
        "circuitNumber": "24",
        "steepness": "wall",
        "height": null,
        "name": "Le Beau Geste",
        "circuitColor": "orange",
        "circuitId": 45,
        "tags": [

        ]
      },
      "id": "problem_3101"
    },
    {
      "type": "Feature",
      "geometry": {
        "type": "Point",
        "coordinates": [
          2.5309263914,
          48.38566507569
        ]
      },
      "properties": {
        "grade": "6b+",
        "circuitNumber": "",
        "steepness": "wall",
        "height": null,
        "name": "Senticosus",
        "circuitColor": null,
        "circuitId": null,
        "tags": [

        ]
      },
      "id": "problem_3078"
    },
    {
      "type": "Feature",
      "geometry": {
        "type": "Point",
        "coordinates": [
          2.53181856092,
          48.38620146417
        ]
      },
      "properties": {
        "grade": "2b",
        "circuitNumber": "2",
        "steepness": "slab",
        "height": null,
        "name": "Le Lustre",
        "circuitColor": "orange",
        "circuitId": 45,
        "tags": [

        ]
      },
      "id": "problem_3044"
    },
    {
      "type": "Feature",
      "geometry": {
        "type": "Point",
        "coordinates": [
          2.53056630475,
          48.38488920643
        ]
      },
      "properties": {
        "grade": "6b",
        "circuitNumber": "2",
        "steepness": "wall",
        "height": null,
        "name": "La Poincenot",
        "circuitColor": "white",
        "circuitId": 40,
        "tags": [

        ]
      },
      "id": "problem_3153"
    },
    {
      "type": "Feature",
      "geometry": {
        "type": "Point",
        "coordinates": [
          2.52948017774,
          48.38549017497
        ]
      },
      "properties": {
        "grade": "3a",
        "circuitNumber": "37",
        "steepness": "wall",
        "height": null,
        "name": "Petit Chagrin",
        "circuitColor": "orange",
        "circuitId": 45,
        "tags": [

        ]
      },
      "id": "problem_3002"
    },
    {
      "type": "Feature",
      "geometry": {
        "type": "Point",
        "coordinates": [
          2.52733943976,
          48.38568762014
        ]
      },
      "properties": {
        "grade": "7a",
        "circuitNumber": "",
        "steepness": "overhang",
        "height": null,
        "name": "Étrave de Droite / 95.C",
        "circuitColor": null,
        "circuitId": null,
        "tags": [

        ]
      },
      "id": "problem_2904"
    },
    {
      "type": "Feature",
      "geometry": {
        "type": "Point",
        "coordinates": [
          2.52732720209,
          48.38568878917
        ]
      },
      "properties": {
        "grade": "7a",
        "circuitNumber": "",
        "steepness": "overhang",
        "height": null,
        "name": "Retour aux Sources",
        "circuitColor": null,
        "circuitId": null,
        "tags": [

        ]
      },
      "id": "problem_2902"
    },
    {
      "type": "Feature",
      "geometry": {
        "type": "Point",
        "coordinates": [
          2.5306611879,
          48.38485769936
        ]
      },
      "properties": {
        "grade": "4b",
        "circuitNumber": "",
        "steepness": "other",
        "height": null,
        "name": "La Modénature",
        "circuitColor": null,
        "circuitId": null,
        "tags": [

        ]
      },
      "id": "problem_3149"
    },
    {
      "type": "Feature",
      "geometry": {
        "type": "Point",
        "coordinates": [
          2.52936685441,
          48.38570604541
        ]
      },
      "properties": {
        "grade": "5b",
        "circuitNumber": "27",
        "steepness": "overhang",
        "height": null,
        "name": null,
        "circuitColor": "white",
        "circuitId": 40,
        "tags": [

        ]
      },
      "id": "problem_2988"
    },
    {
      "type": "Feature",
      "geometry": {
        "type": "Point",
        "coordinates": [
          2.53082681443,
          48.38489652645
        ]
      },
      "properties": {
        "grade": "7a+",
        "circuitNumber": "",
        "steepness": "overhang",
        "height": null,
        "name": "Télépathie",
        "circuitColor": null,
        "circuitId": null,
        "tags": [

        ]
      },
      "id": "problem_3132"
    },
    {
      "type": "Feature",
      "geometry": {
        "type": "Point",
        "coordinates": [
          2.53105228758,
          48.38575915001
        ]
      },
      "properties": {
        "grade": "4a",
        "circuitNumber": "18",
        "steepness": "slab",
        "height": null,
        "name": "Recette de Gratins",
        "circuitColor": "orange",
        "circuitId": 45,
        "tags": [

        ]
      },
      "id": "problem_3065"
    },
    {
      "type": "Feature",
      "geometry": {
        "type": "Point",
        "coordinates": [
          2.52819975805,
          48.38570660218
        ]
      },
      "properties": {
        "grade": "3b",
        "circuitNumber": "19",
        "steepness": "other",
        "height": null,
        "name": null,
        "circuitColor": "orange",
        "circuitId": 37,
        "tags": [

        ]
      },
      "id": "problem_2929"
    },
    {
      "type": "Feature",
      "geometry": {
        "type": "Point",
        "coordinates": [
          2.5306236368,
          48.38478644667
        ]
      },
      "properties": {
        "grade": "5c",
        "circuitNumber": "",
        "steepness": "wall",
        "height": null,
        "name": "Les Toulousaines",
        "circuitColor": null,
        "circuitId": null,
        "tags": [
          "sit_start"
        ]
      },
      "id": "problem_3150"
    },
    {
      "type": "Feature",
      "geometry": {
        "type": "Point",
        "coordinates": [
          2.53048785022,
          48.38487695981
        ]
      },
      "properties": {
        "grade": "5b+",
        "circuitNumber": "1",
        "steepness": "other",
        "height": null,
        "name": "Le Kilo de Beurre",
        "circuitColor": "white",
        "circuitId": 40,
        "tags": [

        ]
      },
      "id": "problem_3158"
    },
    {
      "type": "Feature",
      "geometry": {
        "type": "Point",
        "coordinates": [
          2.52733885302,
          48.3856896241
        ]
      },
      "properties": {
        "grade": "7b",
        "circuitNumber": "",
        "steepness": "traverse",
        "height": null,
        "name": "Retour aux Sources (droite)",
        "circuitColor": null,
        "circuitId": null,
        "tags": [
          "sit_start"
        ]
      },
      "id": "problem_2903"
    },
    {
      "type": "Feature",
      "geometry": {
        "type": "Point",
        "coordinates": [
          2.53086989729,
          48.38598570705
        ]
      },
      "properties": {
        "grade": "5a",
        "circuitNumber": "14",
        "steepness": "slab",
        "height": null,
        "name": null,
        "circuitColor": "white",
        "circuitId": 40,
        "tags": [
          "risky"
        ]
      },
      "id": "problem_3040"
    },
    {
      "type": "Feature",
      "geometry": {
        "type": "Point",
        "coordinates": [
          2.52828139795,
          48.38579911769
        ]
      },
      "properties": {
        "grade": "3c+",
        "circuitNumber": "33",
        "steepness": "other",
        "height": null,
        "name": null,
        "circuitColor": "orange",
        "circuitId": 37,
        "tags": [

        ]
      },
      "id": "problem_2943"
    },
    {
      "type": "Feature",
      "geometry": {
        "type": "Point",
        "coordinates": [
          2.53033345548,
          48.38557367319
        ]
      },
      "properties": {
        "grade": "4c",
        "circuitNumber": "",
        "steepness": "other",
        "height": null,
        "name": "Chénas",
        "circuitColor": null,
        "circuitId": null,
        "tags": [

        ]
      },
      "id": "problem_3213"
    },
    {
      "type": "Feature",
      "geometry": {
        "type": "Point",
        "coordinates": [
          2.52924162886,
          48.38601075623
        ]
      },
      "properties": {
        "grade": "7b",
        "circuitNumber": "",
        "steepness": "other",
        "height": null,
        "name": "La Ritz (assis)",
        "circuitColor": null,
        "circuitId": null,
        "tags": [
          "sit_start"
        ]
      },
      "id": "problem_2959"
    },
    {
      "type": "Feature",
      "geometry": {
        "type": "Point",
        "coordinates": [
          2.53050461395,
          48.38552713686
        ]
      },
      "properties": {
        "grade": "4b",
        "circuitNumber": "23",
        "steepness": "wall",
        "height": null,
        "name": "Sable Émouvant",
        "circuitColor": "blue",
        "circuitId": 38,
        "tags": [

        ]
      },
      "id": "problem_3207"
    },
    {
      "type": "Feature",
      "geometry": {
        "type": "Point",
        "coordinates": [
          2.529317485,
          48.38577935654
        ]
      },
      "properties": {
        "grade": "6a",
        "circuitNumber": "43",
        "steepness": "wall",
        "height": null,
        "name": "Le Spectre",
        "circuitColor": "red",
        "circuitId": 39,
        "tags": [

        ]
      },
      "id": "problem_2971"
    },
    {
      "type": "Feature",
      "geometry": {
        "type": "Point",
        "coordinates": [
          2.52933533845,
          48.38573877659
        ]
      },
      "properties": {
        "grade": "7a+",
        "circuitNumber": "",
        "steepness": "other",
        "height": null,
        "name": "Pince-Toi",
        "circuitColor": null,
        "circuitId": null,
        "tags": [

        ]
      },
      "id": "problem_2984"
    },
    {
      "type": "Feature",
      "geometry": {
        "type": "Point",
        "coordinates": [
          2.52786045877,
          48.38572285633
        ]
      },
      "properties": {
        "grade": "2c",
        "circuitNumber": "17",
        "steepness": "other",
        "height": null,
        "name": null,
        "circuitColor": "orange",
        "circuitId": 37,
        "tags": [

        ]
      },
      "id": "problem_2925"
    },
    {
      "type": "Feature",
      "geometry": {
        "type": "Point",
        "coordinates": [
          2.53108397109,
          48.38540066473
        ]
      },
      "properties": {
        "grade": "5a",
        "circuitNumber": "23",
        "steepness": "wall",
        "height": null,
        "name": "Rasta Man",
        "circuitColor": "red",
        "circuitId": 39,
        "tags": [

        ]
      },
      "id": "problem_3109"
    },
    {
      "type": "Feature",
      "geometry": {
        "type": "Point",
        "coordinates": [
          2.53169668822,
          48.38613633627
        ]
      },
      "properties": {
        "grade": "2b+",
        "circuitNumber": "7",
        "steepness": "wall",
        "height": null,
        "name": "Prise de Base",
        "circuitColor": "orange",
        "circuitId": 45,
        "tags": [

        ]
      },
      "id": "problem_3049"
    },
    {
      "type": "Feature",
      "geometry": {
        "type": "Point",
        "coordinates": [
          2.53101984954,
          48.38576115402
        ]
      },
      "properties": {
        "grade": "7a+",
        "circuitNumber": "",
        "steepness": "overhang",
        "height": null,
        "name": "Indestructible",
        "circuitColor": null,
        "circuitId": null,
        "tags": [
          "sit_start"
        ]
      },
      "id": "problem_3066"
    },
    {
      "type": "Feature",
      "geometry": {
        "type": "Point",
        "coordinates": [
          2.53031618876,
          48.38556788398
        ]
      },
      "properties": {
        "grade": "3a",
        "circuitNumber": "",
        "steepness": "other",
        "height": null,
        "name": "Partie Giza",
        "circuitColor": null,
        "circuitId": null,
        "tags": [

        ]
      },
      "id": "problem_3214"
    },
    {
      "type": "Feature",
      "geometry": {
        "type": "Point",
        "coordinates": [
          2.5304912029,
          48.38554962571
        ]
      },
      "properties": {
        "grade": "4a",
        "circuitNumber": "27",
        "steepness": "overhang",
        "height": null,
        "name": "Dévers et des Pas Durs",
        "circuitColor": "orange",
        "circuitId": 45,
        "tags": [

        ]
      },
      "id": "problem_3208"
    },
    {
      "type": "Feature",
      "geometry": {
        "type": "Point",
        "coordinates": [
          2.53098221479,
          48.38547280732
        ]
      },
      "properties": {
        "grade": "5b",
        "circuitNumber": "",
        "steepness": "other",
        "height": null,
        "name": "Edam",
        "circuitColor": null,
        "circuitId": null,
        "tags": [

        ]
      },
      "id": "problem_3095"
    },
    {
      "type": "Feature",
      "geometry": {
        "type": "Point",
        "coordinates": [
          2.52738134927,
          48.38540439427
        ]
      },
      "properties": {
        "grade": "6c",
        "circuitNumber": "",
        "steepness": "roof",
        "height": null,
        "name": "Duel dans la Lune",
        "circuitColor": null,
        "circuitId": null,
        "tags": [

        ]
      },
      "id": "problem_2892"
    },
    {
      "type": "Feature",
      "geometry": {
        "type": "Point",
        "coordinates": [
          2.52794712765,
          48.38574523376
        ]
      },
      "properties": {
        "grade": "4a",
        "circuitNumber": "40",
        "steepness": "other",
        "height": null,
        "name": null,
        "circuitColor": "orange",
        "circuitId": 37,
        "tags": [

        ]
      },
      "id": "problem_2927"
    },
    {
      "type": "Feature",
      "geometry": {
        "type": "Point",
        "coordinates": [
          2.52819632163,
          48.3858259483
        ]
      },
      "properties": {
        "grade": "3a",
        "circuitNumber": "37",
        "steepness": "wall",
        "height": null,
        "name": null,
        "circuitColor": "orange",
        "circuitId": 37,
        "tags": [

        ]
      },
      "id": "problem_2947"
    },
    {
      "type": "Feature",
      "geometry": {
        "type": "Point",
        "coordinates": [
          2.52796058073,
          48.38625698953
        ]
      },
      "properties": {
        "grade": "7b+",
        "circuitNumber": "",
        "steepness": "traverse",
        "height": null,
        "name": "Symbiose (droite)",
        "circuitColor": null,
        "circuitId": null,
        "tags": [
          "sit_start"
        ]
      },
      "id": "problem_2954"
    },
    {
      "type": "Feature",
      "geometry": {
        "type": "Point",
        "coordinates": [
          2.53082010878,
          48.38483209289
        ]
      },
      "properties": {
        "grade": "5c",
        "circuitNumber": "27",
        "steepness": "other",
        "height": null,
        "name": "Marée Haute",
        "circuitColor": "red",
        "circuitId": 39,
        "tags": [

        ]
      },
      "id": "problem_3142"
    },
    {
      "type": "Feature",
      "geometry": {
        "type": "Point",
        "coordinates": [
          2.53095908074,
          48.3856373544
        ]
      },
      "properties": {
        "grade": "3b",
        "circuitNumber": "20",
        "steepness": "other",
        "height": null,
        "name": "Le Rouge Gorge",
        "circuitColor": "orange",
        "circuitId": 45,
        "tags": [

        ]
      },
      "id": "problem_3081"
    },
    {
      "type": "Feature",
      "geometry": {
        "type": "Point",
        "coordinates": [
          2.53094080819,
          48.38652220332
        ]
      },
      "properties": {
        "grade": "4b",
        "circuitNumber": "1",
        "steepness": "other",
        "height": null,
        "name": "La Victor Hugo",
        "circuitColor": "red",
        "circuitId": 39,
        "tags": [

        ]
      },
      "id": "problem_3009"
    },
    {
      "type": "Feature",
      "geometry": {
        "type": "Point",
        "coordinates": [
          2.53078121675,
          48.38486293198
        ]
      },
      "properties": {
        "grade": "4b+",
        "circuitNumber": "4",
        "steepness": "wall",
        "height": null,
        "name": "Fleur Bleue",
        "circuitColor": "blue",
        "circuitId": 38,
        "tags": [

        ]
      },
      "id": "problem_3138"
    },
    {
      "type": "Feature",
      "geometry": {
        "type": "Point",
        "coordinates": [
          2.53118656542,
          48.38573855404
        ]
      },
      "properties": {
        "grade": "2c",
        "circuitNumber": "16",
        "steepness": "traverse",
        "height": null,
        "name": "La Traversée Haute",
        "circuitColor": "orange",
        "circuitId": 45,
        "tags": [

        ]
      },
      "id": "problem_3063"
    },
    {
      "type": "Feature",
      "geometry": {
        "type": "Point",
        "coordinates": [
          2.5304688233,
          48.38487066953
        ]
      },
      "properties": {
        "grade": "5c",
        "circuitNumber": "30",
        "steepness": "other",
        "height": null,
        "name": "Le Fil à Plomb",
        "circuitColor": "red",
        "circuitId": 39,
        "tags": [

        ]
      },
      "id": "problem_3156"
    },
    {
      "type": "Feature",
      "geometry": {
        "type": "Point",
        "coordinates": [
          2.53020688875,
          48.3852728563
        ]
      },
      "properties": {
        "grade": "3b",
        "circuitNumber": "34",
        "steepness": "wall",
        "height": null,
        "name": "Peines de Frissons",
        "circuitColor": "orange",
        "circuitId": 45,
        "tags": [

        ]
      },
      "id": "problem_3183"
    },
    {
      "type": "Feature",
      "geometry": {
        "type": "Point",
        "coordinates": [
          2.53017336113,
          48.38535012032
        ]
      },
      "properties": {
        "grade": "3b+",
        "circuitNumber": "35",
        "steepness": "traverse",
        "height": null,
        "name": "Au Gres du Ventre",
        "circuitColor": "orange",
        "circuitId": 45,
        "tags": [

        ]
      },
      "id": "problem_3191"
    },
    {
      "type": "Feature",
      "geometry": {
        "type": "Point",
        "coordinates": [
          2.52735637112,
          48.38539804845
        ]
      },
      "properties": {
        "grade": "7b+",
        "circuitNumber": "",
        "steepness": "roof",
        "height": null,
        "name": "Sens Dessus Dessous",
        "circuitColor": null,
        "circuitId": null,
        "tags": [
          "sit_start"
        ]
      },
      "id": "problem_2888"
    },
    {
      "type": "Feature",
      "geometry": {
        "type": "Point",
        "coordinates": [
          2.53063805385,
          48.3848956637
        ]
      },
      "properties": {
        "grade": "8a",
        "circuitNumber": "",
        "steepness": "other",
        "height": null,
        "name": "Énergie Collective",
        "circuitColor": null,
        "circuitId": null,
        "tags": [
          "sit_start"
        ]
      },
      "id": "problem_3154"
    },
    {
      "type": "Feature",
      "geometry": {
        "type": "Point",
        "coordinates": [
          2.53094248457,
          48.38550676329
        ]
      },
      "properties": {
        "grade": "5a",
        "circuitNumber": "9",
        "steepness": "overhang",
        "height": null,
        "name": null,
        "circuitColor": "white",
        "circuitId": 40,
        "tags": [

        ]
      },
      "id": "problem_3089"
    },
    {
      "type": "Feature",
      "geometry": {
        "type": "Point",
        "coordinates": [
          2.53089386953,
          48.38618454198
        ]
      },
      "properties": {
        "grade": "6a+",
        "circuitNumber": "18",
        "steepness": "other",
        "height": null,
        "name": null,
        "circuitColor": "white",
        "circuitId": 40,
        "tags": [

        ]
      },
      "id": "problem_3027"
    },
    {
      "type": "Feature",
      "geometry": {
        "type": "Point",
        "coordinates": [
          2.53051123573,
          48.38515896397
        ]
      },
      "properties": {
        "grade": "7a",
        "circuitNumber": "",
        "steepness": "slab",
        "height": null,
        "name": "Professeur Penel",
        "circuitColor": null,
        "circuitId": null,
        "tags": [

        ]
      },
      "id": "problem_3168"
    },
    {
      "type": "Feature",
      "geometry": {
        "type": "Point",
        "coordinates": [
          2.52730582832,
          48.38573014842
        ]
      },
      "properties": {
        "grade": "6a",
        "circuitNumber": "",
        "steepness": "overhang",
        "height": null,
        "name": "Pompeux",
        "circuitColor": null,
        "circuitId": null,
        "tags": [

        ]
      },
      "id": "problem_2901"
    },
    {
      "type": "Feature",
      "geometry": {
        "type": "Point",
        "coordinates": [
          2.52813152935,
          48.38574011267
        ]
      },
      "properties": {
        "grade": "3a",
        "circuitNumber": "18",
        "steepness": "other",
        "height": null,
        "name": null,
        "circuitColor": "orange",
        "circuitId": 37,
        "tags": [

        ]
      },
      "id": "problem_2928"
    },
    {
      "type": "Feature",
      "geometry": {
        "type": "Point",
        "coordinates": [
          2.53019884212,
          48.38539431885
        ]
      },
      "properties": {
        "grade": "5a+",
        "circuitNumber": "31",
        "steepness": "traverse",
        "height": null,
        "name": "L'Humour est Amour",
        "circuitColor": "blue",
        "circuitId": 38,
        "tags": [

        ]
      },
      "id": "problem_3192"
    },
    {
      "type": "Feature",
      "geometry": {
        "type": "Point",
        "coordinates": [
          2.52944195626,
          48.385695803
        ]
      },
      "properties": {
        "grade": "4c",
        "circuitNumber": "",
        "steepness": "other",
        "height": null,
        "name": "Absentéiste",
        "circuitColor": null,
        "circuitId": null,
        "tags": [

        ]
      },
      "id": "problem_2997"
    },
    {
      "type": "Feature",
      "geometry": {
        "type": "Point",
        "coordinates": [
          2.52930432541,
          48.38577807624
        ]
      },
      "properties": {
        "grade": "7c+",
        "circuitNumber": "",
        "steepness": "wall",
        "height": null,
        "name": "Futurs Barbares",
        "circuitColor": null,
        "circuitId": null,
        "tags": [

        ]
      },
      "id": "problem_2968"
    },
    {
      "type": "Feature",
      "geometry": {
        "type": "Point",
        "coordinates": [
          2.53095556034,
          48.38513024042
        ]
      },
      "properties": {
        "grade": "7b+",
        "circuitNumber": "",
        "steepness": "wall",
        "height": null,
        "name": "Le Médaillon",
        "circuitColor": null,
        "circuitId": null,
        "tags": [

        ]
      },
      "id": "problem_3119"
    },
    {
      "type": "Feature",
      "geometry": {
        "type": "Point",
        "coordinates": [
          2.52927842542,
          48.38575102289
        ]
      },
      "properties": {
        "grade": "6a+",
        "circuitNumber": "26",
        "steepness": "slab",
        "height": null,
        "name": null,
        "circuitColor": "white",
        "circuitId": 40,
        "tags": [

        ]
      },
      "id": "problem_3215"
    },
    {
      "type": "Feature",
      "geometry": {
        "type": "Point",
        "coordinates": [
          2.53068985401,
          48.3848489041
        ]
      },
      "properties": {
        "grade": "6c+",
        "circuitNumber": "",
        "steepness": "other",
        "height": null,
        "name": "Le Smarty",
        "circuitColor": null,
        "circuitId": null,
        "tags": [

        ]
      },
      "id": "problem_3147"
    },
    {
      "type": "Feature",
      "geometry": {
        "type": "Point",
        "coordinates": [
          2.53044962866,
          48.38487428789
        ]
      },
      "properties": {
        "grade": "5b+",
        "circuitNumber": "",
        "steepness": "other",
        "height": null,
        "name": "Cocaine",
        "circuitColor": null,
        "circuitId": null,
        "tags": [

        ]
      },
      "id": "problem_3155"
    },
    {
      "type": "Feature",
      "geometry": {
        "type": "Point",
        "coordinates": [
          2.52827033384,
          48.38578932062
        ]
      },
      "properties": {
        "grade": "4a",
        "circuitNumber": "31",
        "steepness": "other",
        "height": null,
        "name": null,
        "circuitColor": "orange",
        "circuitId": 37,
        "tags": [

        ]
      },
      "id": "problem_2941"
    },
    {
      "type": "Feature",
      "geometry": {
        "type": "Point",
        "coordinates": [
          2.53086436523,
          48.38526350445
        ]
      },
      "properties": {
        "grade": "5a+",
        "circuitNumber": "14",
        "steepness": "overhang",
        "height": null,
        "name": "Le Redoutable",
        "circuitColor": "blue",
        "circuitId": 38,
        "tags": [

        ]
      },
      "id": "problem_3113"
    },
    {
      "type": "Feature",
      "geometry": {
        "type": "Point",
        "coordinates": [
          2.52781888453,
          48.38572074105
        ]
      },
      "properties": {
        "grade": "3a",
        "circuitNumber": "14",
        "steepness": "slab",
        "height": null,
        "name": null,
        "circuitColor": "orange",
        "circuitId": 37,
        "tags": [

        ]
      },
      "id": "problem_2922"
    },
    {
      "type": "Feature",
      "geometry": {
        "type": "Point",
        "coordinates": [
          2.52939216776,
          48.38569201776
        ]
      },
      "properties": {
        "grade": "5b",
        "circuitNumber": "42",
        "steepness": "traverse",
        "height": null,
        "name": "Grosse Fissure",
        "circuitColor": "red",
        "circuitId": 39,
        "tags": [

        ]
      },
      "id": "problem_2990"
    },
    {
      "type": "Feature",
      "geometry": {
        "type": "Point",
        "coordinates": [
          2.52931890992,
          48.38576493925
        ]
      },
      "properties": {
        "grade": "5a",
        "circuitNumber": "37",
        "steepness": "slab",
        "height": null,
        "name": "Bleu Céleste",
        "circuitColor": "blue",
        "circuitId": 38,
        "tags": [

        ]
      },
      "id": "problem_2982"
    },
    {
      "type": "Feature",
      "geometry": {
        "type": "Point",
        "coordinates": [
          2.530420292,
          48.38541536045
        ]
      },
      "properties": {
        "grade": "3c",
        "circuitNumber": "27",
        "steepness": "wall",
        "height": null,
        "name": "Ligne Rouge",
        "circuitColor": "blue",
        "circuitId": 38,
        "tags": [

        ]
      },
      "id": "problem_3196"
    },
    {
      "type": "Feature",
      "geometry": {
        "type": "Point",
        "coordinates": [
          2.53150952032,
          48.38648713474
        ]
      },
      "properties": {
        "grade": "6b",
        "circuitNumber": "",
        "steepness": "other",
        "height": null,
        "name": "U.S.I. F.S.G.T.",
        "circuitColor": null,
        "circuitId": null,
        "tags": [

        ]
      },
      "id": "problem_3013"
    },
    {
      "type": "Feature",
      "geometry": {
        "type": "Point",
        "coordinates": [
          2.53164824065,
          48.38629230896
        ]
      },
      "properties": {
        "grade": "2a",
        "circuitNumber": "3",
        "steepness": "other",
        "height": null,
        "name": "Le Pas Dur",
        "circuitColor": "orange",
        "circuitId": 45,
        "tags": [

        ]
      },
      "id": "problem_3045"
    },