{
  "type": "FeatureCollection",
  "features": [
    {
      "type": "Feature",
      "geometry": null,
      "properties": {
        "readme": "****PLEASE READ ME***** This data belongs to boolder.com. Want to use it in your app? Let's discuss: hello@boolder.com"
      }
    },
    {
      "type": "Feature",
      "geometry": {
        "type": "Point",
        "coordinates": [
          2.47895088013,
          48.50161208626
        ]
      },
      "properties": {
        "grade": "6c",
        "circuitNumber": "17",
        "steepness": "traverse",
        "height": null,
        "name": "Le Porte-Manteau en Marbre",
        "bleauInfoId": "8931",
        "circuitColor": "black",
        "circuitId": 101,
        "tags": [

        ]
      },
      "id": "problem_6981"
    },
    {
      "type": "Feature",
      "geometry": {
        "type": "Point",
        "coordinates": [
          2.47922480039,
          48.50266952667
        ]
      },
      "properties": {
        "grade": "6a+",
        "circuitNumber": "35",
        "steepness": "wall",
        "height": null,
        "name": "Le Coup de Boule",
        "bleauInfoId": "6717",
        "circuitColor": "red",
        "circuitId": 100,
        "tags": [

        ]
      },
      "id": "problem_7010"
    },
    {
      "type": "Feature",
      "geometry": {
        "type": "Point",
        "coordinates": [
          2.48062424328,
          48.5021476958
        ]
      },
      "properties": {
        "grade": "5a",
        "circuitNumber": "",
        "steepness": "traverse",
        "height": null,
        "name": "La Cave aux Trous",
        "bleauInfoId": "306623",
        "circuitColor": null,
        "circuitId": null,
        "tags": [
          "sit_start"
        ]
      },
      "id": "problem_6897"
    },
    {
      "type": "Feature",
      "geometry": {
        "type": "Point",
        "coordinates": [
          2.48031981222,
          48.50264153589
        ]
      },
      "properties": {
        "grade": "2a+",
        "circuitNumber": "4",
        "steepness": "traverse",
        "height": null,
        "name": "L'Hypoténuse",
        "bleauInfoId": "18404",
        "circuitColor": "yellow",
        "circuitId": 97,
        "tags": [

        ]
      },
      "id": "problem_6848"
    },
    {
      "type": "Feature",
      "geometry": {
        "type": "Point",
        "coordinates": [
          2.47703410652,
          48.50210948577
        ]
      },
      "properties": {
        "grade": "3c",
        "circuitNumber": "5",
        "steepness": "wall",
        "height": null,
        "name": "La Prise en Compte",
        "bleauInfoId": "6626",
        "circuitColor": "blue",
        "circuitId": 99,
        "tags": [

        ]
      },
      "id": "problem_7121"
    },
    {
      "type": "Feature",
      "geometry": {
        "type": "Point",
        "coordinates": [
          2.47602425482,
          48.50217057738
        ]
      },
      "properties": {
        "grade": "6b+",
        "circuitNumber": "",
        "steepness": "wall",
        "height": null,
        "name": "La Cerise",
        "bleauInfoId": "21587",
        "circuitColor": null,
        "circuitId": null,
        "tags": [

        ]
      },
      "id": "problem_7072"
    },
    {
      "type": "Feature",
      "geometry": {
        "type": "Point",
        "coordinates": [
          2.47637361255,
          48.50223588978
        ]
      },
      "properties": {
        "grade": "5a",
        "circuitNumber": "27",
        "steepness": "other",
        "height": null,
        "name": "Errare Humanum Est",
        "bleauInfoId": "6651",
        "circuitColor": "blue",
        "circuitId": 99,
        "tags": [

        ]
      },
      "id": "problem_7192"
    },
    {
      "type": "Feature",
      "geometry": {
        "type": "Point",
        "coordinates": [
          2.48035199907,
          48.50238939581
        ]
      },
      "properties": {
        "grade": "2b",
        "circuitNumber": "6",
        "steepness": "wall",
        "height": null,
        "name": "La Projection",
        "bleauInfoId": "154074",
        "circuitColor": "yellow",
        "circuitId": 97,
        "tags": [

        ]
      },
      "id": "problem_6860"
    },
    {
      "type": "Feature",
      "geometry": {
        "type": "Point",
        "coordinates": [
          2.47757255964,
          48.50224388743
        ]
      },
      "properties": {
        "grade": "3a",
        "circuitNumber": "50",
        "steepness": "other",
        "height": null,
        "name": "Le Monde Fini",
        "bleauInfoId": "6677",
        "circuitColor": "blue",
        "circuitId": 99,
        "tags": [

        ]
      },
      "id": "problem_7111"
    },
    {
      "type": "Feature",
      "geometry": {
        "type": "Point",
        "coordinates": [
          2.47579961982,
          48.50206327825
        ]
      },
      "properties": {
        "grade": "5c",
        "circuitNumber": "24",
        "steepness": "traverse",
        "height": null,
        "name": "La Tombe",
        "bleauInfoId": "15406",
        "circuitColor": "red",
        "circuitId": 100,
        "tags": [

        ]
      },
      "id": "problem_7205"
    },
    {
      "type": "Feature",
      "geometry": {
        "type": "Point",
        "coordinates": [
          2.47981589254,
          48.50175382007
        ]
      },
      "properties": {
        "grade": "3c",
        "circuitNumber": "",
        "steepness": "other",
        "height": null,
        "name": "Limousin",
        "bleauInfoId": "",
        "circuitColor": null,
        "circuitId": null,
        "tags": [

        ]
      },
      "id": "problem_6953"
    },
    {
      "type": "Feature",
      "geometry": {
        "type": "Point",
        "coordinates": [
          2.47776701979,
          48.50313870315
        ]
      },
      "properties": {
        "grade": "6b",
        "circuitNumber": "4",
        "steepness": "overhang",
        "height": null,
        "name": "Tract'aux Plats",
        "bleauInfoId": "14305",
        "circuitColor": "white",
        "circuitId": 102,
        "tags": [

        ]
      },
      "id": "problem_7040"
    },
    {
      "type": "Feature",
      "geometry": {
        "type": "Point",
        "coordinates": [
          2.48068995707,
          48.5018089142
        ]
      },
      "properties": {
        "grade": "6b",
        "circuitNumber": "9",
        "steepness": "traverse",
        "height": null,
        "name": "La Gosse",
        "bleauInfoId": "22634",
        "circuitColor": "black",
        "circuitId": 101,
        "tags": [

        ]
      },
      "id": "problem_6887"
    },
    {
      "type": "Feature",
      "geometry": {
        "type": "Point",
        "coordinates": [
          2.4769191068,
          48.50189444272
        ]
      },
      "properties": {
        "grade": "4c",
        "circuitNumber": "17",
        "steepness": "other",
        "height": null,
        "name": "Le Pendule des Avaux",
        "bleauInfoId": "6641",
        "circuitColor": "blue",
        "circuitId": 99,
        "tags": [

        ]
      },
      "id": "problem_7174"
    },
    {
      "type": "Feature",
      "geometry": {
        "type": "Point",
        "coordinates": [
          2.47682657059,
          48.50232897091
        ]
      },
      "properties": {
        "grade": "4a",
        "circuitNumber": "",
        "steepness": "traverse",
        "height": null,
        "name": null,
        "bleauInfoId": "6634",
        "circuitColor": null,
        "circuitId": null,
        "tags": [

        ]
      },
      "id": "problem_7142"
    },
    {
      "type": "Feature",
      "geometry": {
        "type": "Point",
        "coordinates": [
          2.48047269814,
          48.50318179964
        ]
      },
      "properties": {
        "grade": "2a+",
        "circuitNumber": "1",
        "steepness": "slab",
        "height": null,
        "name": "Fa Dièse",
        "bleauInfoId": "18446",
        "circuitColor": "yellow",
        "circuitId": 97,
        "tags": [

        ]
      },
      "id": "problem_6842"
    },
    {
      "type": "Feature",
      "geometry": {
        "type": "Point",
        "coordinates": [
          2.47630588643,
          48.50203017787
        ]
      },
      "properties": {
        "grade": "4a",
        "circuitNumber": "24",
        "steepness": "wall",
        "height": null,
        "name": "Le Café de la Danse",
        "bleauInfoId": "16046",
        "circuitColor": "blue",
        "circuitId": 99,
        "tags": [

        ]
      },
      "id": "problem_7186"
    },
    {
      "type": "Feature",
      "geometry": {
        "type": "Point",
        "coordinates": [
          2.48069163395,
          48.50230331242
        ]
      },
      "properties": {
        "grade": "5b",
        "circuitNumber": "",
        "steepness": "other",
        "height": null,
        "name": "Chocolaterie",
        "bleauInfoId": "",
        "circuitColor": null,
        "circuitId": null,
        "tags": [

        ]
      },
      "id": "problem_6900"
    },
    {
      "type": "Feature",
      "geometry": {
        "type": "Point",
        "coordinates": [
          2.47956745293,
          48.50254290137
        ]
      },
      "properties": {
        "grade": "6c+",
        "circuitNumber": "",
        "steepness": "traverse",
        "height": null,
        "name": "Tout est Bon dans l'Cochon",
        "bleauInfoId": "14303",
        "circuitColor": null,
        "circuitId": null,
        "tags": [
          "risky"
        ]
      },
      "id": "problem_7021"
    },
    {
      "type": "Feature",
      "geometry": {
        "type": "Point",
        "coordinates": [
          2.48006634347,
          48.5024256065
        ]
      },
      "properties": {
        "grade": "6c",
        "circuitNumber": "",
        "steepness": "traverse",
        "height": null,
        "name": "La Métropolitaine",
        "bleauInfoId": "11378",
        "circuitColor": null,
        "circuitId": null,
        "tags": [

        ]
      },
      "id": "problem_6851"
    },
    {
      "type": "Feature",
      "geometry": {
        "type": "Point",
        "coordinates": [
          2.47576340999,
          48.50227809843
        ]
      },
      "properties": {
        "grade": "6c",
        "circuitNumber": "21",
        "steepness": "traverse",
        "height": null,
        "name": "Woman Power",
        "bleauInfoId": "21588",
        "circuitColor": "white",
        "circuitId": 102,
        "tags": [

        ]
      },
      "id": "problem_7075"
    },
    {
      "type": "Feature",
      "geometry": {
        "type": "Point",
        "coordinates": [
          2.48152915355,
          48.50182490898
        ]
      },
      "properties": {
        "grade": "2c",
        "circuitNumber": "19",
        "steepness": "other",
        "height": null,
        "name": "La Péinière",
        "bleauInfoId": "230391",
        "circuitColor": "orange",
        "circuitId": 98,
        "tags": [

        ]
      },
      "id": "problem_6923"
    },
    {
      "type": "Feature",
      "geometry": {
        "type": "Point",
        "coordinates": [
          2.47597094592,
          48.50228898381
        ]
      },
      "properties": {
        "grade": "3c",
        "circuitNumber": "30",
        "steepness": "traverse",
        "height": null,
        "name": "La Traversée des Cieux",
        "bleauInfoId": "6654",
        "circuitColor": "blue",
        "circuitId": 99,
        "tags": [

        ]
      },
      "id": "problem_7195"
    },
    {
      "type": "Feature",
      "geometry": {
        "type": "Point",
        "coordinates": [
          2.47923385318,
          48.50266686066
        ]
      },
      "properties": {
        "grade": "6c+",
        "circuitNumber": "",
        "steepness": "traverse",
        "height": null,
        "name": "Le Crawl en Mer Noire (retour-aller)",
        "bleauInfoId": "23481",
        "circuitColor": null,
        "circuitId": null,
        "tags": [

        ]
      },
      "id": "problem_7013"
    },
    {
      "type": "Feature",
      "geometry": {
        "type": "Point",
        "coordinates": [
          2.48000398211,
          48.50259444026
        ]
      },
      "properties": {
        "grade": "2b",
        "circuitNumber": "57",
        "steepness": "slab",
        "height": null,
        "name": "Le Crapaud",
        "bleauInfoId": "18443",
        "circuitColor": "yellow",
        "circuitId": 97,
        "tags": [

        ]
      },
      "id": "problem_6863"
    },
    {
      "type": "Feature",
      "geometry": {
        "type": "Point",
        "coordinates": [
          2.47902229361,
          48.50179158629
        ]
      },
      "properties": {
        "grade": "2a",
        "circuitNumber": "46",
        "steepness": "other",
        "height": null,
        "name": "Les Aspérités",
        "bleauInfoId": "158596",
        "circuitColor": "yellow",
        "circuitId": 97,
        "tags": [

        ]
      },
      "id": "problem_6984"
    },
    {
      "type": "Feature",
      "geometry": {
        "type": "Point",
        "coordinates": [
          2.47696520727,
          48.50227809843
        ]
      },
      "properties": {
        "grade": "3a",
        "circuitNumber": "",
        "steepness": "other",
        "height": null,
        "name": null,
        "bleauInfoId": "",
        "circuitColor": null,
        "circuitId": null,
        "tags": [

        ]
      },
      "id": "problem_7145"
    },
    {
      "type": "Feature",
      "geometry": {
        "type": "Point",
        "coordinates": [
          2.47732043199,
          48.50231630856
        ]
      },
      "properties": {
        "grade": "4a",
        "circuitNumber": "3",
        "steepness": "slab",
        "height": null,
        "name": "Le P'tit Coin",
        "bleauInfoId": "6623",
        "circuitColor": "blue",
        "circuitId": 99,
        "tags": [

        ]
      },
      "id": "problem_7114"
    },
    {
      "type": "Feature",
      "geometry": {
        "type": "Point",
        "coordinates": [
          2.47573189404,
          48.50223433472
        ]
      },
      "properties": {
        "grade": "4b",
        "circuitNumber": "",
        "steepness": "other",
        "height": null,
        "name": "Allez les Blues",
        "bleauInfoId": "",
        "circuitColor": null,
        "circuitId": null,
        "tags": [

        ]
      },
      "id": "problem_7208"
    },
    {
      "type": "Feature",
      "geometry": {
        "type": "Point",
        "coordinates": [
          2.47950140353,
          48.50184157043
        ]
      },
      "properties": {
        "grade": "2b",
        "circuitNumber": "",
        "steepness": "other",
        "height": null,
        "name": "Unesco",
        "bleauInfoId": "",
        "circuitColor": null,
        "circuitId": null,
        "tags": [

        ]
      },
      "id": "problem_6956"
    },
    {
      "type": "Feature",
      "geometry": {
        "type": "Point",
        "coordinates": [
          2.47788302533,
          48.50314403468
        ]
      },
      "properties": {
        "grade": "7a",
        "circuitNumber": "5",
        "steepness": "traverse",
        "height": null,
        "name": "L'Éloge de la Différence",
        "bleauInfoId": "85",
        "circuitColor": "white",
        "circuitId": 102,
        "tags": [
          "sit_start"
        ]
      },
      "id": "problem_7042"
    },
    {
      "type": "Feature",
      "geometry": {
        "type": "Point",
        "coordinates": [
          2.47664585676,
          48.50202840043
        ]
      },
      "properties": {
        "grade": "6b",
        "circuitNumber": "",
        "steepness": "other",
        "height": null,
        "name": "Le Brou de Noix",
        "bleauInfoId": "6734",
        "circuitColor": null,
        "circuitId": null,
        "tags": [

        ]
      },
      "id": "problem_7177"
    },
    {
      "type": "Feature",
      "geometry": {
        "type": "Point",
        "coordinates": [
          2.47955840047,
          48.50254667791
        ]
      },
      "properties": {
        "grade": "7b",
        "circuitNumber": "",
        "steepness": "traverse",
        "height": null,
        "name": "Compressorale en Flip Majeur",
        "bleauInfoId": "16880",
        "circuitColor": null,
        "circuitId": null,
        "tags": [
          "risky"
        ]
      },
      "id": "problem_7024"
    },
    {
      "type": "Feature",
      "geometry": {
        "type": "Point",
        "coordinates": [
          2.47587606277,
          48.50228876166
        ]
      },
      "properties": {
        "grade": "7b+",
        "circuitNumber": "",
        "steepness": "other",
        "height": null,
        "name": "Les Révoltés du Stonewall",
        "bleauInfoId": "1503",
        "circuitColor": null,
        "circuitId": null,
        "tags": [

        ]
      },
      "id": "problem_7078"
    },
    {
      "type": "Feature",
      "geometry": {
        "type": "Point",
        "coordinates": [
          2.48171254959,
          48.50181913301
        ]
      },
      "properties": {
        "grade": "2b",
        "circuitNumber": "22",
        "steepness": "other",
        "height": null,
        "name": "La Coxarthrose",
        "bleauInfoId": "282704",
        "circuitColor": "orange",
        "circuitId": 98,
        "tags": [

        ]
      },
      "id": "problem_6926"
    },
    {
      "type": "Feature",
      "geometry": {
        "type": "Point",
        "coordinates": [
          2.47570540722,
          48.50224721947
        ]
      },
      "properties": {
        "grade": "4b",
        "circuitNumber": "33",
        "steepness": "wall",
        "height": null,
        "name": "Du Rouge pour les Bleus",
        "bleauInfoId": "6657",
        "circuitColor": "blue",
        "circuitId": 99,
        "tags": [

        ]
      },
      "id": "problem_7198"
    },
    {
      "type": "Feature",
      "geometry": {
        "type": "Point",
        "coordinates": [
          2.47960969739,
          48.50246559349
        ]
      },
      "properties": {
        "grade": "3a",
        "circuitNumber": "54",
        "steepness": "other",
        "height": null,
        "name": "L'Ordonnance",
        "bleauInfoId": "191797",
        "circuitColor": "orange",
        "circuitId": 98,
        "tags": [

        ]
      },
      "id": "problem_7016"
    },
    {
      "type": "Feature",
      "geometry": {
        "type": "Point",
        "coordinates": [
          2.47961204465,
          48.50278171156
        ]
      },
      "properties": {
        "grade": "1c",
        "circuitNumber": "60",
        "steepness": "traverse",
        "height": null,
        "name": "La Der",
        "bleauInfoId": "292153",
        "circuitColor": "yellow",
        "circuitId": 97,
        "tags": [

        ]
      },
      "id": "problem_6866"
    },
    {
      "type": "Feature",
      "geometry": {
        "type": "Point",
        "coordinates": [
          2.47935891084,
          48.50197375128
        ]
      },
      "properties": {
        "grade": "2b",
        "circuitNumber": "49",
        "steepness": "other",
        "height": null,
        "name": "Le Tiret",
        "bleauInfoId": "152101",
        "circuitColor": "yellow",
        "circuitId": 97,
        "tags": [

        ]
      },
      "id": "problem_6987"
    },
    {
      "type": "Feature",
      "geometry": {
        "type": "Point",
        "coordinates": [
          2.47672565214,
          48.5024238293
        ]
      },
      "properties": {
        "grade": "4c",
        "circuitNumber": "39",
        "steepness": "traverse",
        "height": null,
        "name": "Le Complexifié",
        "bleauInfoId": "6663",
        "circuitColor": "blue",
        "circuitId": 99,
        "tags": [

        ]
      },
      "id": "problem_7148"
    },
    {
      "type": "Feature",
      "geometry": {
        "type": "Point",
        "coordinates": [
          2.47702371296,
          48.50190954908
        ]
      },
      "properties": {
        "grade": "6b",
        "circuitNumber": "11",
        "steepness": "wall",
        "height": null,
        "name": "L'Onyx",
        "bleauInfoId": "6735",
        "circuitColor": "white",
        "circuitId": 102,
        "tags": [

        ]
      },
      "id": "problem_7059"
    },
    {
      "type": "Feature",
      "geometry": {
        "type": "Point",
        "coordinates": [
          2.47679036077,
          48.50206927634
        ]
      },
      "properties": {
        "grade": "7a+",
        "circuitNumber": "",
        "steepness": "wall",
        "height": null,
        "name": "L'Anthracite (assis)",
        "bleauInfoId": "8991",
        "circuitColor": null,
        "circuitId": null,
        "tags": [
          "sit_start"
        ]
      },
      "id": "problem_7063"
    },
    {
      "type": "Feature",
      "geometry": {
        "type": "Point",
        "coordinates": [
          2.48173568364,
          48.50187378254
        ]
      },
      "properties": {
        "grade": "2a",
        "circuitNumber": "18",
        "steepness": "other",
        "height": null,
        "name": "La Molaire Jaune",
        "bleauInfoId": "194255",
        "circuitColor": "yellow",
        "circuitId": 97,
        "tags": [

        ]
      },
      "id": "problem_6911"
    },
    {
      "type": "Feature",
      "geometry": {
        "type": "Point",
        "coordinates": [
          2.47660159998,
          48.50164763105
        ]
      },
      "properties": {
        "grade": "3b",
        "circuitNumber": "21",
        "steepness": "traverse",
        "height": null,
        "name": "L'Évidence",
        "bleauInfoId": "6645",
        "circuitColor": "blue",
        "circuitId": 99,
        "tags": [

        ]
      },
      "id": "problem_7180"
    },
    {
      "type": "Feature",
      "geometry": {
        "type": "Point",
        "coordinates": [
          2.48006332632,
          48.50204061878
        ]
      },
      "properties": {
        "grade": "4a",
        "circuitNumber": "",
        "steepness": "other",
        "height": null,
        "name": "Lucy",
        "bleauInfoId": "",
        "circuitColor": null,
        "circuitId": null,
        "tags": [

        ]
      },
      "id": "problem_6879"
    },
    {
      "type": "Feature",
      "geometry": {
        "type": "Point",
        "coordinates": [
          2.47568227334,
          48.50258399891
        ]
      },
      "properties": {
        "grade": "6b+",
        "circuitNumber": "",
        "steepness": "overhang",
        "height": null,
        "name": "L'Épée de Sable",
        "bleauInfoId": "300222",
        "circuitColor": null,
        "circuitId": null,
        "tags": [

        ]
      },
      "id": "problem_7081"
    },
    {
      "type": "Feature",
      "geometry": {
        "type": "Point",
        "coordinates": [
          2.48125623878,
          48.50169228365
        ]
      },
      "properties": {
        "grade": "3b",
        "circuitNumber": "25",
        "steepness": "wall",
        "height": null,
        "name": "L'Anti Bruit",
        "bleauInfoId": "18471",
        "circuitColor": "orange",
        "circuitId": 98,
        "tags": [

        ]
      },
      "id": "problem_6929"
    },
    {
      "type": "Feature",
      "geometry": {
        "type": "Point",
        "coordinates": [
          2.47630655732,
          48.50236629218
        ]
      },
      "properties": {
        "grade": "5a",
        "circuitNumber": "36",
        "steepness": "slab",
        "height": null,
        "name": "La Bidouille",
        "bleauInfoId": "6660",
        "circuitColor": "blue",
        "circuitId": 99,
        "tags": [

        ]
      },
      "id": "problem_7201"
    },
    {
      "type": "Feature",
      "geometry": {
        "type": "Point",
        "coordinates": [
          2.47911415927,
          48.5018764486
        ]
      },
      "properties": {
        "grade": "2c",
        "circuitNumber": "44",
        "steepness": "slab",
        "height": null,
        "name": "Le Coin",
        "bleauInfoId": "18492",
        "circuitColor": "orange",
        "circuitId": 98,
        "tags": [

        ]
      },
      "id": "problem_6990"
    },
    {
      "type": "Feature",
      "geometry": {
        "type": "Point",
        "coordinates": [
          2.47935790535,
          48.50172294079
        ]
      },
      "properties": {
        "grade": "3a",
        "circuitNumber": "35",
        "steepness": "wall",
        "height": null,
        "name": "Le Boniment",
        "bleauInfoId": "18482",
        "circuitColor": "orange",
        "circuitId": 98,
        "tags": [

        ]
      },
      "id": "problem_6958"
    },
    {
      "type": "Feature",
      "geometry": {
        "type": "Point",
        "coordinates": [
          2.47682254728,
          48.50232086242
        ]
      },
      "properties": {
        "grade": "6b",
        "circuitNumber": "",
        "steepness": "other",
        "height": null,
        "name": null,
        "bleauInfoId": "",
        "circuitColor": null,
        "circuitId": null,
        "tags": [

        ]
      },
      "id": "problem_7151"
    },
    {
      "type": "Feature",
      "geometry": {
        "type": "Point",
        "coordinates": [
          2.47620463304,
          48.50205061583
        ]
      },
      "properties": {
        "grade": "7a",
        "circuitNumber": "16",
        "steepness": "traverse",
        "height": null,
        "name": "La Magie Noire du Derviche",
        "bleauInfoId": "87",
        "circuitColor": "white",
        "circuitId": 102,
        "tags": [

        ]
      },
      "id": "problem_7066"
    },
    {
      "type": "Feature",
      "geometry": {
        "type": "Point",
        "coordinates": [
          2.48157240417,
          48.5017233851
        ]
      },
      "properties": {
        "grade": "2a",
        "circuitNumber": "21",
        "steepness": "traverse",
        "height": null,
        "name": "Le Pique-Nique",
        "bleauInfoId": "39542",
        "circuitColor": "yellow",
        "circuitId": 97,
        "tags": [

        ]
      },
      "id": "problem_6914"
    },
    {
      "type": "Feature",
      "geometry": {
        "type": "Point",
        "coordinates": [
          2.47660092942,
          48.50162630431
        ]
      },
      "properties": {
        "grade": "6a",
        "circuitNumber": "26",
        "steepness": "traverse",
        "height": null,
        "name": "D.o.s. 6",
        "bleauInfoId": "6707",
        "circuitColor": "red",
        "circuitId": 100,
        "tags": [

        ]
      },
      "id": "problem_7183"
    },
    {
      "type": "Feature",
      "geometry": {
        "type": "Point",
        "coordinates": [
          2.47606180575,
          48.50221234178
        ]
      },
      "properties": {
        "grade": "5c",
        "circuitNumber": "15",
        "steepness": "other",
        "height": null,
        "name": "En Bref",
        "bleauInfoId": "6695",
        "circuitColor": "red",
        "circuitId": 100,
        "tags": [

        ]
      },
      "id": "problem_7217"
    },
    {
      "type": "Feature",
      "geometry": {
        "type": "Point",
        "coordinates": [
          2.47683964636,
          48.5023469651
        ]
      },
      "properties": {
        "grade": "6b",
        "circuitNumber": "26",
        "steepness": "wall",
        "height": null,
        "name": "Le Frigo",
        "bleauInfoId": "7130",
        "circuitColor": "white",
        "circuitId": 102,
        "tags": [

        ]
      },
      "id": "problem_7084"
    },
    {
      "type": "Feature",
      "geometry": {
        "type": "Point",
        "coordinates": [
          2.48018838398,
          48.50155432651
        ]
      },
      "properties": {
        "grade": "3b",
        "circuitNumber": "28",
        "steepness": "slab",
        "height": null,
        "name": "Le Capucin",
        "bleauInfoId": "18474",
        "circuitColor": "orange",
        "circuitId": 98,
        "tags": [

        ]
      },
      "id": "problem_6932"
    },
    {
      "type": "Feature",
      "geometry": {
        "type": "Point",
        "coordinates": [
          2.48029433157,
          48.50186445214
        ]
      },
      "properties": {
        "grade": "3a",
        "circuitNumber": "13",
        "steepness": "slab",
        "height": null,
        "name": "La Lointaine",
        "bleauInfoId": "18419",
        "circuitColor": "yellow",
        "circuitId": 97,
        "tags": [

        ]
      },
      "id": "problem_6904"
    },
    {
      "type": "Feature",
      "geometry": {
        "type": "Point",
        "coordinates": [
          2.47682120617,
          48.50232897091
        ]
      },
      "properties": {
        "grade": "4a",
        "circuitNumber": "11",
        "steepness": "wall",
        "height": null,
        "name": "L'Appuie-Tête",
        "bleauInfoId": "6633",
        "circuitColor": "blue",
        "circuitId": 99,
        "tags": [

        ]
      },
      "id": "problem_7141"
    },
    {
      "type": "Feature",
      "geometry": {
        "type": "Point",
        "coordinates": [
          2.47922614183,
          48.50196397637
        ]
      },
      "properties": {
        "grade": "6c",
        "circuitNumber": "22",
        "steepness": "traverse",
        "height": null,
        "name": "Le Cambouis du Diéséliste",
        "bleauInfoId": "6738",
        "circuitColor": "black",
        "circuitId": 101,
        "tags": [

        ]
      },
      "id": "problem_6993"
    },
    {
      "type": "Feature",
      "geometry": {
        "type": "Point",
        "coordinates": [
          2.47923251208,
          48.50164452068
        ]
      },
      "properties": {
        "grade": "2a",
        "circuitNumber": "37",
        "steepness": "wall",
        "height": null,
        "name": "Le Bouquet",
        "bleauInfoId": "60109",
        "circuitColor": "yellow",
        "circuitId": 97,
        "tags": [

        ]
      },
      "id": "problem_6961"
    },
    {
      "type": "Feature",
      "geometry": {
        "type": "Point",
        "coordinates": [
          2.4773053449,
          48.50304029175
        ]
      },
      "properties": {
        "grade": "7c+",
        "circuitNumber": "",
        "steepness": "other",
        "height": null,
        "name": "L'Étrave à Sucre (assis direct)",
        "bleauInfoId": "21444",
        "circuitColor": null,
        "circuitId": null,
        "tags": [
          "sit_start"
        ]
      },
      "id": "problem_7047"
    },
    {
      "type": "Feature",
      "geometry": {
        "type": "Point",
        "coordinates": [
          2.48026382145,
          48.50199885423
        ]
      },
      "properties": {
        "grade": "6a+",
        "circuitNumber": "12",
        "steepness": "traverse",
        "height": null,
        "name": "Le Dahlia Noir (droite-gauche)",
        "bleauInfoId": "22645",
        "circuitColor": "black",
        "circuitId": 101,
        "tags": [

        ]
      },
      "id": "problem_6881"
    },
    {
      "type": "Feature",
      "geometry": {
        "type": "Point",
        "coordinates": [
          2.47672732886,
          48.50215969197
        ]
      },
      "properties": {
        "grade": "5b",
        "circuitNumber": "12",
        "steepness": "slab",
        "height": null,
        "name": "Caresses Amères",
        "bleauInfoId": "6692",
        "circuitColor": "red",
        "circuitId": 100,
        "tags": [

        ]
      },
      "id": "problem_7154"
    },
    {
      "type": "Feature",
      "geometry": {
        "type": "Point",
        "coordinates": [
          2.48110536452,
          48.50190510603
        ]
      },
      "properties": {
        "grade": "5a",
        "circuitNumber": "",
        "steepness": "other",
        "height": null,
        "name": "L'Orient Express",
        "bleauInfoId": "307155",
        "circuitColor": null,
        "circuitId": null,
        "tags": [

        ]
      },
      "id": "problem_6890"
    },
    {
      "type": "Feature",
      "geometry": {
        "type": "Point",
        "coordinates": [
          2.48064469513,
          48.50229053887
        ]
      },
      "properties": {
        "grade": "2b",
        "circuitNumber": "7",
        "steepness": "traverse",
        "height": null,
        "name": "Le Toboggan",
        "bleauInfoId": "58304",
        "circuitColor": "yellow",
        "circuitId": 97,
        "tags": [

        ]
      },
      "id": "problem_6894"
    },
    {
      "type": "Feature",
      "geometry": {
        "type": "Point",
        "coordinates": [
          2.4804016196,
          48.5020879373
        ]
      },
      "properties": {
        "grade": "3b",
        "circuitNumber": "11",
        "steepness": "traverse",
        "height": null,
        "name": "La Diagonale des Pleurs",
        "bleauInfoId": "18461",
        "circuitColor": "orange",
        "circuitId": 98,
        "tags": [

        ]
      },
      "id": "problem_6871"
    },
    {
      "type": "Feature",
      "geometry": {
        "type": "Point",
        "coordinates": [
          2.47912857648,
          48.50188044712
        ]
      },
      "properties": {
        "grade": "4c+",
        "circuitNumber": "",
        "steepness": "other",
        "height": null,
        "name": "Super",
        "bleauInfoId": "",
        "circuitColor": null,
        "circuitId": null,
        "tags": [

        ]
      },
      "id": "problem_6996"
    },
    {
      "type": "Feature",
      "geometry": {
        "type": "Point",
        "coordinates": [
          2.47909270193,
          48.50165051882
        ]
      },
      "properties": {
        "grade": "6b+",
        "circuitNumber": "",
        "steepness": "traverse",
        "height": null,
        "name": "Le Dragon (prolongé)",
        "bleauInfoId": "308319",
        "circuitColor": null,
        "circuitId": null,
        "tags": [

        ]
      },
      "id": "problem_6964"
    },
    {
      "type": "Feature",
      "geometry": {
        "type": "Point",
        "coordinates": [
          2.47820623152,
          48.50295432087
        ]
      },
      "properties": {
        "grade": "6c",
        "circuitNumber": "6",
        "steepness": "traverse",
        "height": null,
        "name": "Jambes en l'Air",
        "bleauInfoId": "21586",
        "circuitColor": "white",
        "circuitId": 102,
        "tags": [

        ]
      },
      "id": "problem_7050"
    },
    {
      "type": "Feature",
      "geometry": {
        "type": "Point",
        "coordinates": [
          2.4767263232,
          48.50207116452
        ]
      },
      "properties": {
        "grade": "6c",
        "circuitNumber": "",
        "steepness": "traverse",
        "height": null,
        "name": "Vers le Nouvel Art Pariétal",
        "bleauInfoId": "300011",
        "circuitColor": null,
        "circuitId": null,
        "tags": [
          "sit_start"
        ]
      },
      "id": "problem_7157"
    },
    {
      "type": "Feature",
      "geometry": {
        "type": "Point",
        "coordinates": [
          2.47903235223,
          48.50138548906
        ]
      },
      "properties": {
        "grade": "2b",
        "circuitNumber": "40",
        "steepness": "wall",
        "height": null,
        "name": "Le Bout du Monde",
        "bleauInfoId": "18429",
        "circuitColor": "yellow",
        "circuitId": 97,
        "tags": [

        ]
      },
      "id": "problem_6973"
    },
    {
      "type": "Feature",
      "geometry": {
        "type": "Point",
        "coordinates": [
          2.48113855686,
          48.50201085043
        ]
      },
      "properties": {
        "grade": "6b+",
        "circuitNumber": "5",
        "steepness": "traverse",
        "height": null,
        "name": "La Ganache",
        "bleauInfoId": "11376",
        "circuitColor": "black",
        "circuitId": 101,
        "tags": [

        ]
      },
      "id": "problem_6893"
    },
    {
      "type": "Feature",
      "geometry": {
        "type": "Point",
        "coordinates": [
          2.47786760263,
          48.50254690028
        ]
      },
      "properties": {
        "grade": "4b",
        "circuitNumber": "43",
        "steepness": "other",
        "height": null,
        "name": "Le Sacre des Lemmings",
        "bleauInfoId": "6669",
        "circuitColor": "blue",
        "circuitId": 99,
        "tags": [

        ]
      },
      "id": "problem_7101"
    },
    {
      "type": "Feature",
      "geometry": {
        "type": "Point",
        "coordinates": [
          2.47958689861,
          48.50208616008
        ]
      },
      "properties": {
        "grade": "2c",
        "circuitNumber": "51",
        "steepness": "traverse",
        "height": null,
        "name": "La Patinette",
        "bleauInfoId": "18439",
        "circuitColor": "yellow",
        "circuitId": 97,
        "tags": [

        ]
      },
      "id": "problem_7219"
    },
    {
      "type": "Feature",
      "geometry": {
        "type": "Point",
        "coordinates": [
          2.47683294084,
          48.50227876488
        ]
      },
      "properties": {
        "grade": "7b",
        "circuitNumber": "",
        "steepness": "wall",
        "height": null,
        "name": "La Mouche (direct)",
        "bleauInfoId": "94",
        "circuitColor": null,
        "circuitId": null,
        "tags": [

        ]
      },
      "id": "problem_7086"
    },
    {
      "type": "Feature",
      "geometry": {
        "type": "Point",
        "coordinates": [
          2.48009517755,
          48.50204172953
        ]
      },
      "properties": {
        "grade": "7a",
        "circuitNumber": "",
        "steepness": "traverse",
        "height": null,
        "name": "L'Œuvre au Noir",
        "bleauInfoId": "89",
        "circuitColor": null,
        "circuitId": null,
        "tags": [

        ]
      },
      "id": "problem_6874"
    },
    {
      "type": "Feature",
      "geometry": {
        "type": "Point",
        "coordinates": [
          2.47709143873,
          48.50220256714
        ]
      },
      "properties": {
        "grade": "3b",
        "circuitNumber": "8",
        "steepness": "traverse",
        "height": null,
        "name": "Le Choix Cornélien",
        "bleauInfoId": "6673",
        "circuitColor": "blue",
        "circuitId": 99,
        "tags": [

        ]
      },
      "id": "problem_7124"
    },
    {
      "type": "Feature",
      "geometry": {
        "type": "Point",
        "coordinates": [
          2.47899547152,
          48.50156321266
        ]
      },
      "properties": {
        "grade": "2b",
        "circuitNumber": "39",
        "steepness": "wall",
        "height": null,
        "name": "Le Ceintre",
        "bleauInfoId": "18487",
        "circuitColor": "orange",
        "circuitId": 98,
        "tags": [

        ]
      },
      "id": "problem_6967"
    },
    {
      "type": "Feature",
      "geometry": {
        "type": "Point",
        "coordinates": [
          2.47673504038,
          48.50206994269
        ]
      },
      "properties": {
        "grade": "6c",
        "circuitNumber": "",
        "steepness": "roof",
        "height": null,
        "name": "Le Petit Toit aux Écritures",
        "bleauInfoId": "16255",
        "circuitColor": null,
        "circuitId": null,
        "tags": [

        ]
      },
      "id": "problem_7160"
    },
    {
      "type": "Feature",
      "geometry": {
        "type": "Point",
        "coordinates": [
          2.47698012706,
          48.50228676231
        ]
      },
      "properties": {
        "grade": "7a+",
        "circuitNumber": "",
        "steepness": "traverse",
        "height": null,
        "name": "Le Nègre en Chemise",
        "bleauInfoId": "90",
        "circuitColor": null,
        "circuitId": null,
        "tags": [
          "sit_start"
        ]
      },
      "id": "problem_7089"
    },
    {
      "type": "Feature",
      "geometry": {
        "type": "Point",
        "coordinates": [
          2.48003080454,
          48.50204039662
        ]
      },
      "properties": {
        "grade": "6c",
        "circuitNumber": "14",
        "steepness": "wall",
        "height": null,
        "name": "Le Fossoyeur",
        "bleauInfoId": "11374",
        "circuitColor": "black",
        "circuitId": 101,
        "tags": [

        ]
      },
      "id": "problem_6877"
    },
    {
      "type": "Feature",
      "geometry": {
        "type": "Point",
        "coordinates": [
          2.47915741023,
          48.50188822245
        ]
      },
      "properties": {
        "grade": "3b+",
        "circuitNumber": "",
        "steepness": "other",
        "height": null,
        "name": "Essence",
        "bleauInfoId": "",
        "circuitColor": null,
        "circuitId": null,
        "tags": [

        ]
      },
      "id": "problem_6998"
    },
    {
      "type": "Feature",
      "geometry": {
        "type": "Point",
        "coordinates": [
          2.48020045392,
          48.50151345018
        ]
      },
      "properties": {
        "grade": "3a",
        "circuitNumber": "27",
        "steepness": "slab",
        "height": null,
        "name": "La Balade à la Lune",
        "bleauInfoId": "18418",
        "circuitColor": "yellow",
        "circuitId": 97,
        "tags": [

        ]
      },
      "id": "problem_6937"
    },
    {
      "type": "Feature",
      "geometry": {
        "type": "Point",
        "coordinates": [
          2.47697342154,
          48.50213370027
        ]
      },
      "properties": {
        "grade": "6a",
        "circuitNumber": "31",
        "steepness": "overhang",
        "height": null,
        "name": "Néanderthal Roc",
        "bleauInfoId": "6712",
        "circuitColor": "red",
        "circuitId": 100,
        "tags": [
          "sit_start"
        ]
      },
      "id": "problem_7127"
    },
    {
      "type": "Feature",
      "geometry": {
        "type": "Point",
        "coordinates": [
          2.47700326111,
          48.50189533133
        ]
      },
      "properties": {
        "grade": "5c+",
        "circuitNumber": "28",
        "steepness": "wall",
        "height": null,
        "name": "Le Biodégradable",
        "bleauInfoId": "6709",
        "circuitColor": "red",
        "circuitId": 100,
        "tags": [

        ]
      },
      "id": "problem_7168"
    },
    {
      "type": "Feature",
      "geometry": {
        "type": "Point",
        "coordinates": [
          2.47736871209,
          48.50239961472
        ]
      },
      "properties": {
        "grade": "4a",
        "circuitNumber": "",
        "steepness": "other",
        "height": null,
        "name": null,
        "bleauInfoId": "",
        "circuitColor": null,
        "circuitId": null,
        "tags": [

        ]
      },
      "id": "problem_7117"
    },
    {
      "type": "Feature",
      "geometry": {
        "type": "Point",
        "coordinates": [
          2.47942831334,
          48.50211970473
        ]
      },
      "properties": {
        "grade": "5b",
        "circuitNumber": "",
        "steepness": "other",
        "height": null,
        "name": "Jouer aux Échecs",
        "bleauInfoId": "",
        "circuitColor": null,
        "circuitId": null,
        "tags": [

        ]
      },
      "id": "problem_7093"
    },
    {
      "type": "Feature",
      "geometry": {
        "type": "Point",
        "coordinates": [
          2.47812241249,
          48.50260243763
        ]
      },
      "properties": {
        "grade": "4c",
        "circuitNumber": "47",
        "steepness": "traverse",
        "height": null,
        "name": "Pas d'Affolement pour Miss Vibram",
        "bleauInfoId": "6674",
        "circuitColor": "blue",
        "circuitId": 99,
        "tags": [

        ]
      },
      "id": "problem_7102"
    },
    {
      "type": "Feature",
      "geometry": {
        "type": "Point",
        "coordinates": [
          2.47879229419,
          48.50216968899
        ]
      },
      "properties": {
        "grade": "3a",
        "circuitNumber": "47",
        "steepness": "wall",
        "height": null,
        "name": "La Plume",
        "bleauInfoId": "18495",
        "circuitColor": "orange",
        "circuitId": 98,
        "tags": [

        ]
      },
      "id": "problem_7001"
    },
    {
      "type": "Feature",
      "geometry": {
        "type": "Point",
        "coordinates": [
          2.47890226476,
          48.50158453942
        ]
      },
      "properties": {
        "grade": "3a",
        "circuitNumber": "41",
        "steepness": "traverse",
        "height": null,
        "name": "Les Amours Futurs",
        "bleauInfoId": "18489",
        "circuitColor": "orange",
        "circuitId": 98,
        "tags": [

        ]
      },
      "id": "problem_6969"
    },
    {
      "type": "Feature",
      "geometry": {
        "type": "Point",
        "coordinates": [
          2.48001337018,
          48.50163141362
        ]
      },
      "properties": {
        "grade": "4b",
        "circuitNumber": "",
        "steepness": "other",
        "height": null,
        "name": "Le Nez",
        "bleauInfoId": "",
        "circuitColor": null,
        "circuitId": null,
        "tags": [

        ]
      },
      "id": "problem_6940"
    },
    {
      "type": "Feature",
      "geometry": {
        "type": "Point",
        "coordinates": [
          2.4794990566,
          48.50263042821
        ]
      },
      "properties": {
        "grade": "6c",
        "circuitNumber": "28",
        "steepness": "traverse",
        "height": null,
        "name": "Danse Macabre (raccourci)",
        "bleauInfoId": "22646",
        "circuitColor": "black",
        "circuitId": 101,
        "tags": [
          "risky"
        ]
      },
      "id": "problem_7027"
    },
    {
      "type": "Feature",
      "geometry": {
        "type": "Point",
        "coordinates": [
          2.47676018609,
          48.50206361136
        ]
      },
      "properties": {
        "grade": "5a",
        "circuitNumber": "",
        "steepness": "other",
        "height": null,
        "name": "Yang",
        "bleauInfoId": "",
        "circuitColor": null,
        "circuitId": null,
        "tags": [

        ]
      },
      "id": "problem_7162"
    },
    {
      "type": "Feature",
      "geometry": {
        "type": "Point",
        "coordinates": [
          2.47712144595,
          48.50232297285
        ]
      },
      "properties": {
        "grade": "5b",
        "circuitNumber": "",
        "steepness": "wall",
        "height": null,
        "name": "Blatte Runner (gauche)",
        "bleauInfoId": "305821",
        "circuitColor": null,
        "circuitId": null,
        "tags": [

        ]
      },
      "id": "problem_7130"
    },
    {
      "type": "Feature",
      "geometry": {
        "type": "Point",
        "coordinates": [
          2.47706092861,
          48.50225854916
        ]
      },
      "properties": {
        "grade": "4c",
        "circuitNumber": "9",
        "steepness": "other",
        "height": null,
        "name": "La Fissure Close",
        "bleauInfoId": "6629",
        "circuitColor": "blue",
        "circuitId": 99,
        "tags": [

        ]
      },
      "id": "problem_7139"
    },
    {
      "type": "Feature",
      "geometry": {
        "type": "Point",
        "coordinates": [
          2.47947826948,
          48.50225721626
        ]
      },
      "properties": {
        "grade": "6b",
        "circuitNumber": "24",
        "steepness": "wall",
        "height": null,
        "name": "Le Cappuccino",
        "bleauInfoId": "6743",
        "circuitColor": "black",
        "circuitId": 101,
        "tags": [
          "risky"
        ]
      },
      "id": "problem_7096"
    },
    {
      "type": "Feature",
      "geometry": {
        "type": "Point",
        "coordinates": [
          2.47883789174,
          48.50266819378
        ]
      },
      "properties": {
        "grade": "4a",
        "circuitNumber": "",
        "steepness": "other",
        "height": null,
        "name": "La Dalle à Manu",
        "bleauInfoId": "",
        "circuitColor": null,
        "circuitId": null,
        "tags": [

        ]
      },
      "id": "problem_7004"
    },
    {
      "type": "Feature",
      "geometry": {
        "type": "Point",
        "coordinates": [
          2.47904207524,
          48.50151878165
        ]
      },
      "properties": {
        "grade": "2b",
        "circuitNumber": "39",
        "steepness": "wall",
        "height": null,
        "name": "Les Petites Écailles",
        "bleauInfoId": "18428",
        "circuitColor": "yellow",
        "circuitId": 97,
        "tags": [

        ]
      },
      "id": "problem_6972"
    },
    {
      "type": "Feature",
      "geometry": {
        "type": "Point",
        "coordinates": [
          2.4797659364,
          48.50175626375
        ]
      },
      "properties": {
        "grade": "2c+",
        "circuitNumber": "30",
        "steepness": "wall",
        "height": null,
        "name": "La Balaise",
        "bleauInfoId": "18423",
        "circuitColor": "yellow",
        "circuitId": 97,
        "tags": [

        ]
      },
      "id": "problem_6943"
    },
    {
      "type": "Feature",
      "geometry": {
        "type": "Point",
        "coordinates": [
          2.47966233607,
          48.50234940875
        ]
      },
      "properties": {
        "grade": "5c+",
        "circuitNumber": "37",
        "steepness": "slab",
        "height": null,
        "name": "Sans l'Arrêt",
        "bleauInfoId": "6719",
        "circuitColor": "red",
        "circuitId": 100,
        "tags": [

        ]
      },
      "id": "problem_7030"
    },
    {
      "type": "Feature",
      "geometry": {
        "type": "Point",
        "coordinates": [
          2.47595887598,
          48.502323195
        ]
      },
      "properties": {
        "grade": "6a",
        "circuitNumber": "18",
        "steepness": "overhang",
        "height": null,
        "name": "L'Étambot",
        "bleauInfoId": "6697",
        "circuitColor": "red",
        "circuitId": 100,
        "tags": [

        ]
      },
      "id": "problem_7213"
    },
    {
      "type": "Feature",
      "geometry": {
        "type": "Point",
        "coordinates": [
          2.48057663374,
          48.50226921262
        ]
      },
      "properties": {
        "grade": "6b",
        "circuitNumber": "4",
        "steepness": "overhang",
        "height": null,
        "name": "La Veuve du Fossoyeur",
        "bleauInfoId": "6740",
        "circuitColor": "black",
        "circuitId": 101,
        "tags": [
          "sit_start"
        ]
      },
      "id": "problem_6853"
    },
    {
      "type": "Feature",
      "geometry": {
        "type": "Point",
        "coordinates": [
          2.48042777114,
          48.50274816735
        ]
      },
      "properties": {
        "grade": "3b",
        "circuitNumber": "2",
        "steepness": "traverse",
        "height": null,
        "name": "Diva",
        "bleauInfoId": "18452",
        "circuitColor": "orange",
        "circuitId": 98,
        "tags": [

        ]
      },
      "id": "problem_6845"
    },
    {
      "type": "Feature",
      "geometry": {
        "type": "Point",
        "coordinates": [
          2.48099707,
          48.50156187974
        ]
      },
      "properties": {
        "grade": "2b",
        "circuitNumber": "24",
        "steepness": "other",
        "height": null,
        "name": "Le Petit Pied",
        "bleauInfoId": "18415",
        "circuitColor": "yellow",
        "circuitId": 97,
        "tags": [

        ]
      },
      "id": "problem_6917"
    },
    {
      "type": "Feature",
      "geometry": {
        "type": "Point",
        "coordinates": [
          2.47804596987,
          48.50256467202
        ]
      },
      "properties": {
        "grade": "6a",
        "circuitNumber": "2",
        "steepness": "traverse",
        "height": null,
        "name": "Le Coq Six",
        "bleauInfoId": "6680",
        "circuitColor": "red",
        "circuitId": 100,
        "tags": [

        ]
      },
      "id": "problem_7104"
    },
    {
      "type": "Feature",
      "geometry": {
        "type": "Point",
        "coordinates": [
          2.47629381649,
          48.50207549681
        ]
      },
      "properties": {
        "grade": "5c",
        "circuitNumber": "",
        "steepness": "other",
        "height": null,
        "name": "Sans le Trou",
        "bleauInfoId": "",
        "circuitColor": null,
        "circuitId": null,
        "tags": [

        ]
      },
      "id": "problem_7189"
    },
    {
      "type": "Feature",
      "geometry": {
        "type": "Point",
        "coordinates": [
          2.47954130139,
          48.50181513426
        ]
      },
      "properties": {
        "grade": "2b+",
        "circuitNumber": "33",
        "steepness": "wall",
        "height": null,
        "name": "Le Collège",
        "bleauInfoId": "18427",
        "circuitColor": "yellow",
        "circuitId": 97,
        "tags": [

        ]
      },
      "id": "problem_6946"
    },
    {
      "type": "Feature",
      "geometry": {
        "type": "Point",
        "coordinates": [
          2.47949235108,
          48.50224277646
        ]
      },
      "properties": {
        "grade": "5c",
        "circuitNumber": "40",
        "steepness": "other",
        "height": null,
        "name": "Tu Ne Voleras Point",
        "bleauInfoId": "6723",
        "circuitColor": "red",
        "circuitId": 100,
        "tags": [
          "risky"
        ]
      },
      "id": "problem_7033"
    },
    {
      "type": "Feature",
      "geometry": {
        "type": "Point",
        "coordinates": [
          2.47753534433,
          48.50240361342
        ]
      },
      "properties": {
        "grade": "7b",
        "circuitNumber": "",
        "steepness": "traverse",
        "height": null,
        "name": "Je Broie du Noir",
        "bleauInfoId": "93",
        "circuitColor": null,
        "circuitId": null,
        "tags": [
          "sit_start"
        ]
      },
      "id": "problem_7055"
    },
    {
      "type": "Feature",
      "geometry": {
        "type": "Point",
        "coordinates": [
          2.48053472456,
          48.50172871677
        ]
      },
      "properties": {
        "grade": "4a",
        "circuitNumber": "14",
        "steepness": "wall",
        "height": null,
        "name": "La Fougue",
        "bleauInfoId": "18465",
        "circuitColor": "orange",
        "circuitId": 98,
        "tags": [

        ]
      },
      "id": "problem_6907"
    },
    {
      "type": "Feature",
      "geometry": {
        "type": "Point",
        "coordinates": [
          2.47597329285,
          48.50203817511
        ]
      },
      "properties": {
        "grade": "6c",
        "circuitNumber": "17",
        "steepness": "traverse",
        "height": null,
        "name": "Le Cliché N&B",
        "bleauInfoId": "6732",
        "circuitColor": "white",
        "circuitId": 102,
        "tags": [
          "sit_start"
        ]
      },
      "id": "problem_7068"
    },
    {
      "type": "Feature",
      "geometry": {
        "type": "Point",
        "coordinates": [
          2.4788258218,
          48.50219679143
        ]
      },
      "properties": {
        "grade": "5c",
        "circuitNumber": "",
        "steepness": "traverse",
        "height": null,
        "name": "La Traversée des Garçons",
        "bleauInfoId": "6716",
        "circuitColor": null,
        "circuitId": null,
        "tags": [

        ]
      },
      "id": "problem_7006"
    },
    {
      "type": "Feature",
      "geometry": {
        "type": "Point",
        "coordinates": [
          2.48032584753,
          48.5023827313
        ]
      },
      "properties": {
        "grade": "4a",
        "circuitNumber": "5",
        "steepness": "traverse",
        "height": null,
        "name": "La Spirale",
        "bleauInfoId": "18455",
        "circuitColor": "orange",
        "circuitId": 98,
        "tags": [

        ]
      },
      "id": "problem_6856"
    },
    {
      "type": "Feature",
      "geometry": {
        "type": "Point",
        "coordinates": [
          2.47904241052,
          48.5016462979
        ]
      },
      "properties": {
        "grade": "2b",
        "circuitNumber": "44",
        "steepness": "wall",
        "height": null,
        "name": "L'Emporte-Pied",
        "bleauInfoId": "18435",
        "circuitColor": "yellow",
        "circuitId": 97,
        "tags": [

        ]
      },
      "id": "problem_6977"
    },
    {
      "type": "Feature",
      "geometry": {
        "type": "Point",
        "coordinates": [
          2.47695632245,
          48.5023236393
        ]
      },
      "properties": {
        "grade": "6a",
        "circuitNumber": "",
        "steepness": "traverse",
        "height": null,
        "name": "La Rimaye (direct)",
        "bleauInfoId": "6689",
        "circuitColor": null,
        "circuitId": null,
        "tags": [

        ]
      },
      "id": "problem_7135"
    },
    {
      "type": "Feature",
      "geometry": {
        "type": "Point",
        "coordinates": [
          2.48071007363,
          48.50204883861
        ]
      },
      "properties": {
        "grade": "3b",
        "circuitNumber": "16",
        "steepness": "wall",
        "height": null,
        "name": "La Fêlure",
        "bleauInfoId": "18467",
        "circuitColor": "orange",
        "circuitId": 98,
        "tags": [

        ]
      },
      "id": "problem_6920"
    },
    {
      "type": "Feature",
      "geometry": {
        "type": "Point",
        "coordinates": [
          2.47735932402,
          48.5024113889
        ]
      },
      "properties": {
        "grade": "5a",
        "circuitNumber": "5",
        "steepness": "wall",
        "height": null,
        "name": "L'Amoch'doigt",
        "bleauInfoId": "6684",
        "circuitColor": "red",
        "circuitId": 100,
        "tags": [

        ]
      },
      "id": "problem_7107"
    },
    {
      "type": "Feature",
      "geometry": {
        "type": "Point",
        "coordinates": [
          2.47939310934,
          48.50168317537
        ]
      },
      "properties": {
        "grade": "2c+",
        "circuitNumber": "36",
        "steepness": "slab",
        "height": null,
        "name": "Le Bouclier",
        "bleauInfoId": "49142",
        "circuitColor": "yellow",
        "circuitId": 97,
        "tags": [

        ]
      },
      "id": "problem_6949"
    },
    {
      "type": "Feature",
      "geometry": {
        "type": "Point",
        "coordinates": [
          2.47934717651,
          48.50219656906
        ]
      },
      "properties": {
        "grade": "6a",
        "circuitNumber": "",
        "steepness": "traverse",
        "height": null,
        "name": "La Tripack",
        "bleauInfoId": "6722",
        "circuitColor": null,
        "circuitId": null,
        "tags": [

        ]
      },
      "id": "problem_7036"
    },
    {
      "type": "Feature",
      "geometry": {
        "type": "Point",
        "coordinates": [
          2.47698917951,
          48.50188400156
        ]
      },
      "properties": {
        "grade": "7a+",
        "circuitNumber": "",
        "steepness": "traverse",
        "height": null,
        "name": "Atomic Jam",
        "bleauInfoId": "14289",
        "circuitColor": null,
        "circuitId": null,
        "tags": [

        ]
      },
      "id": "problem_7170"
    },
    {
      "type": "Feature",
      "geometry": {
        "type": "Point",
        "coordinates": [
          2.48031847112,
          48.50279970581
        ]
      },
      "properties": {
        "grade": "2b",
        "circuitNumber": "3",
        "steepness": "slab",
        "height": null,
        "name": "Le Ripage",
        "bleauInfoId": "18448",
        "circuitColor": "yellow",
        "circuitId": 97,
        "tags": [

        ]
      },
      "id": "problem_6847"
    },
    {
      "type": "Feature",
      "geometry": {
        "type": "Point",
        "coordinates": [
          2.47719101574,
          48.5022276702
        ]
      },
      "properties": {
        "grade": "5a",
        "circuitNumber": "",
        "steepness": "other",
        "height": null,
        "name": "Margarine",
        "bleauInfoId": "",
        "circuitColor": null,
        "circuitId": null,
        "tags": [

        ]
      },
      "id": "problem_7120"
    },
    {
      "type": "Feature",
      "geometry": {
        "type": "Point",
        "coordinates": [
          2.47601620819,
          48.50217057738
        ]
      },
      "properties": {
        "grade": "6b",
        "circuitNumber": "18",
        "steepness": "traverse",
        "height": null,
        "name": "La Traversée du Bonsaï",
        "bleauInfoId": "6703",
        "circuitColor": "white",
        "circuitId": 102,
        "tags": [

        ]
      },
      "id": "problem_7071"
    },
    {
      "type": "Feature",
      "geometry": {
        "type": "Point",
        "coordinates": [
          2.47913695805,
          48.50266508369
        ]
      },
      "properties": {
        "grade": "3a",
        "circuitNumber": "",
        "steepness": "other",
        "height": null,
        "name": "La Brasse Papillon",
        "bleauInfoId": "18496",
        "circuitColor": null,
        "circuitId": null,
        "tags": [

        ]
      },
      "id": "problem_7009"
    },
    {
      "type": "Feature",
      "geometry": {
        "type": "Point",
        "coordinates": [
          2.48033590581,
          48.50241916393
        ]
      },
      "properties": {
        "grade": "2a",
        "circuitNumber": "5",
        "steepness": "slab",
        "height": null,
        "name": "L'Hypogastre",
        "bleauInfoId": "18405",
        "circuitColor": "yellow",
        "circuitId": 97,
        "tags": [

        ]
      },
      "id": "problem_6859"
    },
    {
      "type": "Feature",
      "geometry": {
        "type": "Point",
        "coordinates": [
          2.47888717767,
          48.50169161719
        ]
      },
      "properties": {
        "grade": "2b",
        "circuitNumber": "43",
        "steepness": "wall",
        "height": null,
        "name": "Le Crochet",
        "bleauInfoId": "18431",
        "circuitColor": "yellow",
        "circuitId": 97,
        "tags": [

        ]
      },
      "id": "problem_6976"
    },
    {
      "type": "Feature",
      "geometry": {
        "type": "Point",
        "coordinates": [
          2.47876379605,
          48.50153566536
        ]
      },
      "properties": {
        "grade": "6c",
        "circuitNumber": "18",
        "steepness": "traverse",
        "height": null,
        "name": "La Traversée du Guingois",
        "bleauInfoId": "8929",
        "circuitColor": "black",
        "circuitId": 101,
        "tags": [
          "risky"
        ]
      },
      "id": "problem_6980"
    },
    {
      "type": "Feature",
      "geometry": {
        "type": "Point",
        "coordinates": [
          2.47676555034,
          48.50229853629
        ]
      },
      "properties": {
        "grade": "6b",
        "circuitNumber": "",
        "steepness": "traverse",
        "height": null,
        "name": "Le Confit de Canard (prolongé)",
        "bleauInfoId": "24777",
        "circuitColor": null,
        "circuitId": null,
        "tags": [

        ]
      },
      "id": "problem_7138"
    },
    {
      "type": "Feature",
      "geometry": {
        "type": "Point",
        "coordinates": [
          2.47793935172,
          48.50222033944
        ]
      },
      "properties": {
        "grade": "4b",
        "circuitNumber": "49",
        "steepness": "wall",
        "height": null,
        "name": "Les Ex, c'est Sexe et Sexy",
        "bleauInfoId": "16047",
        "circuitColor": "blue",
        "circuitId": 99,
        "tags": [

        ]
      },
      "id": "problem_7110"
    },
    {
      "type": "Feature",
      "geometry": {
        "type": "Point",
        "coordinates": [
          2.47979041155,
          48.50174804409
        ]
      },
      "properties": {
        "grade": "7a",
        "circuitNumber": "",
        "steepness": "traverse",
        "height": null,
        "name": "Les Barrettes (prolongé)",
        "bleauInfoId": "22640",
        "circuitColor": null,
        "circuitId": null,
        "tags": [

        ]
      },
      "id": "problem_6952"
    },
    {
      "type": "Feature",
      "geometry": {
        "type": "Point",
        "coordinates": [
          2.47763223879,
          48.50315558632
        ]
      },
      "properties": {
        "grade": "6a+",
        "circuitNumber": "3",
        "steepness": "traverse",
        "height": null,
        "name": "La Mignonne",
        "bleauInfoId": "14304",
        "circuitColor": "white",
        "circuitId": 102,
        "tags": [
          "sit_start"
        ]
      },
      "id": "problem_7039"
    },
    {
      "type": "Feature",
      "geometry": {
        "type": "Point",
        "coordinates": [
          2.48064033654,
          48.50182690835
        ]
      },
      "properties": {
        "grade": "6c",
        "circuitNumber": "10",
        "steepness": "traverse",
        "height": null,
        "name": "La Ballade du Champion (raccourci)",
        "bleauInfoId": "22651",
        "circuitColor": "black",
        "circuitId": 101,
        "tags": [

        ]
      },
      "id": "problem_6886"
    },
    {
      "type": "Feature",
      "geometry": {
        "type": "Point",
        "coordinates": [
          2.47694928166,
          48.50193620735
        ]
      },
      "properties": {
        "grade": "5a",
        "circuitNumber": "16",
        "steepness": "other",
        "height": null,
        "name": "Les Gros Bras",
        "bleauInfoId": "6640",
        "circuitColor": "blue",
        "circuitId": 99,
        "tags": [

        ]
      },
      "id": "problem_7173"
    },
    {
      "type": "Feature",
      "geometry": {
        "type": "Point",
        "coordinates": [
          2.48060127703,
          48.50227609896
        ]
      },
      "properties": {
        "grade": "5a",
        "circuitNumber": "",
        "steepness": "overhang",
        "height": null,
        "name": "L'Araignée",
        "bleauInfoId": "23622",
        "circuitColor": null,
        "circuitId": null,
        "tags": [
          "sit_start"
        ]
      },
      "id": "problem_6899"
    },
    {
      "type": "Feature",
      "geometry": {
        "type": "Point",
        "coordinates": [
          2.47955739465,
          48.50253490399
        ]
      },
      "properties": {
        "grade": "6c",
        "circuitNumber": "27",
        "steepness": "wall",
        "height": null,
        "name": "La Mesure",
        "bleauInfoId": "22641",
        "circuitColor": "black",
        "circuitId": 101,
        "tags": [

        ]
      },
      "id": "problem_7020"
    },
    {
      "type": "Feature",
      "geometry": {
        "type": "Point",
        "coordinates": [
          2.48005628519,
          48.5024242736
        ]
      },
      "properties": {
        "grade": "5c",
        "circuitNumber": "2",
        "steepness": "traverse",
        "height": null,
        "name": "La Métropolitaine (raccourci)",
        "bleauInfoId": "22650",
        "circuitColor": "black",
        "circuitId": 101,
        "tags": [

        ]
      },
      "id": "problem_6850"
    },
    {
      "type": "Feature",
      "geometry": {
        "type": "Point",
        "coordinates": [
          2.47604269501,
          48.50221545189
        ]
      },
      "properties": {
        "grade": "6b",
        "circuitNumber": "20",
        "steepness": "wall",
        "height": null,
        "name": "Le Petit Ramoneur",
        "bleauInfoId": "6730",
        "circuitColor": "white",
        "circuitId": 102,
        "tags": [

        ]
      },
      "id": "problem_7074"
    },
    {
      "type": "Feature",
      "geometry": {
        "type": "Point",
        "coordinates": [
          2.4811140817,
          48.50193931748
        ]
      },
      "properties": {
        "grade": "3c",
        "circuitNumber": "18",
        "steepness": "other",
        "height": null,
        "name": "La Citadelle",
        "bleauInfoId": "18469",
        "circuitColor": "orange",
        "circuitId": 98,
        "tags": [

        ]
      },
      "id": "problem_6922"
    },
    {
      "type": "Feature",
      "geometry": {
        "type": "Point",
        "coordinates": [
          2.47605878826,
          48.50214547429
        ]
      },
      "properties": {
        "grade": "5a",
        "circuitNumber": "29",
        "steepness": "wall",
        "height": null,
        "name": "Le Pin Bonsaï",
        "bleauInfoId": "6653",
        "circuitColor": "blue",
        "circuitId": 99,
        "tags": [

        ]
      },
      "id": "problem_7194"
    },
    {
      "type": "Feature",
      "geometry": {
        "type": "Point",
        "coordinates": [
          2.47912891176,
          48.5026593076
        ]
      },
      "properties": {
        "grade": "6c+",
        "circuitNumber": "",
        "steepness": "traverse",
        "height": null,
        "name": "Le Cross en Mer Noire",
        "bleauInfoId": "23482",
        "circuitColor": null,
        "circuitId": null,
        "tags": [

        ]
      },
      "id": "problem_7012"
    },
    {
      "type": "Feature",
      "geometry": {
        "type": "Point",
        "coordinates": [
          2.48012904044,
          48.50237984335
        ]
      },
      "properties": {
        "grade": "2a",
        "circuitNumber": "56",
        "steepness": "other",
        "height": null,
        "name": "Le Compromis",
        "bleauInfoId": "18442",
        "circuitColor": "yellow",
        "circuitId": 97,
        "tags": [

        ]
      },
      "id": "problem_6862"
    },
    {
      "type": "Feature",
      "geometry": {
        "type": "Point",
        "coordinates": [
          2.47910745375,
          48.50176048488
        ]
      },
      "properties": {
        "grade": "2b",
        "circuitNumber": "45",
        "steepness": "slab",
        "height": null,
        "name": "Le Cagnard",
        "bleauInfoId": "18433",
        "circuitColor": "yellow",
        "circuitId": 97,
        "tags": [

        ]
      },
      "id": "problem_6983"
    },
    {
      "type": "Feature",
      "geometry": {
        "type": "Point",
        "coordinates": [
          2.47741967373,
          48.50234963113
        ]
      },
      "properties": {
        "grade": "4a",
        "circuitNumber": "2",
        "steepness": "wall",
        "height": null,
        "name": "Ventre Dur",
        "bleauInfoId": "6622",
        "circuitColor": "blue",
        "circuitId": 99,
        "tags": [

        ]
      },
      "id": "problem_7113"
    },
    {
      "type": "Feature",
      "geometry": {
        "type": "Point",
        "coordinates": [
          2.47580464896,
          48.50219012668
        ]
      },
      "properties": {
        "grade": "6a+",
        "circuitNumber": "22",
        "steepness": "traverse",
        "height": null,
        "name": "Le Distingo",
        "bleauInfoId": "6701",
        "circuitColor": "red",
        "circuitId": 100,
        "tags": [

        ]
      },
      "id": "problem_7207"
    },
    {
      "type": "Feature",
      "geometry": {
        "type": "Point",
        "coordinates": [
          2.47951649096,
          48.50182757481
        ]
      },
      "properties": {
        "grade": "5a",
        "circuitNumber": "",
        "steepness": "traverse",
        "height": null,
        "name": "La Traversée de l'UNSS",
        "bleauInfoId": "306443",
        "circuitColor": null,
        "circuitId": null,
        "tags": [

        ]
      },
      "id": "problem_6955"
    },
    {
      "type": "Feature",
      "geometry": {
        "type": "Point",
        "coordinates": [
          2.47671592947,
          48.50194220546
        ]
      },
      "properties": {
        "grade": "4c",
        "circuitNumber": "",
        "steepness": "other",
        "height": null,
        "name": "Gynopédie",
        "bleauInfoId": "",
        "circuitColor": null,
        "circuitId": null,
        "tags": [

        ]
      },
      "id": "problem_7176"
    },
    {
      "type": "Feature",
      "geometry": {
        "type": "Point",
        "coordinates": [
          2.47697241571,
          48.50226765735
        ]
      },
      "properties": {
        "grade": "4c",
        "circuitNumber": "13",
        "steepness": "wall",
        "height": null,
        "name": "Le Poussif Nocif",
        "bleauInfoId": "6636",
        "circuitColor": "blue",
        "circuitId": 99,
        "tags": [

        ]
      },
      "id": "problem_7144"
    },
    {
      "type": "Feature",
      "geometry": {
        "type": "Point",
        "coordinates": [
          2.48047538068,
          48.50194242761
        ]
      },
      "properties": {
        "grade": "2a",
        "circuitNumber": "11",
        "steepness": "wall",
        "height": null,
        "name": "Le Verdict",
        "bleauInfoId": "197296",
        "circuitColor": "yellow",
        "circuitId": 97,
        "tags": [

        ]
      },
      "id": "problem_6902"
    },
    {
      "type": "Feature",
      "geometry": {
        "type": "Point",
        "coordinates": [
          2.47955270078,
          48.50254534502
        ]
      },
      "properties": {
        "grade": "6c",
        "circuitNumber": "",
        "steepness": "wall",
        "height": null,
        "name": "Compressorale en Flip Mineur (assis)",
        "bleauInfoId": "15598",
        "circuitColor": null,
        "circuitId": null,
        "tags": [
          "risky"
        ]
      },
      "id": "problem_7023"
    },
    {
      "type": "Feature",
      "geometry": {
        "type": "Point",
        "coordinates": [
          2.47588880327,
          48.50229076102
        ]
      },
      "properties": {
        "grade": "7a",
        "circuitNumber": "",
        "steepness": "overhang",
        "height": null,
        "name": "Le Tricheur",
        "bleauInfoId": "21686",
        "circuitColor": null,
        "circuitId": null,
        "tags": [

        ]
      },
      "id": "problem_7077"
    },
    {
      "type": "Feature",
      "geometry": {
        "type": "Point",
        "coordinates": [
          2.48189024594,
          48.50191310352
        ]
      },
      "properties": {
        "grade": "3a",
        "circuitNumber": "21",
        "steepness": "traverse",
        "height": null,
        "name": "La Vie de Chien",
        "bleauInfoId": "157494",
        "circuitColor": "orange",
        "circuitId": 98,
        "tags": [

        ]
      },
      "id": "problem_6925"
    },
    {
      "type": "Feature",
      "geometry": {
        "type": "Point",
        "coordinates": [
          2.47575402226,
          48.50216257993
        ]
      },
      "properties": {
        "grade": "4a",
        "circuitNumber": "32",
        "steepness": "traverse",
        "height": null,
        "name": "New Deal",
        "bleauInfoId": "6656",
        "circuitColor": "blue",
        "circuitId": 99,
        "tags": [

        ]
      },
      "id": "problem_7197"
    },
    {
      "type": "Feature",
      "geometry": {
        "type": "Point",
        "coordinates": [
          2.47953627225,
          48.50259843873
        ]
      },
      "properties": {
        "grade": "2a+",
        "circuitNumber": "53",
        "steepness": "other",
        "height": null,
        "name": "L'Éphémère",
        "bleauInfoId": "273976",
        "circuitColor": "orange",
        "circuitId": 98,
        "tags": [

        ]
      },
      "id": "problem_7015"
    },
    {
      "type": "Feature",
      "geometry": {
        "type": "Point",
        "coordinates": [
          2.47974682532,
          48.50282880724
        ]
      },
      "properties": {
        "grade": "2b",
        "circuitNumber": "59",
        "steepness": "other",
        "height": null,
        "name": "La Duraille",
        "bleauInfoId": "101735",
        "circuitColor": "yellow",
        "circuitId": 97,
        "tags": [

        ]
      },
      "id": "problem_6865"
    },
    {
      "type": "Feature",
      "geometry": {
        "type": "Point",
        "coordinates": [
          2.47909605436,
          48.5018955537
        ]
      },
      "properties": {
        "grade": "2c",
        "circuitNumber": "48",
        "steepness": "wall",
        "height": null,
        "name": "L'Engagement",
        "bleauInfoId": "18436",
        "circuitColor": "yellow",
        "circuitId": 97,
        "tags": [

        ]
      },
      "id": "problem_6986"
    },
    {
      "type": "Feature",
      "geometry": {
        "type": "Point",
        "coordinates": [
          2.47697375648,
          48.5024202749
        ]
      },
      "properties": {
        "grade": "4a",
        "circuitNumber": "40",
        "steepness": "other",
        "height": null,
        "name": "La Dulf' du Vieux Cimetière",
        "bleauInfoId": "6664",
        "circuitColor": "blue",
        "circuitId": 99,
        "tags": [

        ]
      },
      "id": "problem_7147"
    },
    {
      "type": "Feature",
      "geometry": {
        "type": "Point",
        "coordinates": [
          2.47726712342,
          48.50191443643
        ]
      },
      "properties": {
        "grade": "6c",
        "circuitNumber": "10",
        "steepness": "traverse",
        "height": null,
        "name": "La Dame Noire",
        "bleauInfoId": "6737",
        "circuitColor": "white",
        "circuitId": 102,
        "tags": [

        ]
      },
      "id": "problem_7058"
    },
    {
      "type": "Feature",
      "geometry": {
        "type": "Point",
        "coordinates": [
          2.47741833262,
          48.50306806038
        ]
      },
      "properties": {
        "grade": "7b",
        "circuitNumber": "",
        "steepness": "roof",
        "height": null,
        "name": "Le Grain de Beauvais",
        "bleauInfoId": "15345",
        "circuitColor": null,
        "circuitId": null,
        "tags": [
          "sit_start"
        ]
      },
      "id": "problem_7044"
    },
    {
      "type": "Feature",
      "geometry": {
        "type": "Point",
        "coordinates": [
          2.47679337826,
          48.50206416685
        ]
      },
      "properties": {
        "grade": "7a",
        "circuitNumber": "14",
        "steepness": "wall",
        "height": null,
        "name": "L'Anthracite",
        "bleauInfoId": "82",
        "circuitColor": "white",
        "circuitId": 102,
        "tags": [

        ]
      },
      "id": "problem_7062"
    },
    {
      "type": "Feature",
      "geometry": {
        "type": "Point",
        "coordinates": [
          2.48156167533,
          48.50185423312
        ]
      },
      "properties": {
        "grade": "2a+",
        "circuitNumber": "17",
        "steepness": "traverse",
        "height": null,
        "name": "Le Routard",
        "bleauInfoId": "114324",
        "circuitColor": "yellow",
        "circuitId": 97,
        "tags": [

        ]
      },
      "id": "problem_6910"
    },
    {
      "type": "Feature",
      "geometry": {
        "type": "Point",
        "coordinates": [
          2.4766518914,
          48.50159831295
        ]
      },
      "properties": {
        "grade": "4b",
        "circuitNumber": "20",
        "steepness": "wall",
        "height": null,
        "name": "La Pierre de l'Édifice",
        "bleauInfoId": "6644",
        "circuitColor": "blue",
        "circuitId": 99,
        "tags": [

        ]
      },
      "id": "problem_7179"
    },
    {
      "type": "Feature",
      "geometry": {
        "type": "Point",
        "coordinates": [
          2.48004589196,
          48.50204172953
        ]
      },
      "properties": {
        "grade": "5a",
        "circuitNumber": "",
        "steepness": "other",
        "height": null,
        "name": "Linus",
        "bleauInfoId": "",
        "circuitColor": null,
        "circuitId": null,
        "tags": [

        ]
      },
      "id": "problem_6878"
    },
    {
      "type": "Feature",
      "geometry": {
        "type": "Point",
        "coordinates": [
          2.47568579357,
          48.50258199967
        ]
      },
      "properties": {
        "grade": "7b",
        "circuitNumber": "24",
        "steepness": "overhang",
        "height": null,
        "name": "L'Épée de Sable (assis)",
        "bleauInfoId": "984",
        "circuitColor": "white",
        "circuitId": 102,
        "tags": [
          "sit_start"
        ]
      },
      "id": "problem_7080"
    },
    {
      "type": "Feature",
      "geometry": {
        "type": "Point",
        "coordinates": [
          2.48148355599,
          48.50170605715
        ]
      },
      "properties": {
        "grade": "3a",
        "circuitNumber": "24",
        "steepness": "other",
        "height": null,
        "name": "La Minime",
        "bleauInfoId": "271729",
        "circuitColor": "orange",
        "circuitId": 98,
        "tags": [

        ]
      },
      "id": "problem_6928"
    },
    {
      "type": "Feature",
      "geometry": {
        "type": "Point",
        "coordinates": [
          2.4761285257,
          48.50237384529
        ]
      },
      "properties": {
        "grade": "4c",
        "circuitNumber": "35",
        "steepness": "slab",
        "height": null,
        "name": "La Dalle du Sud",
        "bleauInfoId": "16048",
        "circuitColor": "blue",
        "circuitId": 99,
        "tags": [

        ]
      },
      "id": "problem_7200"
    },
    {
      "type": "Feature",
      "geometry": {
        "type": "Point",
        "coordinates": [
          2.47947290473,
          48.50228032016
        ]
      },
      "properties": {
        "grade": "3a",
        "circuitNumber": "56",
        "steepness": "traverse",
        "height": null,
        "name": "Le Décidément",
        "bleauInfoId": "143475",
        "circuitColor": "orange",
        "circuitId": 98,
        "tags": [

        ]
      },
      "id": "problem_7018"
    },
    {
      "type": "Feature",
      "geometry": {
        "type": "Point",
        "coordinates": [
          2.47996509042,
          48.50234318854
        ]
      },
      "properties": {
        "grade": "3a",
        "circuitNumber": "8",
        "steepness": "slab",
        "height": null,
        "name": "La Fasciite",
        "bleauInfoId": "18458",
        "circuitColor": "orange",
        "circuitId": 98,
        "tags": [

        ]
      },
      "id": "problem_6868"
    },
    {
      "type": "Feature",
      "geometry": {
        "type": "Point",
        "coordinates": [
          2.47903168134,
          48.5018675625
        ]
      },
      "properties": {
        "grade": "2b+",
        "circuitNumber": "43",
        "steepness": "other",
        "height": null,
        "name": "L'Affairée",
        "bleauInfoId": "18491",
        "circuitColor": "orange",
        "circuitId": 98,
        "tags": [

        ]
      },
      "id": "problem_6989"
    },
    {
      "type": "Feature",
      "geometry": {
        "type": "Point",
        "coordinates": [
          2.4793136489,
          48.50178403287
        ]
      },
      "properties": {
        "grade": "3c",
        "circuitNumber": "34",
        "steepness": "wall",
        "height": null,
        "name": "La Cachette",
        "bleauInfoId": "18481",
        "circuitColor": "orange",
        "circuitId": 98,
        "tags": [

        ]
      },
      "id": "problem_6957"
    },
    {
      "type": "Feature",
      "geometry": {
        "type": "Point",
        "coordinates": [
          2.47681315955,
          48.50233918983
        ]
      },
      "properties": {
        "grade": "5b+",
        "circuitNumber": "",
        "steepness": "other",
        "height": null,
        "name": "Sibyllin",
        "bleauInfoId": "",
        "circuitColor": null,
        "circuitId": null,
        "tags": [

        ]
      },
      "id": "problem_7150"
    },
    {
      "type": "Feature",
      "geometry": {
        "type": "Point",
        "coordinates": [
          2.47659388896,
          48.50216613435
        ]
      },
      "properties": {
        "grade": "6b",
        "circuitNumber": "15",
        "steepness": "overhang",
        "height": null,
        "name": "M&M's",
        "bleauInfoId": "6733",
        "circuitColor": "white",
        "circuitId": 102,
        "tags": [

        ]
      },
      "id": "problem_7065"
    },
    {
      "type": "Feature",
      "geometry": {
        "type": "Point",
        "coordinates": [
          2.48171623763,
          48.50180469308
        ]
      },
      "properties": {
        "grade": "2a",
        "circuitNumber": "20",
        "steepness": "slab",
        "height": null,
        "name": "L'Incisive",
        "bleauInfoId": "254461",
        "circuitColor": "yellow",
        "circuitId": 97,
        "tags": [

        ]
      },
      "id": "problem_6913"
    },
    {
      "type": "Feature",
      "geometry": {
        "type": "Point",
        "coordinates": [
          2.47636623614,
          48.50195375759
        ]
      },
      "properties": {
        "grade": "4c+",
        "circuitNumber": "23",
        "steepness": "traverse",
        "height": null,
        "name": "La Marâtre",
        "bleauInfoId": "6670",
        "circuitColor": "blue",
        "circuitId": 99,
        "tags": [

        ]
      },
      "id": "problem_7182"
    },
    {
      "type": "Feature",
      "geometry": {
        "type": "Point",
        "coordinates": [
          2.47820991989,
          48.50278260016
        ]
      },
      "properties": {
        "grade": "4c",
        "circuitNumber": "46",
        "steepness": "traverse",
        "height": null,
        "name": "Au Gré du Grès",
        "bleauInfoId": "6675",
        "circuitColor": "blue",
        "circuitId": 99,
        "tags": [

        ]
      },
      "id": "problem_7098"
    },
    {
      "type": "Feature",
      "geometry": {
        "type": "Point",
        "coordinates": [
          2.4759598818,
          48.50222589299
        ]
      },
      "properties": {
        "grade": "6b",
        "circuitNumber": "",
        "steepness": "other",
        "height": null,
        "name": "L'Étrave",
        "bleauInfoId": "8845",
        "circuitColor": null,
        "circuitId": null,
        "tags": [

        ]
      },
      "id": "problem_7216"
    },
    {
      "type": "Feature",
      "geometry": {
        "type": "Point",
        "coordinates": [
          2.47673101656,
          48.5024416013
        ]
      },
      "properties": {
        "grade": "7a",
        "circuitNumber": "25",
        "steepness": "traverse",
        "height": null,
        "name": "Black-Out",
        "bleauInfoId": "83",
        "circuitColor": "white",
        "circuitId": 102,
        "tags": [

        ]
      },
      "id": "problem_7083"
    },
    {
      "type": "Feature",
      "geometry": {
        "type": "Point",
        "coordinates": [
          2.48057931628,
          48.50152655704
        ]
      },
      "properties": {
        "grade": "3a",
        "circuitNumber": "27",
        "steepness": "slab",
        "height": null,
        "name": "La Fameuse",
        "bleauInfoId": "18473",
        "circuitColor": "orange",
        "circuitId": 98,
        "tags": [

        ]
      },
      "id": "problem_6931"
    },
    {
      "type": "Feature",
      "geometry": {
        "type": "Point",
        "coordinates": [
          2.47607421096,
          48.50214969516
        ]
      },
      "properties": {
        "grade": "6a",
        "circuitNumber": "16",
        "steepness": "wall",
        "height": null,
        "name": "Syndrome Albatros",
        "bleauInfoId": "6704",
        "circuitColor": "red",
        "circuitId": 100,
        "tags": [
          "risky"
        ]
      },
      "id": "problem_7203"
    },
    {
      "type": "Feature",
      "geometry": {
        "type": "Point",
        "coordinates": [
          2.47915003415,
          48.50192176746
        ]
      },
      "properties": {
        "grade": "6a+",
        "circuitNumber": "21",
        "steepness": "traverse",
        "height": null,
        "name": "L'Égérie du Diéséliste",
        "bleauInfoId": "11371",
        "circuitColor": "black",
        "circuitId": 101,
        "tags": [

        ]
      },
      "id": "problem_6992"
    },
    {
      "type": "Feature",
      "geometry": {
        "type": "Point",
        "coordinates": [
          2.47941724923,
          48.50167317847
        ]
      },
      "properties": {
        "grade": "2c",
        "circuitNumber": "",
        "steepness": "slab",
        "height": null,
        "name": "Le Pavois",
        "bleauInfoId": "18425",
        "circuitColor": null,
        "circuitId": null,
        "tags": [

        ]
      },
      "id": "problem_6960"
    },
    {
      "type": "Feature",
      "geometry": {
        "type": "Point",
        "coordinates": [
          2.47730165653,
          48.50303695976
        ]
      },
      "properties": {
        "grade": "7b+",
        "circuitNumber": "",
        "steepness": "other",
        "height": null,
        "name": "L'Étrave à Sucre",
        "bleauInfoId": "92",
        "circuitColor": null,
        "circuitId": null,
        "tags": [

        ]
      },
      "id": "problem_7046"
    },
    {
      "type": "Feature",
      "geometry": {
        "type": "Point",
        "coordinates": [
          2.4802125242,
          48.50196997447
        ]
      },
      "properties": {
        "grade": "7c",
        "circuitNumber": "",
        "steepness": "traverse",
        "height": null,
        "name": "Le Dahlia Noir",
        "bleauInfoId": "96",
        "circuitColor": null,
        "circuitId": null,
        "tags": [

        ]
      },
      "id": "problem_6880"
    },
    {
      "type": "Feature",
      "geometry": {
        "type": "Point",
        "coordinates": [
          2.47683327628,
          48.50226843476
        ]
      },
      "properties": {
        "grade": "7a",
        "circuitNumber": "",
        "steepness": "wall",
        "height": null,
        "name": "Tsé Tsé",
        "bleauInfoId": "8932",
        "circuitColor": null,
        "circuitId": null,
        "tags": [

        ]
      },
      "id": "problem_7153"
    },
    {
      "type": "Feature",
      "geometry": {
        "type": "Point",
        "coordinates": [
          2.48109497096,
          48.50191110415
        ]
      },
      "properties": {
        "grade": "6a",
        "circuitNumber": "7",
        "steepness": "traverse",
        "height": null,
        "name": "Le Trou Duc",
        "bleauInfoId": "22644",
        "circuitColor": "black",
        "circuitId": 101,
        "tags": [

        ]
      },
      "id": "problem_6889"
    },
    {
      "type": "Feature",
      "geometry": {
        "type": "Point",
        "coordinates": [
          2.47637160055,
          48.5018413485
        ]
      },
      "properties": {
        "grade": "1b",
        "circuitNumber": "",
        "steepness": "other",
        "height": null,
        "name": "Balance",
        "bleauInfoId": "",
        "circuitColor": null,
        "circuitId": null,
        "tags": [

        ]
      },
      "id": "problem_7185"
    },
    {
      "type": "Feature",
      "geometry": {
        "type": "Point",
        "coordinates": [
          2.48029231958,
          48.50208127275
        ]
      },
      "properties": {
        "grade": "3b",
        "circuitNumber": "10",
        "steepness": "traverse",
        "height": null,
        "name": "Rêve Bleu",
        "bleauInfoId": "18460",
        "circuitColor": "orange",
        "circuitId": 98,
        "tags": [

        ]
      },
      "id": "problem_6870"
    },
    {
      "type": "Feature",
      "geometry": {
        "type": "Point",
        "coordinates": [
          2.47983097963,
          48.50170272508
        ]
      },
      "properties": {
        "grade": "3b",
        "circuitNumber": "30",
        "steepness": "wall",
        "height": null,
        "name": "Le Dévers Marbré",
        "bleauInfoId": "18477",
        "circuitColor": "orange",
        "circuitId": 98,
        "tags": [

        ]
      },
      "id": "problem_6934"
    },
    {
      "type": "Feature",
      "geometry": {
        "type": "Point",
        "coordinates": [
          2.47922278924,
          48.50196197689
        ]
      },
      "properties": {
        "grade": "7b+",
        "circuitNumber": "",
        "steepness": "traverse",
        "height": null,
        "name": "Place du Moulin",
        "bleauInfoId": "985",
        "circuitColor": null,
        "circuitId": null,
        "tags": [

        ]
      },
      "id": "problem_6995"
    },
    {
      "type": "Feature",
      "geometry": {
        "type": "Point",
        "coordinates": [
          2.47909504887,
          48.50164518714
        ]
      },
      "properties": {
        "grade": "6b",
        "circuitNumber": "19",
        "steepness": "traverse",
        "height": null,
        "name": "Le Dragon",
        "bleauInfoId": "22638",
        "circuitColor": "black",
        "circuitId": 101,
        "tags": [

        ]
      },
      "id": "problem_6963"
    },
    {
      "type": "Feature",
      "geometry": {
        "type": "Point",
        "coordinates": [
          2.4773385369,
          48.50300097187
        ]
      },
      "properties": {
        "grade": "6c",
        "circuitNumber": "",
        "steepness": "wall",
        "height": null,
        "name": "Coupe du Monde",
        "bleauInfoId": "18553",
        "circuitColor": null,
        "circuitId": null,
        "tags": [

        ]
      },
      "id": "problem_7049"
    },
    {
      "type": "Feature",
      "geometry": {
        "type": "Point",
        "coordinates": [
          2.48049616747,
          48.50203062217
        ]
      },
      "properties": {
        "grade": "5a",
        "circuitNumber": "",
        "steepness": "other",
        "height": null,
        "name": "Le Cube de Sucre",
        "bleauInfoId": "",
        "circuitColor": null,
        "circuitId": null,
        "tags": [

        ]
      },
      "id": "problem_6883"
    },
    {
      "type": "Feature",
      "geometry": {
        "type": "Point",
        "coordinates": [
          2.47672598775,
          48.50206683267
        ]
      },
      "properties": {
        "grade": "7a",
        "circuitNumber": "",
        "steepness": "traverse",
        "height": null,
        "name": "Vers l'Art Pariétal",
        "bleauInfoId": "1606",
        "circuitColor": null,
        "circuitId": null,
        "tags": [
          "sit_start"
        ]
      },
      "id": "problem_7156"
    },
    {
      "type": "Feature",
      "geometry": {
        "type": "Point",
        "coordinates": [
          2.48112883385,
          48.50195020294
        ]
      },
      "properties": {
        "grade": "6a",
        "circuitNumber": "6",
        "steepness": "traverse",
        "height": null,
        "name": "La Praline",
        "bleauInfoId": "22631",
        "circuitColor": "black",
        "circuitId": 101,
        "tags": [

        ]
      },
      "id": "problem_6892"
    },
    {
      "type": "Feature",
      "geometry": {
        "type": "Point",
        "coordinates": [
          2.47802585296,
          48.50252735112
        ]
      },
      "properties": {
        "grade": "3c",
        "circuitNumber": "44",
        "steepness": "traverse",
        "height": null,
        "name": "Lucie la Résistante",
        "bleauInfoId": "6671",
        "circuitColor": "blue",
        "circuitId": 99,
        "tags": [

        ]
      },
      "id": "problem_7100"
    },
    {
      "type": "Feature",
      "geometry": {
        "type": "Point",
        "coordinates": [
          2.47682657059,
          48.50227854273
        ]
      },
      "properties": {
        "grade": "7a",
        "circuitNumber": "27",
        "steepness": "wall",
        "height": null,
        "name": "La Mouche",
        "bleauInfoId": "88",
        "circuitColor": "white",
        "circuitId": 102,
        "tags": [
          "risky"
        ]
      },
      "id": "problem_7085"
    },
    {
      "type": "Feature",
      "geometry": {
        "type": "Point",
        "coordinates": [
          2.48028896682,
          48.50188933344
        ]
      },
      "properties": {
        "grade": "3a",
        "circuitNumber": "13",
        "steepness": "slab",
        "height": null,
        "name": "Le Diplomate",
        "bleauInfoId": "18463",
        "circuitColor": "orange",
        "circuitId": 98,
        "tags": [

        ]
      },
      "id": "problem_6873"
    },
    {
      "type": "Feature",
      "geometry": {
        "type": "Point",
        "coordinates": [
          2.47702840682,
          48.50219012668
        ]
      },
      "properties": {
        "grade": "3b",
        "circuitNumber": "7",
        "steepness": "traverse",
        "height": null,
        "name": "L'Hypoténuse",
        "bleauInfoId": "6628",
        "circuitColor": "blue",
        "circuitId": 99,
        "tags": [

        ]
      },
      "id": "problem_7123"
    },
    {
      "type": "Feature",
      "geometry": {
        "type": "Point",
        "coordinates": [
          2.47899345987,
          48.50139259823
        ]
      },
      "properties": {
        "grade": "3a",
        "circuitNumber": "38",
        "steepness": "wall",
        "height": null,
        "name": "L'Estrade",
        "bleauInfoId": "18486",
        "circuitColor": "orange",
        "circuitId": 98,
        "tags": [

        ]
      },
      "id": "problem_6966"
    },
    {
      "type": "Feature",
      "geometry": {
        "type": "Point",
        "coordinates": [
          2.47808385607,
          48.50249136265
        ]
      },
      "properties": {
        "grade": "7a",
        "circuitNumber": "",
        "steepness": "overhang",
        "height": null,
        "name": "Bagdad Café (assis)",
        "bleauInfoId": "22896",
        "circuitColor": null,
        "circuitId": null,
        "tags": [
          "sit_start"
        ]
      },
      "id": "problem_7052"
    },