{
  "type": "FeatureCollection",
  "features": [
    {
      "type": "Feature",
      "geometry": {
        "type": "Point",
        "coordinates": [
          2.6109299802,
          48.40973997968
        ]
      },
      "properties": {
        "grade": "5b",
        "circuitNumber": "2",
        "steepness": "overhang",
        "height": null,
        "name": "Glop!",
        "bleauInfoId": "14791",
        "circuitColor": "red"
      },
      "id": "problem_2517"
    },
    {
      "type": "Feature",
      "geometry": {
        "type": "Point",
        "coordinates": [
          2.61141227541,
          48.4100002579
        ]
      },
      "properties": {
        "grade": "6a",
        "circuitNumber": "",
        "steepness": "traverse",
        "height": null,
        "name": "Coup au Cœur",
        "bleauInfoId": "17360",
        "circuitColor": null
      },
      "id": "problem_2715"
    },
    {
      "type": "Feature",
      "geometry": {
        "type": "Point",
        "coordinates": [
          2.61146306975,
          48.41007670544
        ]
      },
      "properties": {
        "grade": "6c+",
        "circuitNumber": "",
        "steepness": "traverse",
        "height": null,
        "name": "Ten Eleven",
        "bleauInfoId": "977",
        "circuitColor": null
      },
      "id": "problem_2719"
    },
    {
      "type": "Feature",
      "geometry": {
        "type": "Point",
        "coordinates": [
          2.61146441069,
          48.41006068162
        ]
      },
      "properties": {
        "grade": "4a",
        "circuitNumber": "",
        "steepness": "slab",
        "height": null,
        "name": "La Dalle du Vertige",
        "bleauInfoId": "304922",
        "circuitColor": null
      },
      "id": "problem_2717"
    },
    {
      "type": "Feature",
      "geometry": {
        "type": "Point",
        "coordinates": [
          2.6114087551,
          48.41000354053
        ]
      },
      "properties": {
        "grade": "6c",
        "circuitNumber": "",
        "steepness": "traverse",
        "height": null,
        "name": "Les Feux de la Rampe",
        "bleauInfoId": "9955",
        "circuitColor": null
      },
      "id": "problem_2716"
    },
    {
      "type": "Feature",
      "geometry": {
        "type": "Point",
        "coordinates": [
          2.61146843417,
          48.41007948737
        ]
      },
      "properties": {
        "grade": "6b",
        "circuitNumber": "",
        "steepness": "wall",
        "height": null,
        "name": "L'Ange",
        "bleauInfoId": "3211",
        "circuitColor": null,
        "tags": [
          "risky"
        ]
      },
      "id": "problem_2718"
    },
    {
      "type": "Feature",
      "geometry": {
        "type": "Point",
        "coordinates": [
          2.61146692542,
          48.41000426389
        ]
      },
      "properties": {
        "grade": "5c",
        "circuitNumber": "",
        "steepness": "wall",
        "height": null,
        "name": "Sable Émouvant",
        "bleauInfoId": "14797",
        "circuitColor": null
      },
      "id": "problem_2721"
    },
    {
      "type": "Feature",
      "geometry": {
        "type": "Point",
        "coordinates": [
          2.61155895872,
          48.40998690461
        ]
      },
      "properties": {
        "grade": "6b",
        "circuitNumber": "",
        "steepness": "other",
        "height": null,
        "name": "Dune de Sable",
        "bleauInfoId": "14794",
        "circuitColor": null
      },
      "id": "problem_2724"
    },
    {
      "type": "Feature",
      "geometry": {
        "type": "Point",
        "coordinates": [
          2.6115016265,
          48.40999235721
        ]
      },
      "properties": {
        "grade": "5c",
        "circuitNumber": "",
        "steepness": "wall",
        "height": null,
        "name": "Coulée de Sable",
        "bleauInfoId": "17367",
        "circuitColor": null
      },
      "id": "problem_2722"
    },
    {
      "type": "Feature",
      "geometry": {
        "type": "Point",
        "coordinates": [
          2.6114496587,
          48.410097403
        ]
      },
      "properties": {
        "grade": "7a",
        "circuitNumber": "",
        "steepness": "wall",
        "height": null,
        "name": "Ten Eleven (direct)",
        "bleauInfoId": "1650",
        "circuitColor": null
      },
      "id": "problem_2720"
    },
    {
      "type": "Feature",
      "geometry": {
        "type": "Point",
        "coordinates": [
          2.6115311308,
          48.40998623695
        ]
      },
      "properties": {
        "grade": "6a",
        "circuitNumber": "",
        "steepness": "wall",
        "height": null,
        "name": "Le Sablier",
        "bleauInfoId": "14798",
        "circuitColor": null
      },
      "id": "problem_2723"
    },
    {
      "type": "Feature",
      "geometry": {
        "type": "Point",
        "coordinates": [
          2.61257266609,
          48.41024562403
        ]
      },
      "properties": {
        "grade": "4a",
        "circuitNumber": "38",
        "steepness": "wall",
        "height": null,
        "name": "La Belle",
        "bleauInfoId": "305089",
        "circuitColor": "orange"
      },
      "id": "problem_2727"
    },
    {
      "type": "Feature",
      "geometry": {
        "type": "Point",
        "coordinates": [
          2.61259211211,
          48.41027911836
        ]
      },
      "properties": {
        "grade": "5c",
        "circuitNumber": "41",
        "steepness": "slab",
        "height": null,
        "name": "L'Abomi-Affreuse",
        "bleauInfoId": "3193",
        "circuitColor": "red"
      },
      "id": "problem_2732"
    },
    {
      "type": "Feature",
      "geometry": {
        "type": "Point",
        "coordinates": [
          2.6124467699,
          48.40973519439
        ]
      },
      "properties": {
        "grade": "5c",
        "circuitNumber": "",
        "steepness": "other",
        "height": null,
        "name": "Le Rouge Vif",
        "bleauInfoId": "304949",
        "circuitColor": null
      },
      "id": "problem_2744"
    },
    {
      "type": "Feature",
      "geometry": {
        "type": "Point",
        "coordinates": [
          2.61297449453,
          48.4102525232
        ]
      },
      "properties": {
        "grade": "4a",
        "circuitNumber": "35",
        "steepness": "other",
        "height": null,
        "name": "L'Angle",
        "bleauInfoId": "5151",
        "circuitColor": "orange"
      },
      "id": "problem_2758"
    },
    {
      "type": "Feature",
      "geometry": {
        "type": "Point",
        "coordinates": [
          2.61321455207,
          48.41057422372
        ]
      },
      "properties": {
        "grade": "7c",
        "circuitNumber": "",
        "steepness": "overhang",
        "height": null,
        "name": "Maudit Manège",
        "bleauInfoId": "508",
        "circuitColor": null,
        "tags": [
          "risky"
        ]
      },
      "id": "problem_2761"
    },
    {
      "type": "Feature",
      "geometry": {
        "type": "Point",
        "coordinates": [
          2.61340767128,
          48.41055831112
        ]
      },
      "properties": {
        "grade": "7a+",
        "circuitNumber": "",
        "steepness": "wall",
        "height": null,
        "name": "Mélancolique",
        "bleauInfoId": "8765",
        "circuitColor": null
      },
      "id": "problem_2858"
    },
    {
      "type": "Feature",
      "geometry": {
        "type": "Point",
        "coordinates": [
          2.6132477444,
          48.40971104717
        ]
      },
      "properties": {
        "grade": "5c",
        "circuitNumber": "20",
        "steepness": "slab",
        "height": null,
        "name": "La Liberté",
        "bleauInfoId": "3224",
        "circuitColor": "white"
      },
      "id": "problem_2767"
    },
    {
      "type": "Feature",
      "geometry": {
        "type": "Point",
        "coordinates": [
          2.61349509453,
          48.40949555665
        ]
      },
      "properties": {
        "grade": "6c",
        "circuitNumber": "",
        "steepness": "wall",
        "height": null,
        "name": "Les Portugaises (assis)",
        "bleauInfoId": "1287",
        "circuitColor": null,
        "tags": [
          "sit_start"
        ]
      },
      "id": "problem_2802"
    },
    {
      "type": "Feature",
      "geometry": {
        "type": "Point",
        "coordinates": [
          2.61324800634,
          48.40972712684
        ]
      },
      "properties": {
        "grade": "7a",
        "circuitNumber": "",
        "steepness": "slab",
        "height": null,
        "name": "Le Petit Chauve Sourit",
        "bleauInfoId": "1128",
        "circuitColor": null
      },
      "id": "problem_2768"
    },
    {
      "type": "Feature",
      "geometry": {
        "type": "Point",
        "coordinates": [
          2.61398032274,
          48.41022692962
        ]
      },
      "properties": {
        "grade": "2b",
        "circuitNumber": "",
        "steepness": "other",
        "height": null,
        "name": "Escalier de Secours",
        "bleauInfoId": "",
        "circuitColor": null
      },
      "id": "problem_2820"
    },
    {
      "type": "Feature",
      "geometry": {
        "type": "Point",
        "coordinates": [
          2.6134482397,
          48.41030704883
        ]
      },
      "properties": {
        "grade": "6a",
        "circuitNumber": "",
        "steepness": "wall",
        "height": null,
        "name": "Remise d'Échecs",
        "bleauInfoId": "17397",
        "circuitColor": null
      },
      "id": "problem_2815"
    },
    {
      "type": "Feature",
      "geometry": {
        "type": "Point",
        "coordinates": [
          2.61248130335,
          48.40961890874
        ]
      },
      "properties": {
        "grade": "6c",
        "circuitNumber": "",
        "steepness": "traverse",
        "height": null,
        "name": "Pause Café (gauche-droite)",
        "bleauInfoId": "1417",
        "circuitColor": null
      },
      "id": "problem_2750"
    },
    {
      "type": "Feature",
      "geometry": {
        "type": "Point",
        "coordinates": [
          2.61250913126,
          48.40958841849
        ]
      },
      "properties": {
        "grade": "5b",
        "circuitNumber": "22",
        "steepness": "other",
        "height": null,
        "name": "Fil Rouge",
        "bleauInfoId": "67093",
        "circuitColor": "red"
      },
      "id": "problem_2753"
    },
    {
      "type": "Feature",
      "geometry": {
        "type": "Point",
        "coordinates": [
          2.61307490973,
          48.4096900155
        ]
      },
      "properties": {
        "grade": "5a",
        "circuitNumber": "24",
        "steepness": "slab",
        "height": null,
        "name": "Prise d'Ongle",
        "bleauInfoId": "166924",
        "circuitColor": "red"
      },
      "id": "problem_2790"
    },
    {
      "type": "Feature",
      "geometry": {
        "type": "Point",
        "coordinates": [
          2.61342544075,
          48.41054651595
        ]
      },
      "properties": {
        "grade": "5c",
        "circuitNumber": "34",
        "steepness": "wall",
        "height": null,
        "name": "Horloge",
        "bleauInfoId": "3240",
        "circuitColor": "white"
      },
      "id": "problem_2855"
    },
    {
      "type": "Feature",
      "geometry": {
        "type": "Point",
        "coordinates": [
          2.61373749926,
          48.41071949438
        ]
      },
      "properties": {
        "grade": "5c",
        "circuitNumber": "",
        "steepness": "slab",
        "height": null,
        "name": "Pain Trop n'en Faut (gauche)",
        "bleauInfoId": "302686",
        "circuitColor": null
      },
      "id": "problem_2845"
    },
    {
      "type": "Feature",
      "geometry": {
        "type": "Point",
        "coordinates": [
          2.61350850566,
          48.40951146942
        ]
      },
      "properties": {
        "grade": "7a",
        "circuitNumber": "",
        "steepness": "other",
        "height": null,
        "name": "Contorsion Égocentrique",
        "bleauInfoId": "458",
        "circuitColor": null,
        "tags": [
          "sit_start"
        ]
      },
      "id": "problem_2804"
    },
    {
      "type": "Feature",
      "geometry": {
        "type": "Point",
        "coordinates": [
          2.61297851767,
          48.40970615093
        ]
      },
      "properties": {
        "grade": "4a",
        "circuitNumber": "26",
        "steepness": "slab",
        "height": null,
        "name": "Goutte d'Eau",
        "bleauInfoId": "93246",
        "circuitColor": "yellow"
      },
      "id": "problem_2788"
    },
    {
      "type": "Feature",
      "geometry": {
        "type": "Point",
        "coordinates": [
          2.61252924766,
          48.4100769281
        ]
      },
      "properties": {
        "grade": "4a+",
        "circuitNumber": "39",
        "steepness": "wall",
        "height": null,
        "name": "La Martine",
        "bleauInfoId": "305088",
        "circuitColor": "orange"
      },
      "id": "problem_2739"
    },
    {
      "type": "Feature",
      "geometry": {
        "type": "Point",
        "coordinates": [
          2.61261239631,
          48.41026175917
        ]
      },
      "properties": {
        "grade": "6c+",
        "circuitNumber": "",
        "steepness": "other",
        "height": null,
        "name": "La Proue de la Passion (assis)",
        "bleauInfoId": "16891",
        "circuitColor": null,
        "tags": [
          "sit_start"
        ]
      },
      "id": "problem_2729"
    },
    {
      "type": "Feature",
      "geometry": {
        "type": "Point",
        "coordinates": [
          2.6134566211,
          48.40989799418
        ]
      },
      "properties": {
        "grade": "5b",
        "circuitNumber": "31",
        "steepness": "wall",
        "height": null,
        "name": "La Muraille de Chine",
        "bleauInfoId": "3189",
        "circuitColor": "red"
      },
      "id": "problem_2806"
    },
    {
      "type": "Feature",
      "geometry": {
        "type": "Point",
        "coordinates": [
          2.6113703659,
          48.41001594802
        ]
      },
      "properties": {
        "grade": "7a",
        "circuitNumber": "",
        "steepness": "overhang",
        "height": null,
        "name": "Querelle de Famille",
        "bleauInfoId": "1230",
        "circuitColor": null
      },
      "id": "problem_2714"
    },
    {
      "type": "Feature",
      "geometry": {
        "type": "Point",
        "coordinates": [
          2.61333961006,
          48.40969836147
        ]
      },
      "properties": {
        "grade": "8a",
        "circuitNumber": "",
        "steepness": "other",
        "height": null,
        "name": "Coup Atomique",
        "bleauInfoId": "21363",
        "circuitColor": null
      },
      "id": "problem_2796"
    },
    {
      "type": "Feature",
      "geometry": {
        "type": "Point",
        "coordinates": [
          2.61291950908,
          48.41028123273
        ]
      },
      "properties": {
        "grade": "3a",
        "circuitNumber": "33",
        "steepness": "slab",
        "height": null,
        "name": "Complainte des Lamentables",
        "bleauInfoId": "265966",
        "circuitColor": "yellow"
      },
      "id": "problem_2754"
    },
    {
      "type": "Feature",
      "geometry": {
        "type": "Point",
        "coordinates": [
          2.61368963834,
          48.41068427573
        ]
      },
      "properties": {
        "grade": "5b",
        "circuitNumber": "",
        "steepness": "wall",
        "height": null,
        "name": "L'Obèse",
        "bleauInfoId": "302692",
        "circuitColor": null
      },
      "id": "problem_2848"
    },
    {
      "type": "Feature",
      "geometry": {
        "type": "Point",
        "coordinates": [
          2.61371746626,
          48.41018442182
        ]
      },
      "properties": {
        "grade": "4c",
        "circuitNumber": "32",
        "steepness": "slab",
        "height": null,
        "name": "Chat Cath Blues",
        "bleauInfoId": "304945",
        "circuitColor": "red"
      },
      "id": "problem_2816"
    },
    {
      "type": "Feature",
      "geometry": {
        "type": "Point",
        "coordinates": [
          2.6138239166,
          48.41025563895
        ]
      },
      "properties": {
        "grade": "7b",
        "circuitNumber": "",
        "steepness": "other",
        "height": null,
        "name": "Graine d'Étoiles (assis)",
        "bleauInfoId": "301425",
        "circuitColor": null,
        "tags": [
          "sit_start"
        ]
      },
      "id": "problem_2826"
    },
    {
      "type": "Feature",
      "geometry": {
        "type": "Point",
        "coordinates": [
          2.61342527328,
          48.4105359446
        ]
      },
      "properties": {
        "grade": "6a",
        "circuitNumber": "",
        "steepness": "wall",
        "height": null,
        "name": "Le Plaisir des Doigts",
        "bleauInfoId": "19561",
        "circuitColor": null
      },
      "id": "problem_2856"
    },
    {
      "type": "Feature",
      "geometry": {
        "type": "Point",
        "coordinates": [
          2.61258456839,
          48.4096686501
        ]
      },
      "properties": {
        "grade": "4a+",
        "circuitNumber": "24",
        "steepness": "slab",
        "height": null,
        "name": "Science Friction",
        "bleauInfoId": "72159",
        "circuitColor": "orange"
      },
      "id": "problem_2746"
    },
    {
      "type": "Feature",
      "geometry": {
        "type": "Point",
        "coordinates": [
          2.61424519088,
          48.40994428544
        ]
      },
      "properties": {
        "grade": "5c",
        "circuitNumber": "25",
        "steepness": "other",
        "height": null,
        "name": "Face Sud",
        "bleauInfoId": "3228",
        "circuitColor": "white"
      },
      "id": "problem_2808"
    },
    {
      "type": "Feature",
      "geometry": {
        "type": "Point",
        "coordinates": [
          2.61324070361,
          48.40954079146
        ]
      },
      "properties": {
        "grade": "5b",
        "circuitNumber": "23",
        "steepness": "slab",
        "height": null,
        "name": "Premier de la Bande",
        "bleauInfoId": "188599",
        "circuitColor": "red"
      },
      "id": "problem_2798"
    },
    {
      "type": "Feature",
      "geometry": {
        "type": "Point",
        "coordinates": [
          2.61311547814,
          48.40985348277
        ]
      },
      "properties": {
        "grade": "6c",
        "circuitNumber": "",
        "steepness": "other",
        "height": null,
        "name": "Jo's Special",
        "bleauInfoId": "9598",
        "circuitColor": null
      },
      "id": "problem_2779"
    },
    {
      "type": "Feature",
      "geometry": {
        "type": "Point",
        "coordinates": [
          2.61298187044,
          48.41009183925
        ]
      },
      "properties": {
        "grade": "3c",
        "circuitNumber": "34",
        "steepness": "wall",
        "height": null,
        "name": "Bienvenue aux Vacances",
        "bleauInfoId": "138975",
        "circuitColor": "orange"
      },
      "id": "problem_2763"
    },
    {
      "type": "Feature",
      "geometry": {
        "type": "Point",
        "coordinates": [
          2.61375820247,
          48.41064098927
        ]
      },
      "properties": {
        "grade": "7a",
        "circuitNumber": "",
        "steepness": "other",
        "height": null,
        "name": "Hallucination Bovine",
        "bleauInfoId": "489",
        "circuitColor": null
      },
      "id": "problem_2850"
    },
    {
      "type": "Feature",
      "geometry": {
        "type": "Point",
        "coordinates": [
          2.61247711239,
          48.40977280634
        ]
      },
      "properties": {
        "grade": "6a",
        "circuitNumber": "20",
        "steepness": "slab",
        "height": null,
        "name": "La Dalle des Seigneurs",
        "bleauInfoId": "3183",
        "circuitColor": "red"
      },
      "id": "problem_2743"
    },
    {
      "type": "Feature",
      "geometry": {
        "type": "Point",
        "coordinates": [
          2.61251533387,
          48.40959631925
        ]
      },
      "properties": {
        "grade": "7a",
        "circuitNumber": "",
        "steepness": "traverse",
        "height": null,
        "name": "Pause Café (droite-gauche)",
        "bleauInfoId": "8671",
        "circuitColor": null
      },
      "id": "problem_2751"
    },
    {
      "type": "Feature",
      "geometry": {
        "type": "Point",
        "coordinates": [
          2.61254969951,
          48.41007047402
        ]
      },
      "properties": {
        "grade": "4c",
        "circuitNumber": "43",
        "steepness": "wall",
        "height": null,
        "name": "Monde Cruel",
        "bleauInfoId": "304934",
        "circuitColor": "red"
      },
      "id": "problem_2740"
    },
    {
      "type": "Feature",
      "geometry": {
        "type": "Point",
        "coordinates": [
          2.61349417252,
          48.40949205137
        ]
      },
      "properties": {
        "grade": "5c",
        "circuitNumber": "",
        "steepness": "wall",
        "height": null,
        "name": "Les Portugaises",
        "bleauInfoId": "1236",
        "circuitColor": null
      },
      "id": "problem_2801"
    },
    {
      "type": "Feature",
      "geometry": {
        "type": "Point",
        "coordinates": [
          2.61257819815,
          48.41028223411
        ]
      },
      "properties": {
        "grade": "4c",
        "circuitNumber": "37",
        "steepness": "slab",
        "height": null,
        "name": "La Dalle à Grattons",
        "bleauInfoId": "5152",
        "circuitColor": "orange"
      },
      "id": "problem_2733"
    },
    {
      "type": "Feature",
      "geometry": {
        "type": "Point",
        "coordinates": [
          2.61389164237,
          48.41030415564
        ]
      },
      "properties": {
        "grade": "6c",
        "circuitNumber": "",
        "steepness": "wall",
        "height": null,
        "name": "La Malicieuse",
        "bleauInfoId": "17349",
        "circuitColor": null
      },
      "id": "problem_2828"
    },
    {
      "type": "Feature",
      "geometry": {
        "type": "Point",
        "coordinates": [
          2.61302210357,
          48.40981520332
        ]
      },
      "properties": {
        "grade": "4c",
        "circuitNumber": "26",
        "steepness": "slab",
        "height": null,
        "name": "La Dalle de la Grande Arête",
        "bleauInfoId": "305084",
        "circuitColor": "orange"
      },
      "id": "problem_2782"
    },
    {
      "type": "Feature",
      "geometry": {
        "type": "Point",
        "coordinates": [
          2.61400412751,
          48.41063776226
        ]
      },
      "properties": {
        "grade": "6a",
        "circuitNumber": "",
        "steepness": "other",
        "height": null,
        "name": "Hard Rock (assis)",
        "bleauInfoId": "302736",
        "circuitColor": null,
        "tags": [
          "sit_start"
        ]
      },
      "id": "problem_2843"
    },
    {
      "type": "Feature",
      "geometry": {
        "type": "Point",
        "coordinates": [
          2.61321857555,
          48.41057266574
        ]
      },
      "properties": {
        "grade": "7b+",
        "circuitNumber": "",
        "steepness": "overhang",
        "height": null,
        "name": "Substance Mort",
        "bleauInfoId": "13878",
        "circuitColor": null,
        "tags": [
          "risky"
        ]
      },
      "id": "problem_2762"
    },
    {
      "type": "Feature",
      "geometry": {
        "type": "Point",
        "coordinates": [
          2.61134002324,
          48.41004220959
        ]
      },
      "properties": {
        "grade": "5c+",
        "circuitNumber": "8",
        "steepness": "slab",
        "height": null,
        "name": "Ligne de Mire",
        "bleauInfoId": "3208",
        "circuitColor": "white"
      },
      "id": "problem_2712"
    },
    {
      "type": "Feature",
      "geometry": {
        "type": "Point",
        "coordinates": [
          2.61306585727,
          48.40992325387
        ]
      },
      "properties": {
        "grade": "3c",
        "circuitNumber": "33",
        "steepness": "slab",
        "height": null,
        "name": "L'Écho du Ventre",
        "bleauInfoId": "305090",
        "circuitColor": "orange"
      },
      "id": "problem_2775"
    },
    {
      "type": "Feature",
      "geometry": {
        "type": "Point",
        "coordinates": [
          2.61301087199,
          48.41001950889
        ]
      },
      "properties": {
        "grade": "5c",
        "circuitNumber": "27",
        "steepness": "traverse",
        "height": null,
        "name": "Pain Chaud",
        "bleauInfoId": "167812",
        "circuitColor": "red"
      },
      "id": "problem_2764"
    },
    {
      "type": "Feature",
      "geometry": {
        "type": "Point",
        "coordinates": [
          2.61377479864,
          48.41064933497
        ]
      },
      "properties": {
        "grade": "7c",
        "circuitNumber": "",
        "steepness": "wall",
        "height": null,
        "name": "Échine (assis)",
        "bleauInfoId": "514",
        "circuitColor": null,
        "tags": [
          "sit_start"
        ]
      },
      "id": "problem_2852"
    },
    {
      "type": "Feature",
      "geometry": {
        "type": "Point",
        "coordinates": [
          2.61251684261,
          48.40958986511
        ]
      },
      "properties": {
        "grade": "5a",
        "circuitNumber": "15",
        "steepness": "wall",
        "height": null,
        "name": "La Bombasse",
        "bleauInfoId": "3217",
        "circuitColor": "white"
      },
      "id": "problem_2752"
    },
    {
      "type": "Feature",
      "geometry": {
        "type": "Point",
        "coordinates": [
          2.61312603917,
          48.4100288563
        ]
      },
      "properties": {
        "grade": "3c",
        "circuitNumber": "31",
        "steepness": "other",
        "height": null,
        "name": "Dernière Œuvre",
        "bleauInfoId": "145370",
        "circuitColor": "yellow"
      },
      "id": "problem_2766"
    },
    {
      "type": "Feature",
      "geometry": {
        "type": "Point",
        "coordinates": [
          2.61374730583,
          48.41044614469
        ]
      },
      "properties": {
        "grade": "4b",
        "circuitNumber": "33",
        "steepness": "slab",
        "height": null,
        "name": "La Liaison",
        "bleauInfoId": "3239",
        "circuitColor": "white"
      },
      "id": "problem_2832"
    },
    {
      "type": "Feature",
      "geometry": {
        "type": "Point",
        "coordinates": [
          2.61379659142,
          48.41036580303
        ]
      },
      "properties": {
        "grade": "4c",
        "circuitNumber": "32",
        "steepness": "slab",
        "height": null,
        "name": "Basse Pression",
        "bleauInfoId": "3238",
        "circuitColor": "white"
      },
      "id": "problem_2830"
    },
    {
      "type": "Feature",
      "geometry": {
        "type": "Point",
        "coordinates": [
          2.61309586432,
          48.40982388299
        ]
      },
      "properties": {
        "grade": "5c",
        "circuitNumber": "16",
        "steepness": "slab",
        "height": null,
        "name": "Carton Blanc",
        "bleauInfoId": "2257",
        "circuitColor": "white"
      },
      "id": "problem_2784"
    },
    {
      "type": "Feature",
      "geometry": {
        "type": "Point",
        "coordinates": [
          2.61264676211,
          48.41028601752
        ]
      },
      "properties": {
        "grade": "6c",
        "circuitNumber": "",
        "steepness": "wall",
        "height": null,
        "name": "La Figaro (assis)",
        "bleauInfoId": "9683",
        "circuitColor": null,
        "tags": [
          "risky"
        ]
      },
      "id": "problem_2735"
    },
    {
      "type": "Feature",
      "geometry": {
        "type": "Point",
        "coordinates": [
          2.61318806542,
          48.40988809014
        ]
      },
      "properties": {
        "grade": "5c",
        "circuitNumber": "29",
        "steepness": "slab",
        "height": null,
        "name": "Le French Cancan",
        "bleauInfoId": "3187",
        "circuitColor": "red"
      },
      "id": "problem_2773"
    },
    {
      "type": "Feature",
      "geometry": {
        "type": "Point",
        "coordinates": [
          2.61302411523,
          48.41042121876
        ]
      },
      "properties": {
        "grade": "5b",
        "circuitNumber": "37",
        "steepness": "wall",
        "height": null,
        "name": "Crack System",
        "bleauInfoId": "3244",
        "circuitColor": "white"
      },
      "id": "problem_2760"
    },
    {
      "type": "Feature",
      "geometry": {
        "type": "Point",
        "coordinates": [
          2.61425793137,
          48.41048486888
        ]
      },
      "properties": {
        "grade": "6c+",
        "circuitNumber": "",
        "steepness": "slab",
        "height": null,
        "name": "Particule Élémentaire",
        "bleauInfoId": "12225",
        "circuitColor": null
      },
      "id": "problem_2833"
    },
    {
      "type": "Feature",
      "geometry": {
        "type": "Point",
        "coordinates": [
          2.61327456666,
          48.40983590088
        ]
      },
      "properties": {
        "grade": "5b+",
        "circuitNumber": "30",
        "steepness": "slab",
        "height": null,
        "name": "Sortie du Four",
        "bleauInfoId": "304946",
        "circuitColor": "red"
      },
      "id": "problem_2791"
    },
    {
      "type": "Feature",
      "geometry": {
        "type": "Point",
        "coordinates": [
          2.61251617189,
          48.40980986199
        ]
      },
      "properties": {
        "grade": "5c",
        "circuitNumber": "",
        "steepness": "other",
        "height": null,
        "name": "Hebegibies",
        "bleauInfoId": "",
        "circuitColor": null
      },
      "id": "problem_2741"
    },
    {
      "type": "Feature",
      "geometry": {
        "type": "Point",
        "coordinates": [
          2.61437293109,
          48.41053894917
        ]
      },
      "properties": {
        "grade": "7b",
        "circuitNumber": "",
        "steepness": "other",
        "height": null,
        "name": "L'Hipposarse",
        "bleauInfoId": "1647",
        "circuitColor": null
      },
      "id": "problem_2835"
    },
    {
      "type": "Feature",
      "geometry": {
        "type": "Point",
        "coordinates": [
          2.61393606629,
          48.41017774519
        ]
      },
      "properties": {
        "grade": "6a",
        "circuitNumber": "27",
        "steepness": "wall",
        "height": null,
        "name": "Le Mur en Coin",
        "bleauInfoId": "3229",
        "circuitColor": "white"
      },
      "id": "problem_2819"
    },
    {
      "type": "Feature",
      "geometry": {
        "type": "Point",
        "coordinates": [
          2.61296711829,
          48.40991379538
        ]
      },
      "properties": {
        "grade": "5c",
        "circuitNumber": "18",
        "steepness": "wall",
        "height": null,
        "name": "Interception",
        "bleauInfoId": "3221",
        "circuitColor": "white"
      },
      "id": "problem_2776"
    },
    {
      "type": "Feature",
      "geometry": {
        "type": "Point",
        "coordinates": [
          2.61315805821,
          48.40983022572
        ]
      },
      "properties": {
        "grade": "3a+",
        "circuitNumber": "28",
        "steepness": "other",
        "height": null,
        "name": "L'Émotion",
        "bleauInfoId": "159786",
        "circuitColor": "yellow"
      },
      "id": "problem_2786"
    },
    {
      "type": "Feature",
      "geometry": {
        "type": "Point",
        "coordinates": [
          2.61401116814,
          48.41054940913
        ]
      },
      "properties": {
        "grade": "7c",
        "circuitNumber": "",
        "steepness": "traverse",
        "height": null,
        "name": "Constellation",
        "bleauInfoId": "517",
        "circuitColor": null
      },
      "id": "problem_2837"
    },
    {
      "type": "Feature",
      "geometry": {
        "type": "Point",
        "coordinates": [
          2.61260552315,
          48.41027110643
        ]
      },
      "properties": {
        "grade": "7a",
        "circuitNumber": "",
        "steepness": "traverse",
        "height": null,
        "name": "Passion et Vertu",
        "bleauInfoId": "481",
        "circuitColor": null,
        "tags": [
          "sit_start"
        ]
      },
      "id": "problem_2731"
    },
    {
      "type": "Feature",
      "geometry": {
        "type": "Point",
        "coordinates": [
          2.61349031693,
          48.40949416561
        ]
      },
      "properties": {
        "grade": "6b",
        "circuitNumber": "",
        "steepness": "other",
        "height": null,
        "name": "Les Portugaises (gauche)",
        "bleauInfoId": "302933",
        "circuitColor": null,
        "tags": [
          "sit_start"
        ]
      },
      "id": "problem_2803"
    },
    {
      "type": "Feature",
      "geometry": {
        "type": "Point",
        "coordinates": [
          2.61295102503,
          48.41022581685
        ]
      },
      "properties": {
        "grade": "6b",
        "circuitNumber": "38",
        "steepness": "slab",
        "height": null,
        "name": "Chute Fatale",
        "bleauInfoId": "3245",
        "circuitColor": "white",
        "tags": [
          "risky"
        ]
      },
      "id": "problem_2757"
    },
    {
      "type": "Feature",
      "geometry": {
        "type": "Point",
        "coordinates": [
          2.61398971047,
          48.41025185565
        ]
      },
      "properties": {
        "grade": "5a",
        "circuitNumber": "35",
        "steepness": "other",
        "height": null,
        "name": "Hors d'Œuvre",
        "bleauInfoId": "304943",
        "circuitColor": "red"
      },
      "id": "problem_2821"
    },
    {
      "type": "Feature",
      "geometry": {
        "type": "Point",
        "coordinates": [
          2.61134421436,
          48.41003297345
        ]
      },
      "properties": {
        "grade": "6a",
        "circuitNumber": "",
        "steepness": "overhang",
        "height": null,
        "name": "La Gazeuse",
        "bleauInfoId": "3209",
        "circuitColor": null
      },
      "id": "problem_2713"
    },
    {
      "type": "Feature",
      "geometry": {
        "type": "Point",
        "coordinates": [
          2.61386498775,
          48.41027210803
        ]
      },
      "properties": {
        "grade": "5c",
        "circuitNumber": "29",
        "steepness": "traverse",
        "height": null,
        "name": "La Traversée de l'Équerre",
        "bleauInfoId": "3233",
        "circuitColor": "white"
      },
      "id": "problem_2824"
    },
    {
      "type": "Feature",
      "geometry": {
        "type": "Point",
        "coordinates": [
          2.61305697229,
          48.41001795112
        ]
      },
      "properties": {
        "grade": "4b",
        "circuitNumber": "32",
        "steepness": "other",
        "height": null,
        "name": "L'Or Blanc",
        "bleauInfoId": "3220",
        "circuitColor": "orange"
      },
      "id": "problem_2765"
    },
    {
      "type": "Feature",
      "geometry": {
        "type": "Point",
        "coordinates": [
          2.61137455685,
          48.410086164
        ]
      },
      "properties": {
        "grade": "4a",
        "circuitNumber": "",
        "steepness": "other",
        "height": null,
        "name": "Fin de Dalle",
        "bleauInfoId": "",
        "circuitColor": null
      },
      "id": "problem_2711"
    },
    {
      "type": "Feature",
      "geometry": {
        "type": "Point",
        "coordinates": [
          2.61398283748,
          48.41066413467
        ]
      },
      "properties": {
        "grade": "7b",
        "circuitNumber": "",
        "steepness": "overhang",
        "height": null,
        "name": "Footrix / Valses de Vienne",
        "bleauInfoId": "498",
        "circuitColor": null
      },
      "id": "problem_2839"
    },
    {
      "type": "Feature",
      "geometry": {
        "type": "Point",
        "coordinates": [
          2.61247459766,
          48.40961935397
        ]
      },
      "properties": {
        "grade": "5a",
        "circuitNumber": "",
        "steepness": "wall",
        "height": null,
        "name": "Passage au Vert",
        "bleauInfoId": "302733",
        "circuitColor": null
      },
      "id": "problem_2749"
    },
    {
      "type": "Feature",
      "geometry": {
        "type": "Point",
        "coordinates": [
          2.6126392184,
          48.41028601752
        ]
      },
      "properties": {
        "grade": "5c",
        "circuitNumber": "39",
        "steepness": "wall",
        "height": null,
        "name": "La Figaro",
        "bleauInfoId": "3246",
        "circuitColor": "white",
        "tags": [
          "risky"
        ]
      },
      "id": "problem_2734"
    },
    {
      "type": "Feature",
      "geometry": {
        "type": "Point",
        "coordinates": [
          2.61264575629,
          48.41031261267
        ]
      },
      "properties": {
        "grade": "6c",
        "circuitNumber": "",
        "steepness": "wall",
        "height": null,
        "name": "La Molière (assis)",
        "bleauInfoId": "9684",
        "circuitColor": null,
        "tags": [
          "sit_start"
        ]
      },
      "id": "problem_2737"
    },
    {
      "type": "Feature",
      "geometry": {
        "type": "Point",
        "coordinates": [
          2.61367421564,
          48.41070630836
        ]
      },
      "properties": {
        "grade": "6a+",
        "circuitNumber": "",
        "steepness": "traverse",
        "height": null,
        "name": "Viande Hachée",
        "bleauInfoId": "14795",
        "circuitColor": null
      },
      "id": "problem_2846"
    },
    {
      "type": "Feature",
      "geometry": {
        "type": "Point",
        "coordinates": [
          2.61343449287,
          48.40986327554
        ]
      },
      "properties": {
        "grade": "2c",
        "circuitNumber": "30",
        "steepness": "slab",
        "height": null,
        "name": "Promenade Faîtière",
        "bleauInfoId": "81828",
        "circuitColor": "yellow"
      },
      "id": "problem_2805"
    },
    {
      "type": "Feature",
      "geometry": {
        "type": "Point",
        "coordinates": [
          2.61288765784,
          48.41017373922
        ]
      },
      "properties": {
        "grade": "5b",
        "circuitNumber": "40",
        "steepness": "wall",
        "height": null,
        "name": "Prise de Vitesse",
        "bleauInfoId": "304937",
        "circuitColor": "red"
      },
      "id": "problem_2755"
    },
    {
      "type": "Feature",
      "geometry": {
        "type": "Point",
        "coordinates": [
          2.61333223416,
          48.41031494948
        ]
      },
      "properties": {
        "grade": "7a",
        "circuitNumber": "",
        "steepness": "other",
        "height": null,
        "name": "Fantomas",
        "bleauInfoId": "1488",
        "circuitColor": null
      },
      "id": "problem_2810"
    },
    {
      "type": "Feature",
      "geometry": {
        "type": "Point",
        "coordinates": [
          2.61391192641,
          48.41026854717
        ]
      },
      "properties": {
        "grade": "4b",
        "circuitNumber": "37",
        "steepness": "other",
        "height": null,
        "name": "L'Équerre",
        "bleauInfoId": "5147",
        "circuitColor": "red"
      },
      "id": "problem_2823"
    },
    {
      "type": "Feature",
      "geometry": {
        "type": "Point",
        "coordinates": [
          2.61254567636,
          48.41024473381
        ]
      },
      "properties": {
        "grade": "5b+",
        "circuitNumber": "42",
        "steepness": "wall",
        "height": null,
        "name": "La Maîtresse",
        "bleauInfoId": "3249",
        "circuitColor": "white"
      },
      "id": "problem_2726"
    },
    {
      "type": "Feature",
      "geometry": {
        "type": "Point",
        "coordinates": [
          2.61382106675,
          48.41025919981
        ]
      },
      "properties": {
        "grade": "7a+",
        "circuitNumber": "",
        "steepness": "other",
        "height": null,
        "name": "Graine d'Étoiles",
        "bleauInfoId": "17366",
        "circuitColor": null
      },
      "id": "problem_2825"
    },
    {
      "type": "Feature",
      "geometry": {
        "type": "Point",
        "coordinates": [
          2.61290576292,
          48.41019043066
        ]
      },
      "properties": {
        "grade": "4b",
        "circuitNumber": "39",
        "steepness": "slab",
        "height": null,
        "name": "Alerte Rouge",
        "bleauInfoId": "304938",
        "circuitColor": "red",
        "tags": [
          "risky"
        ]
      },
      "id": "problem_2756"
    },
    {
      "type": "Feature",
      "geometry": {
        "type": "Point",
        "coordinates": [
          2.61300399883,
          48.40987796387
        ]
      },
      "properties": {
        "grade": "3b",
        "circuitNumber": "27",
        "steepness": "slab",
        "height": null,
        "name": "Le Toboggan",
        "bleauInfoId": "212305",
        "circuitColor": "orange"
      },
      "id": "problem_2777"
    },
    {
      "type": "Feature",
      "geometry": {
        "type": "Point",
        "coordinates": [
          2.61398652552,
          48.41064532903
        ]
      },
      "properties": {
        "grade": "7a",
        "circuitNumber": "",
        "steepness": "wall",
        "height": null,
        "name": "Plat-Eau",
        "bleauInfoId": "13808",
        "circuitColor": null
      },
      "id": "problem_2841"
    },
    {
      "type": "Feature",
      "geometry": {
        "type": "Point",
        "coordinates": [
          2.61252555963,
          48.41024273094
        ]
      },
      "properties": {
        "grade": "4c",
        "circuitNumber": "42",
        "steepness": "wall",
        "height": null,
        "name": "Rive Gauche",
        "bleauInfoId": "304935",
        "circuitColor": "red"
      },
      "id": "problem_2725"
    },
    {
      "type": "Feature",
      "geometry": {
        "type": "Point",
        "coordinates": [
          2.61418350007,
          48.40989688118
        ]
      },
      "properties": {
        "grade": "5c",
        "circuitNumber": "24",
        "steepness": "wall",
        "height": null,
        "name": "Coulée Noire",
        "bleauInfoId": "3227",
        "circuitColor": "white"
      },
      "id": "problem_2807"
    },
    {
      "type": "Feature",
      "geometry": {
        "type": "Point",
        "coordinates": [
          2.61339224858,
          48.41031862161
        ]
      },
      "properties": {
        "grade": "7a",
        "circuitNumber": "",
        "steepness": "wall",
        "height": null,
        "name": "Basse Tension",
        "bleauInfoId": "1129",
        "circuitColor": null
      },
      "id": "problem_2812"
    },
    {
      "type": "Feature",
      "geometry": {
        "type": "Point",
        "coordinates": [
          2.61370807853,
          48.41066535882
        ]
      },
      "properties": {
        "grade": "5a",
        "circuitNumber": "",
        "steepness": "wall",
        "height": null,
        "name": "Carotte Râpée",
        "bleauInfoId": "302690",
        "circuitColor": null
      },
      "id": "problem_2849"
    },
    {
      "type": "Feature",
      "geometry": {
        "type": "Point",
        "coordinates": [
          2.61270090904,
          48.41028701912
        ]
      },
      "properties": {
        "grade": "2c",
        "circuitNumber": "36",
        "steepness": "traverse",
        "height": null,
        "name": "La Vire",
        "bleauInfoId": "260312",
        "circuitColor": "orange"
      },
      "id": "problem_2738"
    },
    {
      "type": "Feature",
      "geometry": {
        "type": "Point",
        "coordinates": [
          2.6132417096,
          48.40983133849
        ]
      },
      "properties": {
        "grade": "3b",
        "circuitNumber": "29",
        "steepness": "slab",
        "height": null,
        "name": "La Béatrice",
        "bleauInfoId": "175413",
        "circuitColor": "yellow"
      },
      "id": "problem_2793"
    },
    {
      "type": "Feature",
      "geometry": {
        "type": "Point",
        "coordinates": [
          2.6129783502,
          48.41031205629
        ]
      },
      "properties": {
        "grade": "3a",
        "circuitNumber": "32",
        "steepness": "slab",
        "height": null,
        "name": "La Patte de l'Ours",
        "bleauInfoId": "176500",
        "circuitColor": "yellow"
      },
      "id": "problem_2759"
    },
    {
      "type": "Feature",
      "geometry": {
        "type": "Point",
        "coordinates": [
          2.61374160614,
          48.4101806384
        ]
      },
      "properties": {
        "grade": "6a",
        "circuitNumber": "28",
        "steepness": "wall",
        "height": null,
        "name": "Ligne Blanche",
        "bleauInfoId": "3231",
        "circuitColor": "white"
      },
      "id": "problem_2817"
    },
    {
      "type": "Feature",
      "geometry": {
        "type": "Point",
        "coordinates": [
          2.61388510432,
          48.4102919153
        ]
      },
      "properties": {
        "grade": "6a",
        "circuitNumber": "30",
        "steepness": "other",
        "height": null,
        "name": "La Masse",
        "bleauInfoId": "3235",
        "circuitColor": "white",
        "tags": [
          "risky"
        ]
      },
      "id": "problem_2827"
    },
    {
      "type": "Feature",
      "geometry": {
        "type": "Point",
        "coordinates": [
          2.61322326925,
          48.40979161242
        ]
      },
      "properties": {
        "grade": "4b",
        "circuitNumber": "28",
        "steepness": "wall",
        "height": null,
        "name": "Le Râteau",
        "bleauInfoId": "32568",
        "circuitColor": "orange"
      },
      "id": "problem_2794"
    },
    {
      "type": "Feature",
      "geometry": {
        "type": "Point",
        "coordinates": [
          2.61329166558,
          48.40955369976
        ]
      },
      "properties": {
        "grade": "5a",
        "circuitNumber": "22",
        "steepness": "wall",
        "height": null,
        "name": "Astuce Grattons",
        "bleauInfoId": "304819",
        "circuitColor": "white"
      },
      "id": "problem_2799"
    },
    {
      "type": "Feature",
      "geometry": {
        "type": "Point",
        "coordinates": [
          2.61342259107,
          48.4103129465
        ]
      },
      "properties": {
        "grade": "6b",
        "circuitNumber": "",
        "steepness": "traverse",
        "height": null,
        "name": "Haute Pression",
        "bleauInfoId": "3243",
        "circuitColor": null
      },
      "id": "problem_2814"
    },
    {
      "type": "Feature",
      "geometry": {
        "type": "Point",
        "coordinates": [
          2.61377664266,
          48.41064710945
        ]
      },
      "properties": {
        "grade": "7b+",
        "circuitNumber": "",
        "steepness": "wall",
        "height": null,
        "name": "Échine",
        "bleauInfoId": "496",
        "circuitColor": null
      },
      "id": "problem_2851"
    },
    {
      "type": "Feature",
      "geometry": {
        "type": "Point",
        "coordinates": [
          2.61311933381,
          48.40990467051
        ]
      },
      "properties": {
        "grade": "5c",
        "circuitNumber": "19",
        "steepness": "overhang",
        "height": null,
        "name": "Le Trouillarde",
        "bleauInfoId": "3222",
        "circuitColor": "white"
      },
      "id": "problem_2771"
    },
    {
      "type": "Feature",
      "geometry": {
        "type": "Point",
        "coordinates": [
          2.61320650561,
          48.40989409913
        ]
      },
      "properties": {
        "grade": "4a",
        "circuitNumber": "30",
        "steepness": "wall",
        "height": null,
        "name": "Le Crabe",
        "bleauInfoId": "113582",
        "circuitColor": "orange"
      },
      "id": "problem_2774"
    },
    {
      "type": "Feature",
      "geometry": {
        "type": "Point",
        "coordinates": [
          2.61251214858,
          48.40966074946
        ]
      },
      "properties": {
        "grade": "3b",
        "circuitNumber": "24",
        "steepness": "slab",
        "height": null,
        "name": "Vieux Pas Sage",
        "bleauInfoId": "157155",
        "circuitColor": "yellow"
      },
      "id": "problem_2748"
    },
    {
      "type": "Feature",
      "geometry": {
        "type": "Point",
        "coordinates": [
          2.61373624172,
          48.41036224218
        ]
      },
      "properties": {
        "grade": "6c",
        "circuitNumber": "",
        "steepness": "overhang",
        "height": null,
        "name": "Brutal",
        "bleauInfoId": "17363",
        "circuitColor": null,
        "tags": [
          "sit_start"
        ]
      },
      "id": "problem_2831"
    },
    {
      "type": "Feature",
      "geometry": {
        "type": "Point",
        "coordinates": [
          2.61389700679,
          48.41031967874
        ]
      },
      "properties": {
        "grade": "5c",
        "circuitNumber": "31",
        "steepness": "other",
        "height": null,
        "name": "La Terrifiante",
        "bleauInfoId": "3237",
        "circuitColor": "white",
        "tags": [
          "risky"
        ]
      },
      "id": "problem_2829"
    },
    {
      "type": "Feature",
      "geometry": {
        "type": "Point",
        "coordinates": [
          2.61305361953,
          48.40982076721
        ]
      },
      "properties": {
        "grade": "5a",
        "circuitNumber": "25",
        "steepness": "slab",
        "height": null,
        "name": "Carton Rouge",
        "bleauInfoId": "279252",
        "circuitColor": "red"
      },
      "id": "problem_2783"
    },
    {
      "type": "Feature",
      "geometry": {
        "type": "Point",
        "coordinates": [
          2.61318923889,
          48.40983378661
        ]
      },
      "properties": {
        "grade": "3b",
        "circuitNumber": "",
        "steepness": "other",
        "height": null,
        "name": "Bonzo",
        "bleauInfoId": "",
        "circuitColor": null
      },
      "id": "problem_2787"
    },
    {
      "type": "Feature",
      "geometry": {
        "type": "Point",
        "coordinates": [
          2.61373490062,
          48.41072121933
        ]
      },
      "properties": {
        "grade": "6b",
        "circuitNumber": "",
        "steepness": "slab",
        "height": null,
        "name": "Pain Trop n'en Faut",
        "bleauInfoId": "14796",
        "circuitColor": null
      },
      "id": "problem_2844"
    },
    {
      "type": "Feature",
      "geometry": {
        "type": "Point",
        "coordinates": [
          2.61260887591,
          48.41027433346
        ]
      },
      "properties": {
        "grade": "5c",
        "circuitNumber": "41",
        "steepness": "other",
        "height": null,
        "name": "La Narine",
        "bleauInfoId": "3248",
        "circuitColor": "white"
      },
      "id": "problem_2730"
    },
    {
      "type": "Feature",
      "geometry": {
        "type": "Point",
        "coordinates": [
          2.61346030964,
          48.4105298244
        ]
      },
      "properties": {
        "grade": "6a",
        "circuitNumber": "35",
        "steepness": "wall",
        "height": null,
        "name": "Pendule",
        "bleauInfoId": "3241",
        "circuitColor": "white"
      },
      "id": "problem_2853"
    },
    {
      "type": "Feature",
      "geometry": {
        "type": "Point",
        "coordinates": [
          2.6113492435,
          48.41005634169
        ]
      },
      "properties": {
        "grade": "4b",
        "circuitNumber": "15",
        "steepness": "slab",
        "height": null,
        "name": "La Dragée Haute",
        "bleauInfoId": "5139",
        "circuitColor": "orange"
      },
      "id": "problem_2710"
    },
    {
      "type": "Feature",
      "geometry": {
        "type": "Point",
        "coordinates": [
          2.61301573349,
          48.40985292638
        ]
      },
      "properties": {
        "grade": "5a+",
        "circuitNumber": "26",
        "steepness": "slab",
        "height": null,
        "name": "Séquence Émotion",
        "bleauInfoId": "304947",
        "circuitColor": "red"
      },
      "id": "problem_2778"
    },
    {
      "type": "Feature",
      "geometry": {
        "type": "Point",
        "coordinates": [
          2.612545844,
          48.40966586815
        ]
      },
      "properties": {
        "grade": "5b",
        "circuitNumber": "21",
        "steepness": "slab",
        "height": null,
        "name": "Le Kick",
        "bleauInfoId": "3185",
        "circuitColor": "red"
      },
      "id": "problem_2747"
    },
    {
      "type": "Feature",
      "geometry": {
        "type": "Point",
        "coordinates": [
          2.61331982894,
          48.40969335384
        ]
      },
      "properties": {
        "grade": "5b",
        "circuitNumber": "21",
        "steepness": "wall",
        "height": null,
        "name": "Chute de Tension",
        "bleauInfoId": "3223",
        "circuitColor": "white"
      },
      "id": "problem_2795"
    },
    {
      "type": "Feature",
      "geometry": {
        "type": "Point",
        "coordinates": [
          2.61310793443,
          48.40992169598
        ]
      },
      "properties": {
        "grade": "5c",
        "circuitNumber": "28",
        "steepness": "wall",
        "height": null,
        "name": "Investigation",
        "bleauInfoId": "302734",
        "circuitColor": "red"
      },
      "id": "problem_2770"
    },
    {
      "type": "Feature",
      "geometry": {
        "type": "Point",
        "coordinates": [
          2.6131342536,
          48.40982733249
        ]
      },
      "properties": {
        "grade": "6a",
        "circuitNumber": "",
        "steepness": "slab",
        "height": null,
        "name": "Mon Ben",
        "bleauInfoId": "302415",
        "circuitColor": null
      },
      "id": "problem_2785"
    },
    {
      "type": "Feature",
      "geometry": {
        "type": "Point",
        "coordinates": [
          2.61368092116,
          48.41069718374
        ]
      },
      "properties": {
        "grade": "4b",
        "circuitNumber": "",
        "steepness": "wall",
        "height": null,
        "name": "Champ de Bosses",
        "bleauInfoId": "302693",
        "circuitColor": null
      },
      "id": "problem_2847"
    },
    {
      "type": "Feature",
      "geometry": {
        "type": "Point",
        "coordinates": [
          2.61426379887,
          48.41048353345
        ]
      },
      "properties": {
        "grade": "7b",
        "circuitNumber": "",
        "steepness": "slab",
        "height": null,
        "name": "Particule Élémentaire (statique)",
        "bleauInfoId": "300254",
        "circuitColor": null
      },
      "id": "problem_2834"
    },
    {
      "type": "Feature",
      "geometry": {
        "type": "Point",
        "coordinates": [
          2.6124643719,
          48.40972273125
        ]
      },
      "properties": {
        "grade": "6b",
        "circuitNumber": "",
        "steepness": "wall",
        "height": null,
        "name": "C'est pour Jouer!",
        "bleauInfoId": "24741",
        "circuitColor": null
      },
      "id": "problem_2745"
    },
    {
      "type": "Feature",
      "geometry": {
        "type": "Point",
        "coordinates": [
          2.61335603859,
          48.40970236748
        ]
      },
      "properties": {
        "grade": "7b",
        "circuitNumber": "",
        "steepness": "wall",
        "height": null,
        "name": "Haute Tension",
        "bleauInfoId": "500",
        "circuitColor": null
      },
      "id": "problem_2797"
    },
    {
      "type": "Feature",
      "geometry": {
        "type": "Point",
        "coordinates": [
          2.61437829567,
          48.41053672353
        ]
      },
      "properties": {
        "grade": "8a",
        "circuitNumber": "",
        "steepness": "other",
        "height": null,
        "name": "L'Hipposarse (assis)",
        "bleauInfoId": "22404",
        "circuitColor": null,
        "tags": [
          "sit_start"
        ]
      },
      "id": "problem_2836"
    },
    {
      "type": "Feature",
      "geometry": {
        "type": "Point",
        "coordinates": [
          2.611406911,
          48.41011921333
        ]
      },
      "properties": {
        "grade": "5c",
        "circuitNumber": "9",
        "steepness": "other",
        "height": null,
        "name": "Misèroidalle",
        "bleauInfoId": "3210",
        "circuitColor": "white",
        "tags": [
          "risky"
        ]
      },
      "id": "problem_2709"
    },
    {
      "type": "Feature",
      "geometry": {
        "type": "Point",
        "coordinates": [
          2.61345092174,
          48.40949628007
        ]
      },
      "properties": {
        "grade": "5b",
        "circuitNumber": "23",
        "steepness": "slab",
        "height": null,
        "name": "Le Sourire",
        "bleauInfoId": "3226",
        "circuitColor": "white"
      },
      "id": "problem_2800"
    },
    {
      "type": "Feature",
      "geometry": {
        "type": "Point",
        "coordinates": [
          2.61339208094,
          48.4105569758
        ]
      },
      "properties": {
        "grade": "7a+",
        "circuitNumber": "",
        "steepness": "wall",
        "height": null,
        "name": "Le Magnifique",
        "bleauInfoId": "463",
        "circuitColor": null
      },
      "id": "problem_2857"
    },
    {
      "type": "Feature",
      "geometry": {
        "type": "Point",
        "coordinates": [
          2.61390756782,
          48.41016394684
        ]
      },
      "properties": {
        "grade": "3c+",
        "circuitNumber": "",
        "steepness": "other",
        "height": null,
        "name": "Le Faux French Cancan",
        "bleauInfoId": "",
        "circuitColor": null
      },
      "id": "problem_2818"
    },
    {
      "type": "Feature",
      "geometry": {
        "type": "Point",
        "coordinates": [
          2.61311380176,
          48.40987095337
        ]
      },
      "properties": {
        "grade": "3a",
        "circuitNumber": "",
        "steepness": "other",
        "height": null,
        "name": "Teflon",
        "bleauInfoId": "",
        "circuitColor": null
      },
      "id": "problem_2780"
    },
    {
      "type": "Feature",
      "geometry": {
        "type": "Point",
        "coordinates": [
          2.61316912232,
          48.4098813022
        ]
      },
      "properties": {
        "grade": "5c",
        "circuitNumber": "17",
        "steepness": "wall",
        "height": null,
        "name": "L'Hypoténuse",
        "bleauInfoId": "3219",
        "circuitColor": "white"
      },
      "id": "problem_2772"
    },
    {
      "type": "Feature",
      "geometry": {
        "type": "Point",
        "coordinates": [
          2.6139907163,
          48.41054762871
        ]
      },
      "properties": {
        "grade": "8c",
        "circuitNumber": "",
        "steepness": "traverse",
        "height": null,
        "name": "Voluptueuse Fantaisie",
        "bleauInfoId": "9426",
        "circuitColor": null
      },
      "id": "problem_2838"
    },
    {
      "type": "Feature",
      "geometry": {
        "type": "Point",
        "coordinates": [
          2.61319879409,
          48.40998612578
        ]
      },
      "properties": {
        "grade": "3b",
        "circuitNumber": "31",
        "steepness": "wall",
        "height": null,
        "name": "L'Or Noir",
        "bleauInfoId": "197603",
        "circuitColor": "orange"
      },
      "id": "problem_2769"
    },
    {
      "type": "Feature",
      "geometry": {
        "type": "Point",
        "coordinates": [
          2.61349123886,
          48.41053143791
        ]
      },
      "properties": {
        "grade": "6a",
        "circuitNumber": "",
        "steepness": "other",
        "height": null,
        "name": "Baffe à la PAF",
        "bleauInfoId": "19557",
        "circuitColor": null,
        "tags": [
          "sit_start"
        ]
      },
      "id": "problem_2854"
    },
    {
      "type": "Feature",
      "geometry": {
        "type": "Point",
        "coordinates": [
          2.61338051375,
          48.41023227091
        ]
      },
      "properties": {
        "grade": "5c",
        "circuitNumber": "",
        "steepness": "other",
        "height": null,
        "name": "Fissure USA",
        "bleauInfoId": "",
        "circuitColor": null
      },
      "id": "problem_2809"
    },
    {
      "type": "Feature",
      "geometry": {
        "type": "Point",
        "coordinates": [
          2.61308111217,
          48.40969680358
        ]
      },
      "properties": {
        "grade": "4a",
        "circuitNumber": "25",
        "steepness": "slab",
        "height": null,
        "name": "La Simplification",
        "bleauInfoId": "305095",
        "circuitColor": "orange"
      },
      "id": "problem_2789"
    },
    {
      "type": "Feature",
      "geometry": {
        "type": "Point",
        "coordinates": [
          2.61397026446,
          48.41025697438
        ]
      },
      "properties": {
        "grade": "5a",
        "circuitNumber": "36",
        "steepness": "other",
        "height": null,
        "name": "Fil à Plomb",
        "bleauInfoId": "304942",
        "circuitColor": "red"
      },
      "id": "problem_2822"
    },
    {
      "type": "Feature",
      "geometry": {
        "type": "Point",
        "coordinates": [
          2.61326031743,
          48.40983378661
        ]
      },
      "properties": {
        "grade": "3b",
        "circuitNumber": "29",
        "steepness": "slab",
        "height": null,
        "name": "Champ Libre",
        "bleauInfoId": "118764",
        "circuitColor": "orange"
      },
      "id": "problem_2792"
    },
    {
      "type": "Feature",
      "geometry": {
        "type": "Point",
        "coordinates": [
          2.61398887253,
          48.41066407898
        ]
      },
      "properties": {
        "grade": "7b+",
        "circuitNumber": "",
        "steepness": "overhang",
        "height": null,
        "name": "Forcing",
        "bleauInfoId": "507",
        "circuitColor": null,
        "tags": [
          "sit_start"
        ]
      },
      "id": "problem_2840"
    },
    {
      "type": "Feature",
      "geometry": {
        "type": "Point",
        "coordinates": [
          2.61335939135,
          48.41032240513
        ]
      },
      "properties": {
        "grade": "4b",
        "circuitNumber": "38",
        "steepness": "wall",
        "height": null,
        "name": "Le Fil Suspendu",
        "bleauInfoId": "304941",
        "circuitColor": "red"
      },
      "id": "problem_2811"
    },
    {
      "type": "Feature",
      "geometry": {
        "type": "Point",
        "coordinates": [
          2.61261826364,
          48.41026220428
        ]
      },
      "properties": {
        "grade": "5c",
        "circuitNumber": "",
        "steepness": "other",
        "height": null,
        "name": "La Proue de la Passion",
        "bleauInfoId": "16890",
        "circuitColor": null
      },
      "id": "problem_2728"
    },
    {
      "type": "Feature",
      "geometry": {
        "type": "Point",
        "coordinates": [
          2.61400178058,
          48.41063397888
        ]
      },
      "properties": {
        "grade": "5a+",
        "circuitNumber": "",
        "steepness": "other",
        "height": null,
        "name": "Hard Rock",
        "bleauInfoId": "302735",
        "circuitColor": null
      },
      "id": "problem_2842"
    },
    {
      "type": "Feature",
      "geometry": {
        "type": "Point",
        "coordinates": [
          2.61263737438,
          48.4103129465
        ]
      },
      "properties": {
        "grade": "5c+",
        "circuitNumber": "40",
        "steepness": "wall",
        "height": null,
        "name": "La Molière",
        "bleauInfoId": "3247",
        "circuitColor": "white"
      },
      "id": "problem_2736"
    },
    {
      "type": "Feature",
      "geometry": {
        "type": "Point",
        "coordinates": [
          2.61249354092,
          48.40978916419
        ]
      },
      "properties": {
        "grade": "3a",
        "circuitNumber": "23",
        "steepness": "other",
        "height": null,
        "name": "La Fissure Bontemps",
        "bleauInfoId": "5142",
        "circuitColor": "orange"
      },
      "id": "problem_2742"
    },
    {
      "type": "Feature",
      "geometry": {
        "type": "Point",
        "coordinates": [
          2.6129946111,
          48.4097971762
        ]
      },
      "properties": {
        "grade": "3a",
        "circuitNumber": "27",
        "steepness": "other",
        "height": null,
        "name": "La Grande Arête",
        "bleauInfoId": "5143",
        "circuitColor": "yellow"
      },
      "id": "problem_2781"
    },
    {
      "type": "Feature",
      "geometry": {
        "type": "Point",
        "coordinates": [
          2.61338990165,
          48.41031361416
        ]
      },
      "properties": {
        "grade": "7a+",
        "circuitNumber": "",
        "steepness": "overhang",
        "height": null,
        "name": "Basse Tension (assis)",
        "bleauInfoId": "301139",
        "circuitColor": null,
        "tags": [
          "sit_start"
        ]
      },
      "id": "problem_2813"
    },
    {
      "type": "Feature",
      "geometry": {
        "type": "Point",
        "coordinates": [
          2.61184494909,
          48.41021758236
        ]
      },
      "properties": {
        "grade": "6c",
        "circuitNumber": "",
        "steepness": "wall",
        "height": null,
        "name": "La Molaire",
        "bleauInfoId": "9948",
        "circuitColor": null
      },
      "id": "problem_2630"
    },
    {
      "type": "Feature",
      "geometry": {
        "type": "Point",
        "coordinates": [
          2.61205919053,
          48.41053049217
        ]
      },
      "properties": {
        "grade": "6b",
        "circuitNumber": "",
        "steepness": "slab",
        "height": null,
        "name": "Merci les Gags",
        "bleauInfoId": "9692",
        "circuitColor": null
      },
      "id": "problem_2634"
    },
    {
      "type": "Feature",
      "geometry": {
        "type": "Point",
        "coordinates": [
          2.61055480655,
          48.40996765372
        ]
      },
      "properties": {
        "grade": "6a",
        "circuitNumber": "",
        "steepness": "overhang",
        "height": null,
        "name": "Week-End (assis)",
        "bleauInfoId": "302725",
        "circuitColor": null,
        "tags": [
          "sit_start"
        ]
      },
      "id": "problem_2458"
    },
    {
      "type": "Feature",
      "geometry": {
        "type": "Point",
        "coordinates": [
          2.61147715118,
          48.40990845406
        ]
      },
      "properties": {
        "grade": "4b",
        "circuitNumber": "",
        "steepness": "other",
        "height": null,
        "name": null,
        "bleauInfoId": "",
        "circuitColor": null
      },
      "id": "problem_2580"
    },
    {
      "type": "Feature",
      "geometry": {
        "type": "Point",
        "coordinates": [
          2.61062487893,
          48.41046773254
        ]
      },
      "properties": {
        "grade": "5b",
        "circuitNumber": "",
        "steepness": "wall",
        "height": null,
        "name": "Candide",
        "bleauInfoId": "302727",
        "circuitColor": null
      },
      "id": "problem_2449"
    },
    {
      "type": "Feature",
      "geometry": {
        "type": "Point",
        "coordinates": [
          2.61125754531,
          48.40993916667
        ]
      },
      "properties": {
        "grade": "7c+",
        "circuitNumber": "",
        "steepness": "wall",
        "height": null,
        "name": "Les Yeux pour Pleurer",
        "bleauInfoId": "523",
        "circuitColor": null
      },
      "id": "problem_2498"
    },
    {
      "type": "Feature",
      "geometry": {
        "type": "Point",
        "coordinates": [
          2.61127330329,
          48.40993070958
        ]
      },
      "properties": {
        "grade": "5c",
        "circuitNumber": "5",
        "steepness": "wall",
        "height": null,
        "name": "Le Flux",
        "bleauInfoId": "1583",
        "circuitColor": "white"
      },
      "id": "problem_2499"
    },
    {
      "type": "Feature",
      "geometry": {
        "type": "Point",
        "coordinates": [
          2.61141009562,
          48.4096611948
        ]
      },
      "properties": {
        "grade": "7b",
        "circuitNumber": "",
        "steepness": "other",
        "height": null,
        "name": "Le Bleurb",
        "bleauInfoId": "493",
        "circuitColor": null
      },
      "id": "problem_2531"
    },
    {
      "type": "Feature",
      "geometry": {
        "type": "Point",
        "coordinates": [
          2.61054977741,
          48.41027099526
        ]
      },
      "properties": {
        "grade": "5c",
        "circuitNumber": "",
        "steepness": "slab",
        "height": null,
        "name": "La Savonnette",
        "bleauInfoId": "17356",
        "circuitColor": null
      },
      "id": "problem_2440"
    },
    {
      "type": "Feature",
      "geometry": {
        "type": "Point",
        "coordinates": [
          2.6108555489,
          48.40971905941
        ]
      },
      "properties": {
        "grade": "7b+",
        "circuitNumber": "",
        "steepness": "wall",
        "height": null,
        "name": "Côté Cœur",
        "bleauInfoId": "511",
        "circuitColor": null
      },
      "id": "problem_2520"
    },
    {
      "type": "Feature",
      "geometry": {
        "type": "Point",
        "coordinates": [
          2.61150313525,
          48.40986438799
        ]
      },
      "properties": {
        "grade": "6b+",
        "circuitNumber": "",
        "steepness": "other",
        "height": null,
        "name": "L'Arête du Star (debout)",
        "bleauInfoId": "300220",
        "circuitColor": null
      },
      "id": "problem_2585"
    },
    {
      "type": "Feature",
      "geometry": {
        "type": "Point",
        "coordinates": [
          2.61135075208,
          48.40995296509
        ]
      },
      "properties": {
        "grade": "6b+",
        "circuitNumber": "",
        "steepness": "traverse",
        "height": null,
        "name": "Évolution Permanente",
        "bleauInfoId": "14793",
        "circuitColor": null,
        "tags": [
          "sit_start"
        ]
      },
      "id": "problem_2511"
    },
    {
      "type": "Feature",
      "geometry": {
        "type": "Point",
        "coordinates": [
          2.61190898683,
          48.40990400295
        ]
      },
      "properties": {
        "grade": "6a",
        "circuitNumber": "",
        "steepness": "wall",
        "height": null,
        "name": "L'Ouzo",
        "bleauInfoId": "24018",
        "circuitColor": null,
        "tags": [
          "sit_start"
        ]
      },
      "id": "problem_2566"
    },
    {
      "type": "Feature",
      "geometry": {
        "type": "Point",
        "coordinates": [
          2.61213261601,
          48.40968077953
        ]
      },
      "properties": {
        "grade": "4c",
        "circuitNumber": "17",
        "steepness": "wall",
        "height": null,
        "name": "Le Thermomètre",
        "bleauInfoId": "3215",
        "circuitColor": "red"
      },
      "id": "problem_2691"
    },
    {
      "type": "Feature",
      "geometry": {
        "type": "Point",
        "coordinates": [
          2.61236932095,
          48.4097230652
        ]
      },
      "properties": {
        "grade": "4a",
        "circuitNumber": "",
        "steepness": "other",
        "height": null,
        "name": "Essai",
        "bleauInfoId": "",
        "circuitColor": null
      },
      "id": "problem_2708"
    },
    {
      "type": "Feature",
      "geometry": {
        "type": "Point",
        "coordinates": [
          2.61218726601,
          48.40966942916
        ]
      },
      "properties": {
        "grade": "3b",
        "circuitNumber": "19",
        "steepness": "wall",
        "height": null,
        "name": "La Sableuse",
        "bleauInfoId": "305096",
        "circuitColor": "orange"
      },
      "id": "problem_2694"
    },
    {
      "type": "Feature",
      "geometry": {
        "type": "Point",
        "coordinates": [
          2.61124161987,
          48.40987874281
        ]
      },
      "properties": {
        "grade": "5b",
        "circuitNumber": "",
        "steepness": "wall",
        "height": null,
        "name": "L'Invisible",
        "bleauInfoId": "301216",
        "circuitColor": null
      },
      "id": "problem_2574"
    },
    {
      "type": "Feature",
      "geometry": {
        "type": "Point",
        "coordinates": [
          2.61145200547,
          48.40958240957
        ]
      },
      "properties": {
        "grade": "6b",
        "circuitNumber": "",
        "steepness": "slab",
        "height": null,
        "name": "Filigrane",
        "bleauInfoId": "14792",
        "circuitColor": null
      },
      "id": "problem_2534"
    },
    {
      "type": "Feature",
      "geometry": {
        "type": "Point",
        "coordinates": [
          2.61144798215,
          48.40949138381
        ]
      },
      "properties": {
        "grade": "7b+",
        "circuitNumber": "",
        "steepness": "other",
        "height": null,
        "name": "Double Entorse",
        "bleauInfoId": "1022",
        "circuitColor": null
      },
      "id": "problem_2541"
    },
    {
      "type": "Feature",
      "geometry": {
        "type": "Point",
        "coordinates": [
          2.61045958813,
          48.41025341352
        ]
      },
      "properties": {
        "grade": "6a+",
        "circuitNumber": "",
        "steepness": "traverse",
        "height": null,
        "name": "Vieille Canaille",
        "bleauInfoId": "14802",
        "circuitColor": null
      },
      "id": "problem_2447"
    },
    {
      "type": "Feature",
      "geometry": {
        "type": "Point",
        "coordinates": [
          2.61163104292,
          48.4096921299
        ]
      },
      "properties": {
        "grade": "6a+",
        "circuitNumber": "",
        "steepness": "other",
        "height": null,
        "name": "Coup de Pouce",
        "bleauInfoId": "301213",
        "circuitColor": null
      },
      "id": "problem_2560"
    },
    {
      "type": "Feature",
      "geometry": {
        "type": "Point",
        "coordinates": [
          2.61195760187,
          48.41050423097
        ]
      },
      "properties": {
        "grade": "7a",
        "circuitNumber": "",
        "steepness": "roof",
        "height": null,
        "name": "S'il Vous Plaît",
        "bleauInfoId": "20500",
        "circuitColor": null,
        "tags": [
          "sit_start"
        ]
      },
      "id": "problem_2633"
    },
    {
      "type": "Feature",
      "geometry": {
        "type": "Point",
        "coordinates": [
          2.61181175675,
          48.41025363608
        ]
      },
      "properties": {
        "grade": "4a",
        "circuitNumber": "47",
        "steepness": "traverse",
        "height": null,
        "name": "Le Tire-Poignets",
        "bleauInfoId": "5154",
        "circuitColor": "orange"
      },
      "id": "problem_2625"
    },
    {
      "type": "Feature",
      "geometry": {
        "type": "Point",
        "coordinates": [
          2.61209204776,
          48.41017106846
        ]
      },
      "properties": {
        "grade": "7a",
        "circuitNumber": "",
        "steepness": "wall",
        "height": null,
        "name": "Le Mur Cordier / Acier Damas",
        "bleauInfoId": "474",
        "circuitColor": null
      },
      "id": "problem_2668"
    },
    {
      "type": "Feature",
      "geometry": {
        "type": "Point",
        "coordinates": [
          2.61230092462,
          48.40964383518
        ]
      },
      "properties": {
        "grade": "4c",
        "circuitNumber": "",
        "steepness": "other",
        "height": null,
        "name": "Rouge Pluriel",
        "bleauInfoId": "304923",
        "circuitColor": null
      },
      "id": "problem_2702"
    },
    {
      "type": "Feature",
      "geometry": {
        "type": "Point",
        "coordinates": [
          2.61134052632,
          48.41026954855
        ]
      },
      "properties": {
        "grade": "7c",
        "circuitNumber": "",
        "steepness": "other",
        "height": null,
        "name": "La Reine des Bois",
        "bleauInfoId": "1609",
        "circuitColor": null,
        "tags": [
          "risky"
        ]
      },
      "id": "problem_2600"
    },
    {
      "type": "Feature",
      "geometry": {
        "type": "Point",
        "coordinates": [
          2.61212155189,
          48.40969034945
        ]
      },
      "properties": {
        "grade": "4a+",
        "circuitNumber": "18",
        "steepness": "wall",
        "height": null,
        "name": "La Cascade",
        "bleauInfoId": "3179",
        "circuitColor": "orange"
      },
      "id": "problem_2690"
    },
    {
      "type": "Feature",
      "geometry": {
        "type": "Point",
        "coordinates": [
          2.61130062846,
          48.41015259647
        ]
      },
      "properties": {
        "grade": "7c",
        "circuitNumber": "",
        "steepness": "other",
        "height": null,
        "name": "Petite Folie",
        "bleauInfoId": "1095",
        "circuitColor": null,
        "tags": [
          "risky"
        ]
      },
      "id": "problem_2592"
    },
    {
      "type": "Feature",
      "geometry": {
        "type": "Point",
        "coordinates": [
          2.61234719273,
          48.40980474321
        ]
      },
      "properties": {
        "grade": "7c+",
        "circuitNumber": "",
        "steepness": "overhang",
        "height": null,
        "name": "Uranus (assis)",
        "bleauInfoId": "1105",
        "circuitColor": null,
        "tags": [
          "sit_start"
        ]
      },
      "id": "problem_2688"
    },
    {
      "type": "Feature",
      "geometry": {
        "type": "Point",
        "coordinates": [
          2.61126559194,
          48.41015638
        ]
      },
      "properties": {
        "grade": "7b",
        "circuitNumber": "",
        "steepness": "wall",
        "height": null,
        "name": "Alaxis",
        "bleauInfoId": "491",
        "circuitColor": null,
        "tags": [
          "risky"
        ]
      },
      "id": "problem_2590"
    },
    {
      "type": "Feature",
      "geometry": {
        "type": "Point",
        "coordinates": [
          2.61174805429,
          48.41021090574
        ]
      },
      "properties": {
        "grade": "4a",
        "circuitNumber": "",
        "steepness": "other",
        "height": null,
        "name": "Meaux",
        "bleauInfoId": "",
        "circuitColor": null
      },
      "id": "problem_2621"
    },
    {
      "type": "Feature",
      "geometry": {
        "type": "Point",
        "coordinates": [
          2.61144697633,
          48.40956772083
        ]
      },
      "properties": {
        "grade": "4c",
        "circuitNumber": "13",
        "steepness": "slab",
        "height": null,
        "name": "La Patinette",
        "bleauInfoId": "3175",
        "circuitColor": "red"
      },
      "id": "problem_2535"
    },
    {
      "type": "Feature",
      "geometry": {
        "type": "Point",
        "coordinates": [
          2.6118546721,
          48.40989576841
        ]
      },
      "properties": {
        "grade": "6b",
        "circuitNumber": "",
        "steepness": "other",
        "height": null,
        "name": "Cimetière",
        "bleauInfoId": "",
        "circuitColor": null
      },
      "id": "problem_2564"
    },
    {
      "type": "Feature",
      "geometry": {
        "type": "Point",
        "coordinates": [
          2.61238004979,
          48.40968656599
        ]
      },
      "properties": {
        "grade": "4b+",
        "circuitNumber": "22",
        "steepness": "wall",
        "height": null,
        "name": "Mise en Scène",
        "bleauInfoId": "133660",
        "circuitColor": "orange"
      },
      "id": "problem_2706"
    },
    {
      "type": "Feature",
      "geometry": {
        "type": "Point",
        "coordinates": [
          2.61223906634,
          48.40967243356
        ]
      },
      "properties": {
        "grade": "6c",
        "circuitNumber": "",
        "steepness": "wall",
        "height": null,
        "name": "La Poste (assis)",
        "bleauInfoId": "19302",
        "circuitColor": null,
        "tags": [
          "sit_start"
        ]
      },
      "id": "problem_2698"
    },
    {
      "type": "Feature",
      "geometry": {
        "type": "Point",
        "coordinates": [
          2.61155057665,
          48.40984702877
        ]
      },
      "properties": {
        "grade": "3a",
        "circuitNumber": "12",
        "steepness": "slab",
        "height": null,
        "name": "La Cristalline",
        "bleauInfoId": "178821",
        "circuitColor": "yellow"
      },
      "id": "problem_2578"
    },
    {
      "type": "Feature",
      "geometry": {
        "type": "Point",
        "coordinates": [
          2.6114910653,
          48.40989610213
        ]
      },
      "properties": {
        "grade": "7a+",
        "circuitNumber": "",
        "steepness": "wall",
        "height": null,
        "name": "Blocage Mental (assis)",
        "bleauInfoId": "1062",
        "circuitColor": null,
        "tags": [
          "sit_start"
        ]
      },
      "id": "problem_2582"
    },
    {
      "type": "Feature",
      "geometry": {
        "type": "Point",
        "coordinates": [
          2.61167999323,
          48.41023271602
        ]
      },
      "properties": {
        "grade": "5a",
        "circuitNumber": "47",
        "steepness": "wall",
        "height": null,
        "name": "La Monique",
        "bleauInfoId": "304931",
        "circuitColor": "red"
      },
      "id": "problem_2615"
    },
    {
      "type": "Feature",
      "geometry": {
        "type": "Point",
        "coordinates": [
          2.61117238518,
          48.41018597969
        ]
      },
      "properties": {
        "grade": "6a",
        "circuitNumber": "",
        "steepness": "wall",
        "height": null,
        "name": "Jeu Sérieux",
        "bleauInfoId": "3206",
        "circuitColor": null,
        "tags": [
          "risky"
        ]
      },
      "id": "problem_2588"
    },
    {
      "type": "Feature",
      "geometry": {
        "type": "Point",
        "coordinates": [
          2.61064231362,
          48.41044391916
        ]
      },
      "properties": {
        "grade": "4c",
        "circuitNumber": "",
        "steepness": "wall",
        "height": null,
        "name": "Nouvelle Série",
        "bleauInfoId": "304921",
        "circuitColor": null
      },
      "id": "problem_2451"
    },
    {
      "type": "Feature",
      "geometry": {
        "type": "Point",
        "coordinates": [
          2.61230561865,
          48.41004465758
        ]
      },
      "properties": {
        "grade": "5a",
        "circuitNumber": "45",
        "steepness": "slab",
        "height": null,
        "name": "Le Cendrier",
        "bleauInfoId": "302742",
        "circuitColor": "red"
      },
      "id": "problem_2678"
    },
    {
      "type": "Feature",
      "geometry": {
        "type": "Point",
        "coordinates": [
          2.61049948599,
          48.41029903702
        ]
      },
      "properties": {
        "grade": "3a",
        "circuitNumber": "1",
        "steepness": "slab",
        "height": null,
        "name": "Esprit d'Ouverture",
        "bleauInfoId": "305113",
        "circuitColor": "yellow"
      },
      "id": "problem_2442"
    },
    {
      "type": "Feature",
      "geometry": {
        "type": "Point",
        "coordinates": [
          2.61096887223,
          48.40967410306
        ]
      },
      "properties": {
        "grade": "3b+",
        "circuitNumber": "6",
        "steepness": "slab",
        "height": null,
        "name": "Haute Surveillance",
        "bleauInfoId": "305105",
        "circuitColor": "orange"
      },
      "id": "problem_2522"
    },
    {
      "type": "Feature",
      "geometry": {
        "type": "Point",
        "coordinates": [
          2.61119753089,
          48.4099578613
        ]
      },
      "properties": {
        "grade": "2a+",
        "circuitNumber": "8",
        "steepness": "slab",
        "height": null,
        "name": "Pilier Marbré",
        "bleauInfoId": "94223",
        "circuitColor": "yellow"
      },
      "id": "problem_2489"
    },
    {
      "type": "Feature",
      "geometry": {
        "type": "Point",
        "coordinates": [
          2.61212356355,
          48.41059547747
        ]
      },
      "properties": {
        "grade": "7b",
        "circuitNumber": "",
        "steepness": "overhang",
        "height": null,
        "name": "Pensées Cachées",
        "bleauInfoId": "503",
        "circuitColor": null
      },
      "id": "problem_2641"
    },
    {
      "type": "Feature",
      "geometry": {
        "type": "Point",
        "coordinates": [
          2.61114791019,
          48.41008137908
        ]
      },
      "properties": {
        "grade": "3a",
        "circuitNumber": "10",
        "steepness": "slab",
        "height": null,
        "name": "Le Répit",
        "bleauInfoId": "88340",
        "circuitColor": "orange"
      },
      "id": "problem_2576"
    },
    {
      "type": "Feature",
      "geometry": {
        "type": "Point",
        "coordinates": [
          2.61125687476,
          48.41004577046
        ]
      },
      "properties": {
        "grade": "5a",
        "circuitNumber": "",
        "steepness": "other",
        "height": null,
        "name": "Sushi",
        "bleauInfoId": "",
        "circuitColor": null
      },
      "id": "problem_2507"
    },
    {
      "type": "Feature",
      "geometry": {
        "type": "Point",
        "coordinates": [
          2.61201761629,
          48.41035155963
        ]
      },
      "properties": {
        "grade": "3a+",
        "circuitNumber": "43",
        "steepness": "wall",
        "height": null,
        "name": "Prises Magiques",
        "bleauInfoId": "120619",
        "circuitColor": "orange"
      },
      "id": "problem_2655"
    },
    {
      "type": "Feature",
      "geometry": {
        "type": "Point",
        "coordinates": [
          2.61182734726,
          48.40990756373
        ]
      },
      "properties": {
        "grade": "5c",
        "circuitNumber": "11",
        "steepness": "slab",
        "height": null,
        "name": "La Mythique",
        "bleauInfoId": "3213",
        "circuitColor": "white"
      },
      "id": "problem_2562"
    },
    {
      "type": "Feature",
      "geometry": {
        "type": "Point",
        "coordinates": [
          2.61190161075,
          48.40989955185
        ]
      },
      "properties": {
        "grade": "3b",
        "circuitNumber": "17",
        "steepness": "other",
        "height": null,
        "name": "Le Bouchon",
        "bleauInfoId": "150794",
        "circuitColor": "orange"
      },
      "id": "problem_2565"
    },
    {
      "type": "Feature",
      "geometry": {
        "type": "Point",
        "coordinates": [
          2.61236663874,
          48.41005600797
        ]
      },
      "properties": {
        "grade": "3a",
        "circuitNumber": "35",
        "steepness": "wall",
        "height": null,
        "name": "État d'Allégresse",
        "bleauInfoId": "241500",
        "circuitColor": "yellow"
      },
      "id": "problem_2675"
    },
    {
      "type": "Feature",
      "geometry": {
        "type": "Point",
        "coordinates": [
          2.61238139089,
          48.40967388029
        ]
      },
      "properties": {
        "grade": "4b",
        "circuitNumber": "19",
        "steepness": "wall",
        "height": null,
        "name": "Le Pilier",
        "bleauInfoId": "3182",
        "circuitColor": "red"
      },
      "id": "problem_2705"
    },
    {
      "type": "Feature",
      "geometry": {
        "type": "Point",
        "coordinates": [
          2.61105067961,
          48.40976579617
        ]
      },
      "properties": {
        "grade": "4a",
        "circuitNumber": "7",
        "steepness": "slab",
        "height": null,
        "name": "L'Amuse-Gueule",
        "bleauInfoId": "196040",
        "circuitColor": "orange"
      },
      "id": "problem_2526"
    },
    {
      "type": "Feature",
      "geometry": {
        "type": "Point",
        "coordinates": [
          2.61110499468,
          48.40995719363
        ]
      },
      "properties": {
        "grade": "7a",
        "circuitNumber": "",
        "steepness": "traverse",
        "height": null,
        "name": "Le Mythe de Sisyphe",
        "bleauInfoId": "9946",
        "circuitColor": null
      },
      "id": "problem_2482"
    },
    {
      "type": "Feature",
      "geometry": {
        "type": "Point",
        "coordinates": [
          2.61124413427,
          48.40989064963
        ]
      },
      "properties": {
        "grade": "5b",
        "circuitNumber": "8",
        "steepness": "other",
        "height": null,
        "name": "Double Jeu",
        "bleauInfoId": "253244",
        "circuitColor": "red"
      },
      "id": "problem_2573"
    },
    {
      "type": "Feature",
      "geometry": {
        "type": "Point",
        "coordinates": [
          2.61089108851,
          48.40974131479
        ]
      },
      "properties": {
        "grade": "7a",
        "circuitNumber": "",
        "steepness": "overhang",
        "height": null,
        "name": "La Pierre Ponze",
        "bleauInfoId": "23864",
        "circuitColor": null,
        "tags": [
          "sit_start"
        ]
      },
      "id": "problem_2519"
    },
    {
      "type": "Feature",
      "geometry": {
        "type": "Point",
        "coordinates": [
          2.61126609502,
          48.41025218936
        ]
      },
      "properties": {
        "grade": "6c",
        "circuitNumber": "",
        "steepness": "wall",
        "height": null,
        "name": "Eugster Jovial",
        "bleauInfoId": "460",
        "circuitColor": null
      },
      "id": "problem_2594"
    },
    {
      "type": "Feature",
      "geometry": {
        "type": "Point",
        "coordinates": [
          2.61232405884,
          48.4104304546
        ]
      },
      "properties": {
        "grade": "6c+",
        "circuitNumber": "",
        "steepness": "wall",
        "height": null,
        "name": "L'Orfèvre",
        "bleauInfoId": "13850",
        "circuitColor": null
      },
      "id": "problem_2648"
    },
    {
      "type": "Feature",
      "geometry": {
        "type": "Point",
        "coordinates": [
          2.61178929325,
          48.41021847257
        ]
      },
      "properties": {
        "grade": "3a",
        "circuitNumber": "",
        "steepness": "other",
        "height": null,
        "name": "Brie",
        "bleauInfoId": "",
        "circuitColor": null
      },
      "id": "problem_2619"
    },
    {
      "type": "Feature",
      "geometry": {
        "type": "Point",
        "coordinates": [
          2.61126559211,
          48.40993338013
        ]
      },
      "properties": {
        "grade": "7b",
        "circuitNumber": "",
        "steepness": "wall",
        "height": null,
        "name": "Super Flux",
        "bleauInfoId": "1252",
        "circuitColor": null
      },
      "id": "problem_2501"
    },
    {
      "type": "Feature",
      "geometry": {
        "type": "Point",
        "coordinates": [
          2.61202566259,
          48.40978092996
        ]
      },
      "properties": {
        "grade": "2b",
        "circuitNumber": "20",
        "steepness": "slab",
        "height": null,
        "name": "La Raie du Bus",
        "bleauInfoId": "183700",
        "circuitColor": "yellow"
      },
      "id": "problem_2577"
    },
    {
      "type": "Feature",
      "geometry": {
        "type": "Point",
        "coordinates": [
          2.6117544247,
          48.41027767176
        ]
      },
      "properties": {
        "grade": "6c+",
        "circuitNumber": "",
        "steepness": "overhang",
        "height": null,
        "name": "La Voie du Pin (assis)",
        "bleauInfoId": "9345",
        "circuitColor": null,
        "tags": [
          "sit_start"
        ]
      },
      "id": "problem_2624"
    },
    {
      "type": "Feature",
      "geometry": {
        "type": "Point",
        "coordinates": [
          2.61208014546,
          48.41018141722
        ]
      },
      "properties": {
        "grade": "6b",
        "circuitNumber": "43",
        "steepness": "wall",
        "height": null,
        "name": "Mathusalem",
        "bleauInfoId": "3250",
        "circuitColor": "white"
      },
      "id": "problem_2667"
    },
    {
      "type": "Feature",
      "geometry": {
        "type": "Point",
        "coordinates": [
          2.61119853672,
          48.40999970163
        ]
      },
      "properties": {
        "grade": "5c",
        "circuitNumber": "",
        "steepness": "wall",
        "height": null,
        "name": "Perte de Contrôle",
        "bleauInfoId": "17346",
        "circuitColor": null
      },
      "id": "problem_2494"
    },
    {
      "type": "Feature",
      "geometry": {
        "type": "Point",
        "coordinates": [
          2.61146675762,
          48.40949316427
        ]
      },
      "properties": {
        "grade": "7a+",
        "circuitNumber": "",
        "steepness": "other",
        "height": null,
        "name": "Entorse",
        "bleauInfoId": "459",
        "circuitColor": null
      },
      "id": "problem_2542"
    },
    {
      "type": "Feature",
      "geometry": {
        "type": "Point",
        "coordinates": [
          2.61047769304,
          48.41028991232
        ]
      },
      "properties": {
        "grade": "5a",
        "circuitNumber": "",
        "steepness": "other",
        "height": null,
        "name": "Serge",
        "bleauInfoId": "",
        "circuitColor": null
      },
      "id": "problem_2444"
    },
    {
      "type": "Feature",
      "geometry": {
        "type": "Point",
        "coordinates": [
          2.61209774746,
          48.41017351656
        ]
      },
      "properties": {
        "grade": "7a+",
        "circuitNumber": "",
        "steepness": "wall",
        "height": null,
        "name": "Le Mur Cordier (assis)",
        "bleauInfoId": "23632",
        "circuitColor": null,
        "tags": [
          "sit_start"
        ]
      },
      "id": "problem_2669"
    },
    {
      "type": "Feature",
      "geometry": {
        "type": "Point",
        "coordinates": [
          2.61228684302,
          48.40965273743
        ]
      },
      "properties": {
        "grade": "5a",
        "circuitNumber": "18",
        "steepness": "other",
        "height": null,
        "name": "Le Baromètre",
        "bleauInfoId": "3181",
        "circuitColor": "red"
      },
      "id": "problem_2701"
    },
    {
      "type": "Feature",
      "geometry": {
        "type": "Point",
        "coordinates": [
          2.61179633405,
          48.4103911741
        ]
      },
      "properties": {
        "grade": "5c",
        "circuitNumber": "",
        "steepness": "other",
        "height": null,
        "name": "Fil à Tordre",
        "bleauInfoId": "11550",
        "circuitColor": null
      },
      "id": "problem_2628"
    },
    {
      "type": "Feature",
      "geometry": {
        "type": "Point",
        "coordinates": [
          2.61230763031,
          48.41044024693
        ]
      },
      "properties": {
        "grade": "6a",
        "circuitNumber": "",
        "steepness": "wall",
        "height": null,
        "name": "Envoyé Spécial",
        "bleauInfoId": "17352",
        "circuitColor": null
      },
      "id": "problem_2649"
    },
    {
      "type": "Feature",
      "geometry": {
        "type": "Point",
        "coordinates": [
          2.61125033688,
          48.4101145398
        ]
      },
      "properties": {
        "grade": "6b+",
        "circuitNumber": "",
        "steepness": "other",
        "height": null,
        "name": "La Divine",
        "bleauInfoId": "15425",
        "circuitColor": null,
        "tags": [
          "sit_start"
        ]
      },
      "id": "problem_2490"
    },
    {
      "type": "Feature",
      "geometry": {
        "type": "Point",
        "coordinates": [
          2.61109527167,
          48.41006580037
        ]
      },
      "properties": {
        "grade": "5a+",
        "circuitNumber": "",
        "steepness": "other",
        "height": null,
        "name": "Tango",
        "bleauInfoId": "305107",
        "circuitColor": null
      },
      "id": "problem_2479"
    },
    {
      "type": "Feature",
      "geometry": {
        "type": "Point",
        "coordinates": [
          2.61130481942,
          48.41025753065
        ]
      },
      "properties": {
        "grade": "7a+",
        "circuitNumber": "",
        "steepness": "other",
        "height": null,
        "name": "Agliato (assis)",
        "bleauInfoId": "19559",
        "circuitColor": null,
        "tags": [
          "sit_start",
          "risky"
        ]
      },
      "id": "problem_2597"
    },