{
  "type": "FeatureCollection",
  "features": [
    {
      "type": "Feature",
      "geometry": null,
      "properties": {
        "readme": "****PLEASE READ ME***** This data belongs to boolder.com. Want to use it in your app? Let's discuss: hello@boolder.com"
      }
    },
    {
      "type": "Feature",
      "geometry": {
        "type": "Point",
        "coordinates": [
          2.56216742065,
          48.39106232295
        ]
      },
      "properties": {
        "grade": "6c",
        "circuitNumber": "",
        "steepness": "other",
        "height": null,
        "name": "Petite Insoutenable (assis)",
        "bleauInfoId": "11918",
        "circuitColor": null,
        "circuitId": null,
        "tags": [
          "sit_start"
        ]
      },
      "id": "problem_5705"
    },
    {
      "type": "Feature",
      "geometry": {
        "type": "Point",
        "coordinates": [
          2.56176743623,
          48.39088109552
        ]
      },
      "properties": {
        "grade": "2b",
        "circuitNumber": "22",
        "steepness": "other",
        "height": null,
        "name": "Le Cygne",
        "bleauInfoId": "3416",
        "circuitColor": "orange",
        "circuitId": 77,
        "tags": [

        ]
      },
      "id": "problem_5645"
    },
    {
      "type": "Feature",
      "geometry": {
        "type": "Point",
        "coordinates": [
          2.56219726022,
          48.39050884257
        ]
      },
      "properties": {
        "grade": "7a",
        "circuitNumber": "",
        "steepness": "overhang",
        "height": null,
        "name": "Toubib or not Toubib",
        "bleauInfoId": "113",
        "circuitColor": null,
        "circuitId": null,
        "tags": [

        ]
      },
      "id": "problem_5608"
    },
    {
      "type": "Feature",
      "geometry": {
        "type": "Point",
        "coordinates": [
          2.56238568541,
          48.39012367368
        ]
      },
      "properties": {
        "grade": "6c+",
        "circuitNumber": "",
        "steepness": "wall",
        "height": null,
        "name": "Hélas-Tic",
        "bleauInfoId": "11570",
        "circuitColor": null,
        "circuitId": null,
        "tags": [

        ]
      },
      "id": "problem_5585"
    },
    {
      "type": "Feature",
      "geometry": {
        "type": "Point",
        "coordinates": [
          2.56276655909,
          48.39085348834
        ]
      },
      "properties": {
        "grade": "5a",
        "circuitNumber": "",
        "steepness": "other",
        "height": null,
        "name": "Sans Science",
        "bleauInfoId": "",
        "circuitColor": null,
        "circuitId": null,
        "tags": [

        ]
      },
      "id": "problem_5739"
    },
    {
      "type": "Feature",
      "geometry": {
        "type": "Point",
        "coordinates": [
          2.56104558673,
          48.39043782032
        ]
      },
      "properties": {
        "grade": "5c+",
        "circuitNumber": "",
        "steepness": "traverse",
        "height": null,
        "name": "Vita Stop",
        "bleauInfoId": "3507",
        "circuitColor": null,
        "circuitId": null,
        "tags": [

        ]
      },
      "id": "problem_5626"
    },
    {
      "type": "Feature",
      "geometry": {
        "type": "Point",
        "coordinates": [
          2.56202325158,
          48.3908468094
        ]
      },
      "properties": {
        "grade": "6b",
        "circuitNumber": "",
        "steepness": "overhang",
        "height": null,
        "name": "Extraction Lente",
        "bleauInfoId": "11893",
        "circuitColor": null,
        "circuitId": null,
        "tags": [

        ]
      },
      "id": "problem_5612"
    },
    {
      "type": "Feature",
      "geometry": {
        "type": "Point",
        "coordinates": [
          2.5630257277,
          48.39040965618
        ]
      },
      "properties": {
        "grade": "6a+",
        "circuitNumber": "",
        "steepness": "overhang",
        "height": null,
        "name": "La Dent Fer",
        "bleauInfoId": "11878",
        "circuitColor": null,
        "circuitId": null,
        "tags": [

        ]
      },
      "id": "problem_5557"
    },
    {
      "type": "Feature",
      "geometry": {
        "type": "Point",
        "coordinates": [
          2.56163869036,
          48.39105197018
        ]
      },
      "properties": {
        "grade": "5a",
        "circuitNumber": "",
        "steepness": "other",
        "height": null,
        "name": "Socialiste",
        "bleauInfoId": "",
        "circuitColor": null,
        "circuitId": null,
        "tags": [

        ]
      },
      "id": "problem_5667"
    },
    {
      "type": "Feature",
      "geometry": {
        "type": "Point",
        "coordinates": [
          2.56270419773,
          48.3910910432
        ]
      },
      "properties": {
        "grade": "7b",
        "circuitNumber": "",
        "steepness": "traverse",
        "height": null,
        "name": "La Croisière Jaune",
        "bleauInfoId": "1501",
        "circuitColor": null,
        "circuitId": null,
        "tags": [

        ]
      },
      "id": "problem_5713"
    },
    {
      "type": "Feature",
      "geometry": {
        "type": "Point",
        "coordinates": [
          2.5618824356,
          48.39044116015
        ]
      },
      "properties": {
        "grade": "6a",
        "circuitNumber": "27",
        "steepness": "other",
        "height": null,
        "name": "Gillette Pare Dalle",
        "bleauInfoId": "3502",
        "circuitColor": "red",
        "circuitId": 79,
        "tags": [

        ]
      },
      "id": "problem_5617"
    },
    {
      "type": "Feature",
      "geometry": {
        "type": "Point",
        "coordinates": [
          2.56219357219,
          48.39049704265
        ]
      },
      "properties": {
        "grade": "6a",
        "circuitNumber": "25",
        "steepness": "wall",
        "height": null,
        "name": "L'Opposition Systématique",
        "bleauInfoId": "3499",
        "circuitColor": "red",
        "circuitId": 79,
        "tags": [

        ]
      },
      "id": "problem_5600"
    },
    {
      "type": "Feature",
      "geometry": {
        "type": "Point",
        "coordinates": [
          2.56267905202,
          48.39031269623
        ]
      },
      "properties": {
        "grade": "3b",
        "circuitNumber": "12",
        "steepness": "traverse",
        "height": null,
        "name": "La Papillon",
        "bleauInfoId": "3406",
        "circuitColor": "orange",
        "circuitId": 77,
        "tags": [

        ]
      },
      "id": "problem_5577"
    },
    {
      "type": "Feature",
      "geometry": {
        "type": "Point",
        "coordinates": [
          2.56263848377,
          48.39103104223
        ]
      },
      "properties": {
        "grade": "6a",
        "circuitNumber": "",
        "steepness": "overhang",
        "height": null,
        "name": "La Bombinette",
        "bleauInfoId": "20122",
        "circuitColor": null,
        "circuitId": null,
        "tags": [

        ]
      },
      "id": "problem_5717"
    },
    {
      "type": "Feature",
      "geometry": {
        "type": "Point",
        "coordinates": [
          2.56319118655,
          48.39046743132
        ]
      },
      "properties": {
        "grade": "7b",
        "circuitNumber": "",
        "steepness": "traverse",
        "height": null,
        "name": "Sous Toi / La Canche aux Merciers",
        "bleauInfoId": "118",
        "circuitColor": null,
        "circuitId": null,
        "tags": [

        ]
      },
      "id": "problem_5550"
    },
    {
      "type": "Feature",
      "geometry": {
        "type": "Point",
        "coordinates": [
          2.5630740073,
          48.39023499447
        ]
      },
      "properties": {
        "grade": "6b",
        "circuitNumber": "",
        "steepness": "traverse",
        "height": null,
        "name": "Remue-Ménage",
        "bleauInfoId": "11883",
        "circuitColor": null,
        "circuitId": null,
        "tags": [

        ]
      },
      "id": "problem_5565"
    },
    {
      "type": "Feature",
      "geometry": {
        "type": "Point",
        "coordinates": [
          2.56218049642,
          48.39058186849
        ]
      },
      "properties": {
        "grade": "3b",
        "circuitNumber": "20",
        "steepness": "other",
        "height": null,
        "name": "La Passable",
        "bleauInfoId": "3414",
        "circuitColor": "orange",
        "circuitId": 77,
        "tags": [

        ]
      },
      "id": "problem_5611"
    },
    {
      "type": "Feature",
      "geometry": {
        "type": "Point",
        "coordinates": [
          2.56217027066,
          48.39042256934
        ]
      },
      "properties": {
        "grade": "7a+",
        "circuitNumber": "",
        "steepness": "traverse",
        "height": null,
        "name": "Bande Passante",
        "bleauInfoId": "1050",
        "circuitColor": null,
        "circuitId": null,
        "tags": [

        ]
      },
      "id": "problem_5588"
    },
    {
      "type": "Feature",
      "geometry": {
        "type": "Point",
        "coordinates": [
          2.56303863583,
          48.39039741095
        ]
      },
      "properties": {
        "grade": "5c",
        "circuitNumber": "16",
        "steepness": "wall",
        "height": null,
        "name": "L'Attraction des Pôles",
        "bleauInfoId": "3488",
        "circuitColor": "red",
        "circuitId": 79,
        "tags": [

        ]
      },
      "id": "problem_5556"
    },
    {
      "type": "Feature",
      "geometry": {
        "type": "Point",
        "coordinates": [
          2.56268575754,
          48.39033651882
        ]
      },
      "properties": {
        "grade": "5b",
        "circuitNumber": "21",
        "steepness": "wall",
        "height": null,
        "name": "Le Système D Bloc",
        "bleauInfoId": "3494",
        "circuitColor": "red",
        "circuitId": 79,
        "tags": [

        ]
      },
      "id": "problem_5576"
    },
    {
      "type": "Feature",
      "geometry": {
        "type": "Point",
        "coordinates": [
          2.56118237939,
          48.39043537128
        ]
      },
      "properties": {
        "grade": "5a",
        "circuitNumber": "",
        "steepness": "other",
        "height": null,
        "name": "Red Baron",
        "bleauInfoId": "",
        "circuitColor": null,
        "circuitId": null,
        "tags": [

        ]
      },
      "id": "problem_5629"
    },
    {
      "type": "Feature",
      "geometry": {
        "type": "Point",
        "coordinates": [
          2.56160046872,
          48.39098840717
        ]
      },
      "properties": {
        "grade": "6a+",
        "circuitNumber": "",
        "steepness": "wall",
        "height": null,
        "name": "Tourne à Gauche",
        "bleauInfoId": "11909",
        "circuitColor": null,
        "circuitId": null,
        "tags": [

        ]
      },
      "id": "problem_5670"
    },
    {
      "type": "Feature",
      "geometry": {
        "type": "Point",
        "coordinates": [
          2.56263378974,
          48.39103393663
        ]
      },
      "properties": {
        "grade": "7a+",
        "circuitNumber": "",
        "steepness": "other",
        "height": null,
        "name": "La Bombe Humaine (droite)",
        "bleauInfoId": "13799",
        "circuitColor": null,
        "circuitId": null,
        "tags": [
          "sit_start"
        ]
      },
      "id": "problem_5716"
    },
    {
      "type": "Feature",
      "geometry": {
        "type": "Point",
        "coordinates": [
          2.5624195483,
          48.3905306613
        ]
      },
      "properties": {
        "grade": "6a+",
        "circuitNumber": "",
        "steepness": "wall",
        "height": null,
        "name": "Dr Nimbus",
        "bleauInfoId": "11889",
        "circuitColor": null,
        "circuitId": null,
        "tags": [
          "sit_start"
        ]
      },
      "id": "problem_5603"
    },
    {
      "type": "Feature",
      "geometry": {
        "type": "Point",
        "coordinates": [
          2.56285406616,
          48.39085103932
        ]
      },
      "properties": {
        "grade": "8a",
        "circuitNumber": "",
        "steepness": "wall",
        "height": null,
        "name": "Lucky Luke (assis)",
        "bleauInfoId": "23332",
        "circuitColor": null,
        "circuitId": null,
        "tags": [
          "sit_start"
        ]
      },
      "id": "problem_5743"
    },
    {
      "type": "Feature",
      "geometry": {
        "type": "Point",
        "coordinates": [
          2.56260797348,
          48.39034854142
        ]
      },
      "properties": {
        "grade": "3b",
        "circuitNumber": "15",
        "steepness": "wall",
        "height": null,
        "name": "La Bousculade",
        "bleauInfoId": "3409",
        "circuitColor": "orange",
        "circuitId": 77,
        "tags": [

        ]
      },
      "id": "problem_5580"
    },
    {
      "type": "Feature",
      "geometry": {
        "type": "Point",
        "coordinates": [
          2.56253018942,
          48.39037459039
        ]
      },
      "properties": {
        "grade": "3a",
        "circuitNumber": "14",
        "steepness": "other",
        "height": null,
        "name": "L'Élastique",
        "bleauInfoId": "3408",
        "circuitColor": "orange",
        "circuitId": 77,
        "tags": [

        ]
      },
      "id": "problem_5579"
    },
    {
      "type": "Feature",
      "geometry": {
        "type": "Point",
        "coordinates": [
          2.56292246265,
          48.39087296911
        ]
      },
      "properties": {
        "grade": "2b",
        "circuitNumber": "",
        "steepness": "other",
        "height": null,
        "name": "Arête gauche",
        "bleauInfoId": "",
        "circuitColor": null,
        "circuitId": null,
        "tags": [

        ]
      },
      "id": "problem_5746"
    },
    {
      "type": "Feature",
      "geometry": {
        "type": "Point",
        "coordinates": [
          2.56236959215,
          48.39022475296
        ]
      },
      "properties": {
        "grade": "3a",
        "circuitNumber": "17",
        "steepness": "other",
        "height": null,
        "name": "La Biron",
        "bleauInfoId": "3411",
        "circuitColor": "orange",
        "circuitId": 77,
        "tags": [

        ]
      },
      "id": "problem_5583"
    },
    {
      "type": "Feature",
      "geometry": {
        "type": "Point",
        "coordinates": [
          2.56291760115,
          48.39060569083
        ]
      },
      "properties": {
        "grade": "6b+",
        "circuitNumber": "",
        "steepness": "traverse",
        "height": null,
        "name": "Jappe Renard",
        "bleauInfoId": "11864",
        "circuitColor": null,
        "circuitId": null,
        "tags": [

        ]
      },
      "id": "problem_5544"
    },
    {
      "type": "Feature",
      "geometry": {
        "type": "Point",
        "coordinates": [
          2.56216607954,
          48.39042201285
        ]
      },
      "properties": {
        "grade": "5c",
        "circuitNumber": "26",
        "steepness": "traverse",
        "height": null,
        "name": "Razorback",
        "bleauInfoId": "3500",
        "circuitColor": "red",
        "circuitId": 79,
        "tags": [

        ]
      },
      "id": "problem_5587"
    },
    {
      "type": "Feature",
      "geometry": {
        "type": "Point",
        "coordinates": [
          2.56274141338,
          48.39026727745
        ]
      },
      "properties": {
        "grade": "4a",
        "circuitNumber": "",
        "steepness": "other",
        "height": null,
        "name": "Aspet",
        "bleauInfoId": "",
        "circuitColor": null,
        "circuitId": null,
        "tags": [

        ]
      },
      "id": "problem_5573"
    },
    {
      "type": "Feature",
      "geometry": {
        "type": "Point",
        "coordinates": [
          2.56180498715,
          48.39088621621
        ]
      },
      "properties": {
        "grade": "6a",
        "circuitNumber": "33",
        "steepness": "other",
        "height": null,
        "name": "L'OTAN Emporte l'Auvent",
        "bleauInfoId": "3510",
        "circuitColor": "red",
        "circuitId": 79,
        "tags": [

        ]
      },
      "id": "problem_5646"
    },
    {
      "type": "Feature",
      "geometry": {
        "type": "Point",
        "coordinates": [
          2.56287686493,
          48.39090536312
        ]
      },
      "properties": {
        "grade": "3a+",
        "circuitNumber": "35",
        "steepness": "other",
        "height": null,
        "name": "Le Gruyère",
        "bleauInfoId": "3429",
        "circuitColor": "orange",
        "circuitId": 77,
        "tags": [

        ]
      },
      "id": "problem_5731"
    },
    {
      "type": "Feature",
      "geometry": {
        "type": "Point",
        "coordinates": [
          2.56228342619,
          48.39117609069
        ]
      },
      "properties": {
        "grade": "6a+",
        "circuitNumber": "",
        "steepness": "wall",
        "height": null,
        "name": "Nouvelle Vague",
        "bleauInfoId": "11872",
        "circuitColor": null,
        "circuitId": null,
        "tags": [

        ]
      },
      "id": "problem_5708"
    },
    {
      "type": "Feature",
      "geometry": {
        "type": "Point",
        "coordinates": [
          2.56282154437,
          48.3910102257
        ]
      },
      "properties": {
        "grade": "6c+",
        "circuitNumber": "",
        "steepness": "slab",
        "height": null,
        "name": "L'Entre-Deux",
        "bleauInfoId": "18560",
        "circuitColor": null,
        "circuitId": null,
        "tags": [

        ]
      },
      "id": "problem_5724"
    },
    {
      "type": "Feature",
      "geometry": {
        "type": "Point",
        "coordinates": [
          2.56207890742,
          48.39067537735
        ]
      },
      "properties": {
        "grade": "6a+",
        "circuitNumber": "",
        "steepness": "traverse",
        "height": null,
        "name": "Pente Douce",
        "bleauInfoId": "11894",
        "circuitColor": null,
        "circuitId": null,
        "tags": [

        ]
      },
      "id": "problem_5614"
    },
    {
      "type": "Feature",
      "geometry": {
        "type": "Point",
        "coordinates": [
          2.56273940172,
          48.3901739907
        ]
      },
      "properties": {
        "grade": "3b",
        "circuitNumber": "9",
        "steepness": "other",
        "height": null,
        "name": "L'Obélisque",
        "bleauInfoId": "3403",
        "circuitColor": "orange",
        "circuitId": 77,
        "tags": [
          "risky"
        ]
      },
      "id": "problem_5568"
    },
    {
      "type": "Feature",
      "geometry": {
        "type": "Point",
        "coordinates": [
          2.56140332635,
          48.39069407883
        ]
      },
      "properties": {
        "grade": "3a",
        "circuitNumber": "26",
        "steepness": "other",
        "height": null,
        "name": "Pilier Chaud",
        "bleauInfoId": "3420",
        "circuitColor": "orange",
        "circuitId": 77,
        "tags": [
          "risky"
        ]
      },
      "id": "problem_5637"
    },
    {
      "type": "Feature",
      "geometry": {
        "type": "Point",
        "coordinates": [
          2.5616339965,
          48.39102180276
        ]
      },
      "properties": {
        "grade": "6c",
        "circuitNumber": "",
        "steepness": "traverse",
        "height": null,
        "name": "Le Vélo de Max",
        "bleauInfoId": "3515",
        "circuitColor": null,
        "circuitId": null,
        "tags": [

        ]
      },
      "id": "problem_5669"
    },
    {
      "type": "Feature",
      "geometry": {
        "type": "Point",
        "coordinates": [
          2.56172820892,
          48.39088621621
        ]
      },
      "properties": {
        "grade": "5a",
        "circuitNumber": "",
        "steepness": "other",
        "height": null,
        "name": "Tom",
        "bleauInfoId": "",
        "circuitColor": null,
        "circuitId": null,
        "tags": [

        ]
      },
      "id": "problem_5655"
    },
    {
      "type": "Feature",
      "geometry": {
        "type": "Point",
        "coordinates": [
          2.56286010113,
          48.39084569599
        ]
      },
      "properties": {
        "grade": "7c",
        "circuitNumber": "",
        "steepness": "wall",
        "height": null,
        "name": "Lucky Luke",
        "bleauInfoId": "124",
        "circuitColor": null,
        "circuitId": null,
        "tags": [

        ]
      },
      "id": "problem_5742"
    },
    {
      "type": "Feature",
      "geometry": {
        "type": "Point",
        "coordinates": [
          2.5628436726,
          48.39101490109
        ]
      },
      "properties": {
        "grade": "6a",
        "circuitNumber": "7",
        "steepness": "slab",
        "height": null,
        "name": "Silver Lago",
        "bleauInfoId": "3474",
        "circuitColor": "red",
        "circuitId": 79,
        "tags": [

        ]
      },
      "id": "problem_5720"
    },
    {
      "type": "Feature",
      "geometry": {
        "type": "Point",
        "coordinates": [
          2.56181269851,
          48.39089779341
        ]
      },
      "properties": {
        "grade": "6c+",
        "circuitNumber": "35",
        "steepness": "overhang",
        "height": null,
        "name": "Constellation des Amoureux",
        "bleauInfoId": "112",
        "circuitColor": "red",
        "circuitId": 79,
        "tags": [

        ]
      },
      "id": "problem_5649"
    },
    {
      "type": "Feature",
      "geometry": {
        "type": "Point",
        "coordinates": [
          2.56163835509,
          48.39104896457
        ]
      },
      "properties": {
        "grade": "7a",
        "circuitNumber": "",
        "steepness": "traverse",
        "height": null,
        "name": "Bouddha Peste",
        "bleauInfoId": "11916",
        "circuitColor": null,
        "circuitId": null,
        "tags": [

        ]
      },
      "id": "problem_5665"
    },
    {
      "type": "Feature",
      "geometry": {
        "type": "Point",
        "coordinates": [
          2.56163785201,
          48.39104562512
        ]
      },
      "properties": {
        "grade": "6a+",
        "circuitNumber": "",
        "steepness": "other",
        "height": null,
        "name": "Maladroit (assis)",
        "bleauInfoId": "300233",
        "circuitColor": null,
        "circuitId": null,
        "tags": [

        ]
      },
      "id": "problem_5660"
    },
    {
      "type": "Feature",
      "geometry": {
        "type": "Point",
        "coordinates": [
          2.56291978044,
          48.39088287652
        ]
      },
      "properties": {
        "grade": "5b",
        "circuitNumber": "",
        "steepness": "other",
        "height": null,
        "name": "Confused",
        "bleauInfoId": "",
        "circuitColor": null,
        "circuitId": null,
        "tags": [

        ]
      },
      "id": "problem_5745"
    },
    {
      "type": "Feature",
      "geometry": {
        "type": "Point",
        "coordinates": [
          2.5630964708,
          48.39040397896
        ]
      },
      "properties": {
        "grade": "3a",
        "circuitNumber": "7",
        "steepness": "slab",
        "height": null,
        "name": "La Rétadalle",
        "bleauInfoId": "3400",
        "circuitColor": "orange",
        "circuitId": 77,
        "tags": [

        ]
      },
      "id": "problem_5546"
    },
    {
      "type": "Feature",
      "geometry": {
        "type": "Point",
        "coordinates": [
          2.56129804965,
          48.3907040976
        ]
      },
      "properties": {
        "grade": "5b",
        "circuitNumber": "31",
        "steepness": "wall",
        "height": null,
        "name": "La Folie des Rondeurs",
        "bleauInfoId": "3508",
        "circuitColor": "red",
        "circuitId": 79,
        "tags": [

        ]
      },
      "id": "problem_5641"
    },
    {
      "type": "Feature",
      "geometry": {
        "type": "Point",
        "coordinates": [
          2.56240580197,
          48.39052865754
        ]
      },
      "properties": {
        "grade": "6c+",
        "circuitNumber": "",
        "steepness": "overhang",
        "height": null,
        "name": "Cumulus",
        "bleauInfoId": "11891",
        "circuitColor": null,
        "circuitId": null,
        "tags": [

        ]
      },
      "id": "problem_5604"
    },
    {
      "type": "Feature",
      "geometry": {
        "type": "Point",
        "coordinates": [
          2.56275583025,
          48.39022586617
        ]
      },
      "properties": {
        "grade": "6a",
        "circuitNumber": "20",
        "steepness": "wall",
        "height": null,
        "name": "Ponction Lombaire",
        "bleauInfoId": "3493",
        "circuitColor": "red",
        "circuitId": 79,
        "tags": [

        ]
      },
      "id": "problem_5570"
    },
    {
      "type": "Feature",
      "geometry": {
        "type": "Point",
        "coordinates": [
          2.56181068685,
          48.39089356328
        ]
      },
      "properties": {
        "grade": "6b+",
        "circuitNumber": "34",
        "steepness": "traverse",
        "height": null,
        "name": "Transat",
        "bleauInfoId": "3512",
        "circuitColor": "red",
        "circuitId": 79,
        "tags": [

        ]
      },
      "id": "problem_5648"
    },
    {
      "type": "Feature",
      "geometry": {
        "type": "Point",
        "coordinates": [
          2.56224151667,
          48.39115805708
        ]
      },
      "properties": {
        "grade": "7a",
        "circuitNumber": "",
        "steepness": "traverse",
        "height": null,
        "name": "Des Équilibres",
        "bleauInfoId": "11874",
        "circuitColor": null,
        "circuitId": null,
        "tags": [

        ]
      },
      "id": "problem_5709"
    },
    {
      "type": "Feature",
      "geometry": {
        "type": "Point",
        "coordinates": [
          2.5615417954,
          48.39074528585
        ]
      },
      "properties": {
        "grade": "4a",
        "circuitNumber": "23",
        "steepness": "traverse",
        "height": null,
        "name": "L'Éprouvante",
        "bleauInfoId": "3417",
        "circuitColor": "orange",
        "circuitId": 77,
        "tags": [

        ]
      },
      "id": "problem_5634"
    },
    {
      "type": "Feature",
      "geometry": {
        "type": "Point",
        "coordinates": [
          2.56238602068,
          48.39045184667
        ]
      },
      "properties": {
        "grade": "6a",
        "circuitNumber": "22",
        "steepness": "wall",
        "height": null,
        "name": "Le Meilleur des Mondes",
        "bleauInfoId": "1796",
        "circuitColor": "red",
        "circuitId": 79,
        "tags": [

        ]
      },
      "id": "problem_5596"
    },
    {
      "type": "Feature",
      "geometry": {
        "type": "Point",
        "coordinates": [
          2.56289798733,
          48.39102825937
        ]
      },
      "properties": {
        "grade": "5c",
        "circuitNumber": "",
        "steepness": "other",
        "height": null,
        "name": "Mur du Rouge",
        "bleauInfoId": "",
        "circuitColor": null,
        "circuitId": null,
        "tags": [

        ]
      },
      "id": "problem_5725"
    },
    {
      "type": "Feature",
      "geometry": {
        "type": "Point",
        "coordinates": [
          2.56132286008,
          48.39067982991
        ]
      },
      "properties": {
        "grade": "6a+",
        "circuitNumber": "",
        "steepness": "traverse",
        "height": null,
        "name": "Le Singe Rit",
        "bleauInfoId": "11903",
        "circuitColor": null,
        "circuitId": null,
        "tags": [

        ]
      },
      "id": "problem_5640"
    },
    {
      "type": "Feature",
      "geometry": {
        "type": "Point",
        "coordinates": [
          2.5628354585,
          48.39060780591
        ]
      },
      "properties": {
        "grade": "5c",
        "circuitNumber": "",
        "steepness": "overhang",
        "height": null,
        "name": "La Quille (sans convention)",
        "bleauInfoId": "304761",
        "circuitColor": null,
        "circuitId": null,
        "tags": [
          "sit_start"
        ]
      },
      "id": "problem_5542"
    },
    {
      "type": "Feature",
      "geometry": {
        "type": "Point",
        "coordinates": [
          2.56309814718,
          48.39096970557
        ]
      },
      "properties": {
        "grade": "5a+",
        "circuitNumber": "1",
        "steepness": "wall",
        "height": null,
        "name": "La Polonaise",
        "bleauInfoId": "3433",
        "circuitColor": "blue",
        "circuitId": 78,
        "tags": [

        ]
      },
      "id": "problem_5516"
    },
    {
      "type": "Feature",
      "geometry": {
        "type": "Point",
        "coordinates": [
          2.56217010252,
          48.39105697986
        ]
      },
      "properties": {
        "grade": "6a",
        "circuitNumber": "3",
        "steepness": "other",
        "height": null,
        "name": "Petite Insoutenable",
        "bleauInfoId": "20121",
        "circuitColor": "red",
        "circuitId": 79,
        "tags": [

        ]
      },
      "id": "problem_5704"
    },
    {
      "type": "Feature",
      "geometry": {
        "type": "Point",
        "coordinates": [
          2.56131045487,
          48.39072235402
        ]
      },
      "properties": {
        "grade": "3c",
        "circuitNumber": "",
        "steepness": "other",
        "height": null,
        "name": "Tenir le Coup",
        "bleauInfoId": "",
        "circuitColor": null,
        "circuitId": null,
        "tags": [

        ]
      },
      "id": "problem_5644"
    },
    {
      "type": "Feature",
      "geometry": {
        "type": "Point",
        "coordinates": [
          2.56242725965,
          48.39051797082
        ]
      },
      "properties": {
        "grade": "6b",
        "circuitNumber": "",
        "steepness": "overhang",
        "height": null,
        "name": "Spinatus (assis)",
        "bleauInfoId": "11582",
        "circuitColor": null,
        "circuitId": null,
        "tags": [

        ]
      },
      "id": "problem_5607"
    },
    {
      "type": "Feature",
      "geometry": {
        "type": "Point",
        "coordinates": [
          2.56327550825,
          48.39061125693
        ]
      },
      "properties": {
        "grade": "5a",
        "circuitNumber": "13",
        "steepness": "wall",
        "height": null,
        "name": "Glasnost",
        "bleauInfoId": "3482",
        "circuitColor": "red",
        "circuitId": 79,
        "tags": [

        ]
      },
      "id": "problem_5537"
    },
    {
      "type": "Feature",
      "geometry": {
        "type": "Point",
        "coordinates": [
          2.56317123737,
          48.39092562321
        ]
      },
      "properties": {
        "grade": "5c",
        "circuitNumber": "",
        "steepness": "other",
        "height": null,
        "name": "Hale Acab",
        "bleauInfoId": "",
        "circuitColor": null,
        "circuitId": null,
        "tags": [

        ]
      },
      "id": "problem_5520"
    },
    {
      "type": "Feature",
      "geometry": {
        "type": "Point",
        "coordinates": [
          2.56289195236,
          48.39087085415
        ]
      },
      "properties": {
        "grade": "6a",
        "circuitNumber": "11",
        "steepness": "wall",
        "height": null,
        "name": "Planète Morphos",
        "bleauInfoId": "3480",
        "circuitColor": "red",
        "circuitId": 79,
        "tags": [

        ]
      },
      "id": "problem_5738"
    },
    {
      "type": "Feature",
      "geometry": {
        "type": "Point",
        "coordinates": [
          2.56227236208,
          48.39046787677
        ]
      },
      "properties": {
        "grade": "3b",
        "circuitNumber": "19",
        "steepness": "wall",
        "height": null,
        "name": "Le Virage",
        "bleauInfoId": "3413",
        "circuitColor": "orange",
        "circuitId": 77,
        "tags": [

        ]
      },
      "id": "problem_5595"
    },
    {
      "type": "Feature",
      "geometry": {
        "type": "Point",
        "coordinates": [
          2.56271090325,
          48.39109371486
        ]
      },
      "properties": {
        "grade": "7a+",
        "circuitNumber": "",
        "steepness": "traverse",
        "height": null,
        "name": "La Muraille de Chine",
        "bleauInfoId": "1312",
        "circuitColor": null,
        "circuitId": null,
        "tags": [

        ]
      },
      "id": "problem_5712"
    },
    {
      "type": "Feature",
      "geometry": {
        "type": "Point",
        "coordinates": [
          2.561700381,
          48.39089846132
        ]
      },
      "properties": {
        "grade": "5c",
        "circuitNumber": "",
        "steepness": "wall",
        "height": null,
        "name": "Angle-Ish",
        "bleauInfoId": "11905",
        "circuitColor": null,
        "circuitId": null,
        "tags": [

        ]
      },
      "id": "problem_5657"
    },
    {
      "type": "Feature",
      "geometry": {
        "type": "Point",
        "coordinates": [
          2.56219692461,
          48.39114648016
        ]
      },
      "properties": {
        "grade": "4a",
        "circuitNumber": "32",
        "steepness": "overhang",
        "height": null,
        "name": "Le Lézard",
        "bleauInfoId": "3426",
        "circuitColor": "orange",
        "circuitId": 77,
        "tags": [

        ]
      },
      "id": "problem_5703"
    },
    {
      "type": "Feature",
      "geometry": {
        "type": "Point",
        "coordinates": [
          2.56220631268,
          48.39052709906
        ]
      },
      "properties": {
        "grade": "6c",
        "circuitNumber": "",
        "steepness": "other",
        "height": null,
        "name": "La Poussée Occulte (assis)",
        "bleauInfoId": "11892",
        "circuitColor": null,
        "circuitId": null,
        "tags": [
          "sit_start"
        ]
      },
      "id": "problem_5599"
    },
    {
      "type": "Feature",
      "geometry": {
        "type": "Point",
        "coordinates": [
          2.56148211624,
          48.39078135337
        ]
      },
      "properties": {
        "grade": "6b",
        "circuitNumber": "32",
        "steepness": "traverse",
        "height": null,
        "name": "Anna et Robie",
        "bleauInfoId": "3509",
        "circuitColor": "red",
        "circuitId": 79,
        "tags": [

        ]
      },
      "id": "problem_5643"
    },
    {
      "type": "Feature",
      "geometry": {
        "type": "Point",
        "coordinates": [
          2.56243396517,
          48.39051886138
        ]
      },
      "properties": {
        "grade": "5b",
        "circuitNumber": "",
        "steepness": "overhang",
        "height": null,
        "name": "Spinatus",
        "bleauInfoId": "308414",
        "circuitColor": null,
        "circuitId": null,
        "tags": [

        ]
      },
      "id": "problem_5606"
    },
    {
      "type": "Feature",
      "geometry": {
        "type": "Point",
        "coordinates": [
          2.56313234534,
          48.39097638472
        ]
      },
      "properties": {
        "grade": "3a",
        "circuitNumber": "",
        "steepness": "other",
        "height": null,
        "name": "Petite Valse",
        "bleauInfoId": "",
        "circuitColor": null,
        "circuitId": null,
        "tags": [

        ]
      },
      "id": "problem_5519"
    },
    {
      "type": "Feature",
      "geometry": {
        "type": "Point",
        "coordinates": [
          2.56219927188,
          48.39108993002
        ]
      },
      "properties": {
        "grade": "5b",
        "circuitNumber": "28",
        "steepness": "wall",
        "height": null,
        "name": "Le Libre Choix",
        "bleauInfoId": "3462",
        "circuitColor": "blue",
        "circuitId": 78,
        "tags": [
          "risky"
        ]
      },
      "id": "problem_5707"
    },
    {
      "type": "Feature",
      "geometry": {
        "type": "Point",
        "coordinates": [
          2.56318967756,
          48.39046609565
        ]
      },
      "properties": {
        "grade": "6a",
        "circuitNumber": "",
        "steepness": "traverse",
        "height": null,
        "name": "Les Grattons Laveurs",
        "bleauInfoId": "3486",
        "circuitColor": null,
        "circuitId": null,
        "tags": [

        ]
      },
      "id": "problem_5549"
    },
    {
      "type": "Feature",
      "geometry": {
        "type": "Point",
        "coordinates": [
          2.56228376146,
          48.3904957068
        ]
      },
      "properties": {
        "grade": "5a",
        "circuitNumber": "",
        "steepness": "other",
        "height": null,
        "name": "Gaza",
        "bleauInfoId": "",
        "circuitColor": null,
        "circuitId": null,
        "tags": [

        ]
      },
      "id": "problem_5610"
    },
    {
      "type": "Feature",
      "geometry": {
        "type": "Point",
        "coordinates": [
          2.56215065651,
          48.39102759167
        ]
      },
      "properties": {
        "grade": "3a",
        "circuitNumber": "31",
        "steepness": "slab",
        "height": null,
        "name": "Jeu Simple",
        "bleauInfoId": "3425",
        "circuitColor": "orange",
        "circuitId": 77,
        "tags": [

        ]
      },
      "id": "problem_5702"
    },
    {
      "type": "Feature",
      "geometry": {
        "type": "Point",
        "coordinates": [
          2.56219960716,
          48.39052709906
        ]
      },
      "properties": {
        "grade": "5c",
        "circuitNumber": "24",
        "steepness": "wall",
        "height": null,
        "name": "La Poussée Occulte",
        "bleauInfoId": "3498",
        "circuitColor": "red",
        "circuitId": 79,
        "tags": [

        ]
      },
      "id": "problem_5598"
    },
    {
      "type": "Feature",
      "geometry": {
        "type": "Point",
        "coordinates": [
          2.56254795905,
          48.39034586973
        ]
      },
      "properties": {
        "grade": "4b",
        "circuitNumber": "12",
        "steepness": "wall",
        "height": null,
        "name": "Point de Suture",
        "bleauInfoId": "3444",
        "circuitColor": "blue",
        "circuitId": 78,
        "tags": [

        ]
      },
      "id": "problem_5575"
    },
    {
      "type": "Feature",
      "geometry": {
        "type": "Point",
        "coordinates": [
          2.56268408116,
          48.39098306386
        ]
      },
      "properties": {
        "grade": "3b",
        "circuitNumber": "34",
        "steepness": "other",
        "height": null,
        "name": "Double Jeu",
        "bleauInfoId": "3428",
        "circuitColor": "orange",
        "circuitId": 77,
        "tags": [

        ]
      },
      "id": "problem_5727"
    },
    {
      "type": "Feature",
      "geometry": {
        "type": "Point",
        "coordinates": [
          2.5624208894,
          48.39043848824
        ]
      },
      "properties": {
        "grade": "6a",
        "circuitNumber": "",
        "steepness": "wall",
        "height": null,
        "name": "L'Épais Rond",
        "bleauInfoId": "3496",
        "circuitColor": null,
        "circuitId": null,
        "tags": [

        ]
      },
      "id": "problem_5602"
    },
    {
      "type": "Feature",
      "geometry": {
        "type": "Point",
        "coordinates": [
          2.56225995686,
          48.39046542773
        ]
      },
      "properties": {
        "grade": "4a",
        "circuitNumber": "",
        "steepness": "other",
        "height": null,
        "name": "Moses",
        "bleauInfoId": "",
        "circuitColor": null,
        "circuitId": null,
        "tags": [

        ]
      },
      "id": "problem_5609"
    },
    {
      "type": "Feature",
      "geometry": {
        "type": "Point",
        "coordinates": [
          2.56328791346,
          48.39087975969
        ]
      },
      "properties": {
        "grade": "3a",
        "circuitNumber": "",
        "steepness": "other",
        "height": null,
        "name": "L'Obèse",
        "bleauInfoId": "3394",
        "circuitColor": null,
        "circuitId": null,
        "tags": [

        ]
      },
      "id": "problem_5529"
    },
    {
      "type": "Feature",
      "geometry": {
        "type": "Point",
        "coordinates": [
          2.56314542111,
          48.39091560448
        ]
      },
      "properties": {
        "grade": "4a",
        "circuitNumber": "",
        "steepness": "other",
        "height": null,
        "name": "Czarda",
        "bleauInfoId": "",
        "circuitColor": null,
        "circuitId": null,
        "tags": [

        ]
      },
      "id": "problem_5521"
    },
    {
      "type": "Feature",
      "geometry": {
        "type": "Point",
        "coordinates": [
          2.56319168922,
          48.39100888987
        ]
      },
      "properties": {
        "grade": "7b+",
        "circuitNumber": "",
        "steepness": "traverse",
        "height": null,
        "name": "Le Chacal / Poutre et Plâtre",
        "bleauInfoId": "2186",
        "circuitColor": null,
        "circuitId": null,
        "tags": [

        ]
      },
      "id": "problem_5515"
    },
    {
      "type": "Feature",
      "geometry": {
        "type": "Point",
        "coordinates": [
          2.56313066896,
          48.39106610779
        ]
      },
      "properties": {
        "grade": "4a",
        "circuitNumber": "",
        "steepness": "wall",
        "height": null,
        "name": "Le Départ Bleu",
        "bleauInfoId": "300607",
        "circuitColor": null,
        "circuitId": null,
        "tags": [

        ]
      },
      "id": "problem_5512"
    },
    {
      "type": "Feature",
      "geometry": {
        "type": "Point",
        "coordinates": [
          2.56313050132,
          48.39104651567
        ]
      },
      "properties": {
        "grade": "8a",
        "circuitNumber": "",
        "steepness": "traverse",
        "height": null,
        "name": "Le Mastodompté",
        "bleauInfoId": "16596",
        "circuitColor": null,
        "circuitId": null,
        "tags": [
          "sit_start"
        ]
      },
      "id": "problem_5514"
    },
    {
      "type": "Feature",
      "geometry": {
        "type": "Point",
        "coordinates": [
          2.56317056682,
          48.39095901894
        ]
      },
      "properties": {
        "grade": "4a",
        "circuitNumber": "",
        "steepness": "other",
        "height": null,
        "name": "L'Étude",
        "bleauInfoId": "",
        "circuitColor": null,
        "circuitId": null,
        "tags": [

        ]
      },
      "id": "problem_5518"
    },
    {
      "type": "Feature",
      "geometry": {
        "type": "Point",
        "coordinates": [
          2.56312295761,
          48.39098128275
        ]
      },
      "properties": {
        "grade": "6c",
        "circuitNumber": "",
        "steepness": "traverse",
        "height": null,
        "name": "La Ballade des Gens Heureux",
        "bleauInfoId": "11869",
        "circuitColor": null,
        "circuitId": null,
        "tags": [

        ]
      },
      "id": "problem_5517"
    },
    {
      "type": "Feature",
      "geometry": {
        "type": "Point",
        "coordinates": [
          2.56336100366,
          48.39078402504
        ]
      },
      "properties": {
        "grade": "6a+",
        "circuitNumber": "12",
        "steepness": "traverse",
        "height": null,
        "name": "Hautes Calories",
        "bleauInfoId": "3481",
        "circuitColor": "red",
        "circuitId": 79,
        "tags": [

        ]
      },
      "id": "problem_5525"
    },
    {
      "type": "Feature",
      "geometry": {
        "type": "Point",
        "coordinates": [
          2.56333317574,
          48.39088911051
        ]
      },
      "properties": {
        "grade": "5c",
        "circuitNumber": "2",
        "steepness": "slab",
        "height": null,
        "name": "Le Corps à Corps",
        "bleauInfoId": "3434",
        "circuitColor": "blue",
        "circuitId": 78,
        "tags": [

        ]
      },
      "id": "problem_5524"
    },
    {
      "type": "Feature",
      "geometry": {
        "type": "Point",
        "coordinates": [
          2.56335966256,
          48.39088688412
        ]
      },
      "properties": {
        "grade": "5b",
        "circuitNumber": "",
        "steepness": "other",
        "height": null,
        "name": "Régime",
        "bleauInfoId": "",
        "circuitColor": null,
        "circuitId": null,
        "tags": [

        ]
      },
      "id": "problem_5528"
    },
    {
      "type": "Feature",
      "geometry": {
        "type": "Point",
        "coordinates": [
          2.56314642694,
          48.39096792447
        ]
      },
      "properties": {
        "grade": "3a",
        "circuitNumber": "1",
        "steepness": "wall",
        "height": null,
        "name": "Le Bracelet",
        "bleauInfoId": "3390",
        "circuitColor": "orange",
        "circuitId": 77,
        "tags": [

        ]
      },
      "id": "problem_5510"
    },
    {
      "type": "Feature",
      "geometry": {
        "type": "Point",
        "coordinates": [
          2.56336335059,
          48.39086372972
        ]
      },
      "properties": {
        "grade": "4b",
        "circuitNumber": "",
        "steepness": "other",
        "height": null,
        "name": "El Magnifico",
        "bleauInfoId": "",
        "circuitColor": null,
        "circuitId": null,
        "tags": [

        ]
      },
      "id": "problem_5527"
    },
    {
      "type": "Feature",
      "geometry": {
        "type": "Point",
        "coordinates": [
          2.56311356988,
          48.39092918542
        ]
      },
      "properties": {
        "grade": "3b",
        "circuitNumber": "",
        "steepness": "other",
        "height": null,
        "name": "Impromptu",
        "bleauInfoId": "",
        "circuitColor": null,
        "circuitId": null,
        "tags": [

        ]
      },
      "id": "problem_5522"
    },
    {
      "type": "Feature",
      "geometry": {
        "type": "Point",
        "coordinates": [
          2.5632973012,
          48.39088911051
        ]
      },
      "properties": {
        "grade": "3c",
        "circuitNumber": "2",
        "steepness": "slab",
        "height": null,
        "name": "La Calorie",
        "bleauInfoId": "3393",
        "circuitColor": "orange",
        "circuitId": 77,
        "tags": [

        ]
      },
      "id": "problem_5523"
    },
    {
      "type": "Feature",
      "geometry": {
        "type": "Point",
        "coordinates": [
          2.56331540611,
          48.39088933315
        ]
      },
      "properties": {
        "grade": "6b+",
        "circuitNumber": "",
        "steepness": "traverse",
        "height": null,
        "name": "Basses Calories",
        "bleauInfoId": "11867",
        "circuitColor": null,
        "circuitId": null,
        "tags": [

        ]
      },
      "id": "problem_5526"
    },
    {
      "type": "Feature",
      "geometry": {
        "type": "Point",
        "coordinates": [
          2.56315212663,
          48.39107234164
        ]
      },
      "properties": {
        "grade": "2c",
        "circuitNumber": "",
        "steepness": "wall",
        "height": null,
        "name": "Le Départ Orange",
        "bleauInfoId": "300606",
        "circuitColor": null,
        "circuitId": null,
        "tags": [

        ]
      },
      "id": "problem_5511"
    },
    {
      "type": "Feature",
      "geometry": {
        "type": "Point",
        "coordinates": [
          2.56312563982,
          48.39104451193
        ]
      },
      "properties": {
        "grade": "7b+",
        "circuitNumber": "",
        "steepness": "overhang",
        "height": null,
        "name": "Le Grand Chauve Sourit",
        "bleauInfoId": "122",
        "circuitColor": null,
        "circuitId": null,
        "tags": [
          "sit_start"
        ]
      },
      "id": "problem_5513"
    },
    {
      "type": "Feature",
      "geometry": {
        "type": "Point",
        "coordinates": [
          2.5631345248,
          48.39048746901
        ]
      },
      "properties": {
        "grade": "7a",
        "circuitNumber": "",
        "steepness": "traverse",
        "height": null,
        "name": "Cascade",
        "bleauInfoId": "11875",
        "circuitColor": null,
        "circuitId": null,
        "tags": [

        ]
      },
      "id": "problem_5551"
    },
    {
      "type": "Feature",
      "geometry": {
        "type": "Point",
        "coordinates": [
          2.56226330962,
          48.39009205853
        ]
      },
      "properties": {
        "grade": "7b",
        "circuitNumber": "",
        "steepness": "traverse",
        "height": null,
        "name": "Balade sur Plats",
        "bleauInfoId": "109",
        "circuitColor": null,
        "circuitId": null,
        "tags": [

        ]
      },
      "id": "problem_5586"
    },
    {
      "type": "Feature",
      "geometry": {
        "type": "Point",
        "coordinates": [
          2.56186634269,
          48.3912036977
        ]
      },
      "properties": {
        "grade": "5b",
        "circuitNumber": "40",
        "steepness": "other",
        "height": null,
        "name": "Fritz l'Angle",
        "bleauInfoId": "3519",
        "circuitColor": "red",
        "circuitId": 79,
        "tags": [

        ]
      },
      "id": "problem_5691"
    },
    {
      "type": "Feature",
      "geometry": {
        "type": "Point",
        "coordinates": [
          2.56163332578,
          48.39110573728
        ]
      },
      "properties": {
        "grade": "5c",
        "circuitNumber": "",
        "steepness": "wall",
        "height": null,
        "name": "Le T.A.",
        "bleauInfoId": "3517",
        "circuitColor": null,
        "circuitId": null,
        "tags": [

        ]
      },
      "id": "problem_5686"
    },
    {
      "type": "Feature",
      "geometry": {
        "type": "Point",
        "coordinates": [
          2.56156794693,
          48.39113534807
        ]
      },
      "properties": {
        "grade": "3a",
        "circuitNumber": "29",
        "steepness": "wall",
        "height": null,
        "name": "Coin Tranquille",
        "bleauInfoId": "3423",
        "circuitColor": "orange",
        "circuitId": 77,
        "tags": [

        ]
      },
      "id": "problem_5681"
    },
    {
      "type": "Feature",
      "geometry": {
        "type": "Point",
        "coordinates": [
          2.56162628498,
          48.39110039398
        ]
      },
      "properties": {
        "grade": "6b",
        "circuitNumber": "",
        "steepness": "other",
        "height": null,
        "name": "Pic et Pêche",
        "bleauInfoId": "11914",
        "circuitColor": null,
        "circuitId": null,
        "tags": [

        ]
      },
      "id": "problem_5685"
    },
    {
      "type": "Feature",
      "geometry": {
        "type": "Point",
        "coordinates": [
          2.56160482731,
          48.39109349222
        ]
      },
      "properties": {
        "grade": "3b",
        "circuitNumber": "",
        "steepness": "other",
        "height": null,
        "name": null,
        "bleauInfoId": "",
        "circuitColor": null,
        "circuitId": null,
        "tags": [

        ]
      },
      "id": "problem_5684"
    },
    {
      "type": "Feature",
      "geometry": {
        "type": "Point",
        "coordinates": [
          2.56159778651,
          48.39109416013
        ]
      },
      "properties": {
        "grade": "3a",
        "circuitNumber": "",
        "steepness": "other",
        "height": null,
        "name": "Vertus",
        "bleauInfoId": "",
        "circuitColor": null,
        "circuitId": null,
        "tags": [

        ]
      },
      "id": "problem_5683"
    },
    {
      "type": "Feature",
      "geometry": {
        "type": "Point",
        "coordinates": [
          2.56160885062,
          48.39115983817
        ]
      },
      "properties": {
        "grade": "6b+",
        "circuitNumber": "",
        "steepness": "traverse",
        "height": null,
        "name": "Exocet",
        "bleauInfoId": "11915",
        "circuitColor": null,
        "circuitId": null,
        "tags": [

        ]
      },
      "id": "problem_5682"
    },
    {
      "type": "Feature",
      "geometry": {
        "type": "Point",
        "coordinates": [
          2.56185796078,
          48.39112154455
        ]
      },
      "properties": {
        "grade": "5b",
        "circuitNumber": "39",
        "steepness": "wall",
        "height": null,
        "name": "La Pince Multi-Prises",
        "bleauInfoId": "3518",
        "circuitColor": "red",
        "circuitId": 79,
        "tags": [

        ]
      },
      "id": "problem_5689"
    },
    {
      "type": "Feature",
      "geometry": {
        "type": "Point",
        "coordinates": [
          2.56185829606,
          48.39111686916
        ]
      },
      "properties": {
        "grade": "5c",
        "circuitNumber": "",
        "steepness": "wall",
        "height": null,
        "name": "La Pince Multi-Prises (direct)",
        "bleauInfoId": "300232",
        "circuitColor": null,
        "circuitId": null,
        "tags": [

        ]
      },
      "id": "problem_5690"
    },
    {
      "type": "Feature",
      "geometry": {
        "type": "Point",
        "coordinates": [
          2.56196390804,
          48.39117898498
        ]
      },
      "properties": {
        "grade": "7b+",
        "circuitNumber": "",
        "steepness": "slab",
        "height": null,
        "name": "Les Enfants d'Abord",
        "bleauInfoId": "121",
        "circuitColor": null,
        "circuitId": null,
        "tags": [

        ]
      },
      "id": "problem_5693"
    },
    {
      "type": "Feature",
      "geometry": {
        "type": "Point",
        "coordinates": [
          2.56195519086,
          48.3911426951
        ]
      },
      "properties": {
        "grade": "3a",
        "circuitNumber": "",
        "steepness": "other",
        "height": null,
        "name": "Magique",
        "bleauInfoId": "",
        "circuitColor": null,
        "circuitId": null,
        "tags": [

        ]
      },
      "id": "problem_5692"
    },
    {
      "type": "Feature",
      "geometry": {
        "type": "Point",
        "coordinates": [
          2.56192032214,
          48.39120414298
        ]
      },
      "properties": {
        "grade": "5b+",
        "circuitNumber": "1",
        "steepness": "wall",
        "height": null,
        "name": "Pas Fin de Fan",
        "bleauInfoId": "3468",
        "circuitColor": "red",
        "circuitId": 79,
        "tags": [

        ]
      },
      "id": "problem_5687"
    },
    {
      "type": "Feature",
      "geometry": {
        "type": "Point",
        "coordinates": [
          2.56196089055,
          48.39115560807
        ]
      },
      "properties": {
        "grade": "6a",
        "circuitNumber": "2",
        "steepness": "slab",
        "height": null,
        "name": "Au Pied Levé",
        "bleauInfoId": "3469",
        "circuitColor": "red",
        "circuitId": 79,
        "tags": [

        ]
      },
      "id": "problem_5688"
    },
    {
      "type": "Feature",
      "geometry": {
        "type": "Point",
        "coordinates": [
          2.56271660294,
          48.39085482417
        ]
      },
      "properties": {
        "grade": "6c",
        "circuitNumber": "",
        "steepness": "traverse",
        "height": null,
        "name": "Le Sabot",
        "bleauInfoId": "11870",
        "circuitColor": null,
        "circuitId": null,
        "tags": [

        ]
      },
      "id": "problem_5740"
    },
    {
      "type": "Feature",
      "geometry": {
        "type": "Point",
        "coordinates": [
          2.56266564097,
          48.39100465975
        ]
      },
      "properties": {
        "grade": "4c",
        "circuitNumber": "29",
        "steepness": "traverse",
        "height": null,
        "name": "Le Crabe",
        "bleauInfoId": "3463",
        "circuitColor": "blue",
        "circuitId": 78,
        "tags": [

        ]
      },
      "id": "problem_5728"
    },
    {
      "type": "Feature",
      "geometry": {
        "type": "Point",
        "coordinates": [
          2.56186064299,
          48.39113712917
        ]
      },
      "properties": {
        "grade": "4c+",
        "circuitNumber": "26",
        "steepness": "wall",
        "height": null,
        "name": "La Douche",
        "bleauInfoId": "3460",
        "circuitColor": "blue",
        "circuitId": 78,
        "tags": [

        ]
      },
      "id": "problem_5694"
    },
    {
      "type": "Feature",
      "geometry": {
        "type": "Point",
        "coordinates": [
          2.56202123992,
          48.39083923969
        ]
      },
      "properties": {
        "grade": "6c+",
        "circuitNumber": "",
        "steepness": "overhang",
        "height": null,
        "name": "Extraction Lente (assis)",
        "bleauInfoId": "300251",
        "circuitColor": null,
        "circuitId": null,
        "tags": [
          "sit_start"
        ]
      },
      "id": "problem_5613"
    },
    {
      "type": "Feature",
      "geometry": {
        "type": "Point",
        "coordinates": [
          2.56135035273,
          48.39068784493
        ]
      },
      "properties": {
        "grade": "3a",
        "circuitNumber": "25",
        "steepness": "traverse",
        "height": null,
        "name": "Haute Tenue",
        "bleauInfoId": "3419",
        "circuitColor": "orange",
        "circuitId": 77,
        "tags": [

        ]
      },
      "id": "problem_5636"
    },
    {
      "type": "Feature",
      "geometry": {
        "type": "Point",
        "coordinates": [
          2.56174597856,
          48.39088309927
        ]
      },
      "properties": {
        "grade": "5c",
        "circuitNumber": "",
        "steepness": "other",
        "height": null,
        "name": "Jerry",
        "bleauInfoId": "",
        "circuitColor": null,
        "circuitId": null,
        "tags": [

        ]
      },
      "id": "problem_5654"
    },
    {
      "type": "Feature",
      "geometry": {
        "type": "Point",
        "coordinates": [
          2.56239809062,
          48.39044494481
        ]
      },
      "properties": {
        "grade": "7a+",
        "circuitNumber": "",
        "steepness": "overhang",
        "height": null,
        "name": "Spider Bloc",
        "bleauInfoId": "120",
        "circuitColor": null,
        "circuitId": null,
        "tags": [

        ]
      },
      "id": "problem_5601"
    },
    {
      "type": "Feature",
      "geometry": {
        "type": "Point",
        "coordinates": [
          2.56100367721,
          48.39057363081
        ]
      },
      "properties": {
        "grade": "4b+",
        "circuitNumber": "20",
        "steepness": "wall",
        "height": null,
        "name": "Le Cerveau",
        "bleauInfoId": "3453",
        "circuitColor": "blue",
        "circuitId": 78,
        "tags": [

        ]
      },
      "id": "problem_5631"
    },
    {
      "type": "Feature",
      "geometry": {
        "type": "Point",
        "coordinates": [
          2.56139360335,
          48.39100866723
        ]
      },
      "properties": {
        "grade": "2c",
        "circuitNumber": "",
        "steepness": "other",
        "height": null,
        "name": "Greenie",
        "bleauInfoId": "",
        "circuitColor": null,
        "circuitId": null,
        "tags": [

        ]
      },
      "id": "problem_5676"
    },
    {
      "type": "Feature",
      "geometry": {
        "type": "Point",
        "coordinates": [
          2.56119009074,
          48.39044249577
        ]
      },
      "properties": {
        "grade": "5c+",
        "circuitNumber": "",
        "steepness": "other",
        "height": null,
        "name": "Souplesse Oblige",
        "bleauInfoId": "",
        "circuitColor": null,
        "circuitId": null,
        "tags": [

        ]
      },
      "id": "problem_5630"
    },
    {
      "type": "Feature",
      "geometry": {
        "type": "Point",
        "coordinates": [
          2.5616329905,
          48.39104651567
        ]
      },
      "properties": {
        "grade": "5c",
        "circuitNumber": "24",
        "steepness": "other",
        "height": null,
        "name": "Le Maladroit",
        "bleauInfoId": "3458",
        "circuitColor": "blue",
        "circuitId": 78,
        "tags": [

        ]
      },
      "id": "problem_5659"
    },
    {
      "type": "Feature",
      "geometry": {
        "type": "Point",
        "coordinates": [
          2.56284333732,
          48.39083745836
        ]
      },
      "properties": {
        "grade": "5c",
        "circuitNumber": "10",
        "steepness": "other",
        "height": null,
        "name": "Objectif Grand Angle",
        "bleauInfoId": "3479",
        "circuitColor": "red",
        "circuitId": 79,
        "tags": [

        ]
      },
      "id": "problem_5737"
    },
    {
      "type": "Feature",
      "geometry": {
        "type": "Point",
        "coordinates": [
          2.56327081438,
          48.3906228342
        ]
      },
      "properties": {
        "grade": "4b",
        "circuitNumber": "3",
        "steepness": "wall",
        "height": null,
        "name": "La Gratouille",
        "bleauInfoId": "3435",
        "circuitColor": "blue",
        "circuitId": 78,
        "tags": [

        ]
      },
      "id": "problem_5533"
    },
    {
      "type": "Feature",
      "geometry": {
        "type": "Point",
        "coordinates": [
          2.56179995801,
          48.39088933315
        ]
      },
      "properties": {
        "grade": "6c",
        "circuitNumber": "",
        "steepness": "overhang",
        "height": null,
        "name": "L'OTAN Emporte l'Auvent (assis)",
        "bleauInfoId": "22688",
        "circuitColor": null,
        "circuitId": null,
        "tags": [
          "sit_start"
        ]
      },
      "id": "problem_5647"
    },
    {
      "type": "Feature",
      "geometry": {
        "type": "Point",
        "coordinates": [
          2.56268944558,
          48.39019803599
        ]
      },
      "properties": {
        "grade": "4a",
        "circuitNumber": "11",
        "steepness": "wall",
        "height": null,
        "name": "La Bouche Trou",
        "bleauInfoId": "3405",
        "circuitColor": "orange",
        "circuitId": 77,
        "tags": [

        ]
      },
      "id": "problem_5569"
    },
    {
      "type": "Feature",
      "geometry": {
        "type": "Point",
        "coordinates": [
          2.56145831164,
          48.39082142837
        ]
      },
      "properties": {
        "grade": "3c",
        "circuitNumber": "27",
        "steepness": "other",
        "height": null,
        "name": "La Déception",
        "bleauInfoId": "3421",
        "circuitColor": "orange",
        "circuitId": 77,
        "tags": [

        ]
      },
      "id": "problem_5638"
    },
    {
      "type": "Feature",
      "geometry": {
        "type": "Point",
        "coordinates": [
          2.56171949174,
          48.39088977842
        ]
      },
      "properties": {
        "grade": "6c",
        "circuitNumber": "",
        "steepness": "wall",
        "height": null,
        "name": "Mur l'Ish",
        "bleauInfoId": "11904",
        "circuitColor": null,
        "circuitId": null,
        "tags": [

        ]
      },
      "id": "problem_5656"
    },
    {
      "type": "Feature",
      "geometry": {
        "type": "Point",
        "coordinates": [
          2.56165847149,
          48.39101445582
        ]
      },
      "properties": {
        "grade": "3b",
        "circuitNumber": "28",
        "steepness": "other",
        "height": null,
        "name": "La Convention",
        "bleauInfoId": "739",
        "circuitColor": "orange",
        "circuitId": 77,
        "tags": [

        ]
      },
      "id": "problem_5658"
    },
    {
      "type": "Feature",
      "geometry": {
        "type": "Point",
        "coordinates": [
          2.56131615456,
          48.39068027519
        ]
      },
      "properties": {
        "grade": "4a",
        "circuitNumber": "21",
        "steepness": "overhang",
        "height": null,
        "name": "La Singerie",
        "bleauInfoId": "3454",
        "circuitColor": "blue",
        "circuitId": 78,
        "tags": [

        ]
      },
      "id": "problem_5639"
    },
    {
      "type": "Feature",
      "geometry": {
        "type": "Point",
        "coordinates": [
          2.56103485789,
          48.39018712656
        ]
      },
      "properties": {
        "grade": "6a",
        "circuitNumber": "",
        "steepness": "other",
        "height": null,
        "name": "Geyser",
        "bleauInfoId": "11897",
        "circuitColor": null,
        "circuitId": null,
        "tags": [
          "sit_start"
        ]
      },
      "id": "problem_5621"
    },
    {
      "type": "Feature",
      "geometry": {
        "type": "Point",
        "coordinates": [
          2.56163131412,
          48.39103449323
        ]
      },
      "properties": {
        "grade": "5c",
        "circuitNumber": "38",
        "steepness": "other",
        "height": null,
        "name": "L'Appui Acide",
        "bleauInfoId": "3516",
        "circuitColor": "red",
        "circuitId": 79,
        "tags": [

        ]
      },
      "id": "problem_5662"
    },
    {
      "type": "Feature",
      "geometry": {
        "type": "Point",
        "coordinates": [
          2.56137717482,
          48.39102937255
        ]
      },
      "properties": {
        "grade": "2b",
        "circuitNumber": "",
        "steepness": "other",
        "height": null,
        "name": "Little Greenie",
        "bleauInfoId": "",
        "circuitColor": null,
        "circuitId": null,
        "tags": [

        ]
      },
      "id": "problem_5677"
    },
    {
      "type": "Feature",
      "geometry": {
        "type": "Point",
        "coordinates": [
          2.56326310303,
          48.39063641521
        ]
      },
      "properties": {
        "grade": "3b",
        "circuitNumber": "",
        "steepness": "other",
        "height": null,
        "name": "Apparatchik",
        "bleauInfoId": "",
        "circuitColor": null,
        "circuitId": null,
        "tags": [

        ]
      },
      "id": "problem_5536"
    },
    {
      "type": "Feature",
      "geometry": {
        "type": "Point",
        "coordinates": [
          2.56194580313,
          48.39119790914
        ]
      },
      "properties": {
        "grade": "7b",
        "circuitNumber": "",
        "steepness": "other",
        "height": null,
        "name": "Les Envahisseurs (assis)",
        "bleauInfoId": "19728",
        "circuitColor": null,
        "circuitId": null,
        "tags": [
          "sit_start"
        ]
      },
      "id": "problem_5698"
    },
    {
      "type": "Feature",
      "geometry": {
        "type": "Point",
        "coordinates": [
          2.56180398133,
          48.39089356328
        ]
      },
      "properties": {
        "grade": "7b+",
        "circuitNumber": "",
        "steepness": "traverse",
        "height": null,
        "name": "Voyage Gallactique",
        "bleauInfoId": "16597",
        "circuitColor": null,
        "circuitId": null,
        "tags": [

        ]
      },
      "id": "problem_5650"
    },
    {
      "type": "Feature",
      "geometry": {
        "type": "Point",
        "coordinates": [
          2.56306629594,
          48.39030913398
        ]
      },
      "properties": {
        "grade": "4a",
        "circuitNumber": "8",
        "steepness": "wall",
        "height": null,
        "name": "Chemin des Trous",
        "bleauInfoId": "3402",
        "circuitColor": "orange",
        "circuitId": 77,
        "tags": [

        ]
      },
      "id": "problem_5560"
    },
    {
      "type": "Feature",
      "geometry": {
        "type": "Point",
        "coordinates": [
          2.56224084612,
          48.39032627733
        ]
      },
      "properties": {
        "grade": "2c",
        "circuitNumber": "18",
        "steepness": "wall",
        "height": null,
        "name": "Feuille de Choux",
        "bleauInfoId": "3412",
        "circuitColor": "orange",
        "circuitId": 77,
        "tags": [

        ]
      },
      "id": "problem_5590"
    },
    {
      "type": "Feature",
      "geometry": {
        "type": "Point",
        "coordinates": [
          2.56161186811,
          48.39109438277
        ]
      },
      "properties": {
        "grade": "4c",
        "circuitNumber": "25",
        "steepness": "wall",
        "height": null,
        "name": "Le Poisson",
        "bleauInfoId": "3459",
        "circuitColor": "blue",
        "circuitId": 78,
        "tags": [

        ]
      },
      "id": "problem_5661"
    },
    {
      "type": "Feature",
      "geometry": {
        "type": "Point",
        "coordinates": [
          2.56240144338,
          48.39052643114
        ]
      },
      "properties": {
        "grade": "7a",
        "circuitNumber": "",
        "steepness": "traverse",
        "height": null,
        "name": "Stratus",
        "bleauInfoId": "11890",
        "circuitColor": null,
        "circuitId": null,
        "tags": [

        ]
      },
      "id": "problem_5605"
    },
    {
      "type": "Feature",
      "geometry": {
        "type": "Point",
        "coordinates": [
          2.5631933656,
          48.39061459653
        ]
      },
      "properties": {
        "grade": "5c",
        "circuitNumber": "",
        "steepness": "wall",
        "height": null,
        "name": "Gulag",
        "bleauInfoId": "11866",
        "circuitColor": null,
        "circuitId": null,
        "tags": [

        ]
      },
      "id": "problem_5535"
    },
    {
      "type": "Feature",
      "geometry": {
        "type": "Point",
        "coordinates": [
          2.56119143184,
          48.39045518627
        ]
      },
      "properties": {
        "grade": "6c",
        "circuitNumber": "29",
        "steepness": "traverse",
        "height": null,
        "name": "Aéro Beuark",
        "bleauInfoId": "3504",
        "circuitColor": "red",
        "circuitId": 79,
        "tags": [

        ]
      },
      "id": "problem_5624"
    },
    {
      "type": "Feature",
      "geometry": {
        "type": "Point",
        "coordinates": [
          2.56155889448,
          48.39099976171
        ]
      },
      "properties": {
        "grade": "7a",
        "circuitNumber": "",
        "steepness": "wall",
        "height": null,
        "name": "La Mer de la Tranquillité",
        "bleauInfoId": "11432",
        "circuitColor": null,
        "circuitId": null,
        "tags": [
          "sit_start"
        ]
      },
      "id": "problem_5672"
    },
    {
      "type": "Feature",
      "geometry": {
        "type": "Point",
        "coordinates": [
          2.56281651523,
          48.39087998233
        ]
      },
      "properties": {
        "grade": "4a",
        "circuitNumber": "32",
        "steepness": "wall",
        "height": null,
        "name": "Bleu d'Auvergne",
        "bleauInfoId": "3466",
        "circuitColor": "blue",
        "circuitId": 78,
        "tags": [

        ]
      },
      "id": "problem_5734"
    },
    {
      "type": "Feature",
      "geometry": {
        "type": "Point",
        "coordinates": [
          2.56311658753,
          48.39047355399
        ]
      },
      "properties": {
        "grade": "6b",
        "circuitNumber": "",
        "steepness": "other",
        "height": null,
        "name": "F1",
        "bleauInfoId": "11877",
        "circuitColor": null,
        "circuitId": null,
        "tags": [
          "sit_start"
        ]
      },
      "id": "problem_5553"
    },
    {
      "type": "Feature",
      "geometry": {
        "type": "Point",
        "coordinates": [
          2.56327953156,
          48.39059589479
        ]
      },
      "properties": {
        "grade": "5b",
        "circuitNumber": "",
        "steepness": "slab",
        "height": null,
        "name": "Point d'Équilibre",
        "bleauInfoId": "3484",
        "circuitColor": null,
        "circuitId": null,
        "tags": [

        ]
      },
      "id": "problem_5539"
    },
    {
      "type": "Feature",
      "geometry": {
        "type": "Point",
        "coordinates": [
          2.56184555557,
          48.39112176718
        ]
      },
      "properties": {
        "grade": "4a",
        "circuitNumber": "",
        "steepness": "other",
        "height": null,
        "name": "La Bouillotte",
        "bleauInfoId": "",
        "circuitColor": null,
        "circuitId": null,
        "tags": [

        ]
      },
      "id": "problem_5701"
    },
    {
      "type": "Feature",
      "geometry": {
        "type": "Point",
        "coordinates": [
          2.562399767,
          48.39053043866
        ]
      },
      "properties": {
        "grade": "6b",
        "circuitNumber": "23",
        "steepness": "traverse",
        "height": null,
        "name": "La Théorie des Nuages",
        "bleauInfoId": "3497",
        "circuitColor": "red",
        "circuitId": 79,
        "tags": [

        ]
      },
      "id": "problem_5597"
    },
    {
      "type": "Feature",
      "geometry": {
        "type": "Point",
        "coordinates": [
          2.5627551597,
          48.39085282042
        ]
      },
      "properties": {
        "grade": "5b",
        "circuitNumber": "33",
        "steepness": "slab",
        "height": null,
        "name": "la Peur Bleue",
        "bleauInfoId": "3467",
        "circuitColor": "blue",
        "circuitId": 78,
        "tags": [

        ]
      },
      "id": "problem_5735"
    },
    {
      "type": "Feature",
      "geometry": {
        "type": "Point",
        "coordinates": [
          2.56312899258,
          48.39030913398
        ]
      },
      "properties": {
        "grade": "5c",
        "circuitNumber": "17",
        "steepness": "wall",
        "height": null,
        "name": "L'Appui et le Bottant",
        "bleauInfoId": "3489",
        "circuitColor": "red",
        "circuitId": 79,
        "tags": [

        ]
      },
      "id": "problem_5563"
    },
    {
      "type": "Feature",
      "geometry": {
        "type": "Point",
        "coordinates": [
          2.56243664738,
          48.39043871088
        ]
      },
      "properties": {
        "grade": "4a",
        "circuitNumber": "15",
        "steepness": "other",
        "height": null,
        "name": "La Chute d'Eau",
        "bleauInfoId": "3447",
        "circuitColor": "blue",
        "circuitId": 78,
        "tags": [

        ]
      },
      "id": "problem_5593"
    },
    {
      "type": "Feature",
      "geometry": {
        "type": "Point",
        "coordinates": [
          2.56160046872,
          48.39099998435
        ]
      },
      "properties": {
        "grade": "6b+",
        "circuitNumber": "",
        "steepness": "wall",
        "height": null,
        "name": "Plat Acide",
        "bleauInfoId": "11908",
        "circuitColor": null,
        "circuitId": null,
        "tags": [

        ]
      },
      "id": "problem_5671"
    },
    {
      "type": "Feature",
      "geometry": {
        "type": "Point",
        "coordinates": [
          2.56133325364,
          48.39104918732
        ]
      },
      "properties": {
        "grade": "5b",
        "circuitNumber": "",
        "steepness": "other",
        "height": null,
        "name": "Petite Fleur",
        "bleauInfoId": "",
        "circuitColor": null,
        "circuitId": null,
        "tags": [
          "sit_start"
        ]
      },
      "id": "problem_5679"
    },
    {
      "type": "Feature",
      "geometry": {
        "type": "Point",
        "coordinates": [
          2.56328254905,
          48.3905847628
        ]
      },
      "properties": {
        "grade": "6b",
        "circuitNumber": "14",
        "steepness": "wall",
        "height": null,
        "name": "Regard de Statue",
        "bleauInfoId": "3483",
        "circuitColor": "red",
        "circuitId": 79,
        "tags": [

        ]
      },
      "id": "problem_5538"
    },
    {
      "type": "Feature",
      "geometry": {
        "type": "Point",
        "coordinates": [
          2.56289362874,
          48.39089868396
        ]
      },
      "properties": {
        "grade": "7a+",
        "circuitNumber": "",
        "steepness": "overhang",
        "height": null,
        "name": "Jo Dalton",
        "bleauInfoId": "116",
        "circuitColor": null,
        "circuitId": null,
        "tags": [

        ]
      },
      "id": "problem_5741"
    },
    {
      "type": "Feature",
      "geometry": {
        "type": "Point",
        "coordinates": [
          2.56186868962,
          48.39112755576
        ]
      },
      "properties": {
        "grade": "5b",
        "circuitNumber": "",
        "steepness": "other",
        "height": null,
        "name": "Shower Gel",
        "bleauInfoId": "",
        "circuitColor": null,
        "circuitId": null,
        "tags": [

        ]
      },
      "id": "problem_5700"
    },
    {
      "type": "Feature",
      "geometry": {
        "type": "Point",
        "coordinates": [
          2.56224285778,
          48.39046208812
        ]
      },
      "properties": {
        "grade": "4b",
        "circuitNumber": "14",
        "steepness": "other",
        "height": null,
        "name": "L'Hallelujah",
        "bleauInfoId": "3446",
        "circuitColor": "blue",
        "circuitId": 78,
        "tags": [

        ]
      },
      "id": "problem_5592"
    },
    {
      "type": "Feature",
      "geometry": {
        "type": "Point",
        "coordinates": [
          2.56323460456,
          48.39052709906
        ]
      },
      "properties": {
        "grade": "3b",
        "circuitNumber": "5",
        "steepness": "other",
        "height": null,
        "name": "La Boris",
        "bleauInfoId": "3397",
        "circuitColor": "orange",
        "circuitId": 77,
        "tags": [

        ]
      },
      "id": "problem_5532"
    },
    {
      "type": "Feature",
      "geometry": {
        "type": "Point",
        "coordinates": [
          2.56104290452,
          48.39044294105
        ]
      },
      "properties": {
        "grade": "6b+",
        "circuitNumber": "30",
        "steepness": "traverse",
        "height": null,
        "name": "Super Vista",
        "bleauInfoId": "3506",
        "circuitColor": "red",
        "circuitId": 79,
        "tags": [

        ]
      },
      "id": "problem_5625"
    },
    {
      "type": "Feature",
      "geometry": {
        "type": "Point",
        "coordinates": [
          2.56189115278,
          48.39045229217
        ]
      },
      "properties": {
        "grade": "4c",
        "circuitNumber": "17",
        "steepness": "wall",
        "height": null,
        "name": "Le Grelot",
        "bleauInfoId": "3449",
        "circuitColor": "blue",
        "circuitId": 78,
        "tags": [

        ]
      },
      "id": "problem_5616"
    },
    {
      "type": "Feature",
      "geometry": {
        "type": "Point",
        "coordinates": [
          2.56139762666,
          48.39100065226
        ]
      },
      "properties": {
        "grade": "6b+",
        "circuitNumber": "",
        "steepness": "traverse",
        "height": null,
        "name": "Vraie Grandeur",
        "bleauInfoId": "11921",
        "circuitColor": null,
        "circuitId": null,
        "tags": [

        ]
      },
      "id": "problem_5675"
    },
    {
      "type": "Feature",
      "geometry": {
        "type": "Point",
        "coordinates": [
          2.56105028026,
          48.39021940979
        ]
      },
      "properties": {
        "grade": "4a",
        "circuitNumber": "18",
        "steepness": "overhang",
        "height": null,
        "name": "Rotorua",
        "bleauInfoId": "3450",
        "circuitColor": "blue",
        "circuitId": 78,
        "tags": [

        ]
      },
      "id": "problem_5620"
    },
    {
      "type": "Feature",
      "geometry": {
        "type": "Point",
        "coordinates": [
          2.56303578582,
          48.3902583718
        ]
      },
      "properties": {
        "grade": "6b",
        "circuitNumber": "18",
        "steepness": "traverse",
        "height": null,
        "name": "La Traversée du Dévers",
        "bleauInfoId": "3490",
        "circuitColor": "red",
        "circuitId": 79,
        "tags": [

        ]
      },
      "id": "problem_5564"
    },
    {
      "type": "Feature",
      "geometry": {
        "type": "Point",
        "coordinates": [
          2.56194546785,
          48.39120280715
        ]
      },
      "properties": {
        "grade": "7a+",
        "circuitNumber": "",
        "steepness": "other",
        "height": null,
        "name": "Les Envahisseurs",
        "bleauInfoId": "115",
        "circuitColor": null,
        "circuitId": null,
        "tags": [

        ]
      },
      "id": "problem_5697"
    },
    {
      "type": "Feature",
      "geometry": {
        "type": "Point",
        "coordinates": [
          2.56310284104,
          48.39037637152
        ]
      },
      "properties": {
        "grade": "4c",
        "circuitNumber": "6",
        "steepness": "wall",
        "height": null,
        "name": "Le Vertige",
        "bleauInfoId": "3438",
        "circuitColor": "blue",
        "circuitId": 78,
        "tags": [

        ]
      },
      "id": "problem_5555"
    },
    {
      "type": "Feature",
      "geometry": {
        "type": "Point",
        "coordinates": [
          2.56116930362,
          48.39042980526
        ]
      },
      "properties": {
        "grade": "5b",
        "circuitNumber": "",
        "steepness": "other",
        "height": null,
        "name": "Montgolfier",
        "bleauInfoId": "",
        "circuitColor": null,
        "circuitId": null,
        "tags": [

        ]
      },
      "id": "problem_5628"
    },
    {
      "type": "Feature",
      "geometry": {
        "type": "Point",
        "coordinates": [
          2.56139963832,
          48.39098707134
        ]
      },
      "properties": {
        "grade": "6a",
        "circuitNumber": "37",
        "steepness": "traverse",
        "height": null,
        "name": "Le Long Fleuve Tranquille",
        "bleauInfoId": "3514",
        "circuitColor": "red",
        "circuitId": 79,
        "tags": [

        ]
      },
      "id": "problem_5674"
    },
    {
      "type": "Feature",
      "geometry": {
        "type": "Point",
        "coordinates": [
          2.56131447818,
          48.39105007787
        ]
      },
      "properties": {
        "grade": "4a",
        "circuitNumber": "23",
        "steepness": "wall",
        "height": null,
        "name": "La Tranquille",
        "bleauInfoId": "3456",
        "circuitColor": "blue",
        "circuitId": 78,
        "tags": [

        ]
      },
      "id": "problem_5680"
    },
    {
      "type": "Feature",
      "geometry": {
        "type": "Point",
        "coordinates": [
          2.5626301017,
          48.39103226685
        ]
      },
      "properties": {
        "grade": "7b",
        "circuitNumber": "",
        "steepness": "overhang",
        "height": null,
        "name": "La Bombe Humaine",
        "bleauInfoId": "11920",
        "circuitColor": null,
        "circuitId": null,
        "tags": [
          "sit_start"
        ]
      },
      "id": "problem_5715"
    },
    {
      "type": "Feature",
      "geometry": {
        "type": "Point",
        "coordinates": [
          2.5617959347,
          48.3904591938
        ]
      },
      "properties": {
        "grade": "5b+",
        "circuitNumber": "",
        "steepness": "other",
        "height": null,
        "name": "Sitstart is Best",
        "bleauInfoId": "",
        "circuitColor": null,
        "circuitId": null,
        "tags": [
          "sit_start"
        ]
      },
      "id": "problem_5619"
    },
    {
      "type": "Feature",
      "geometry": {
        "type": "Point",
        "coordinates": [
          2.56316553768,
          48.39045563155
        ]
      },
      "properties": {
        "grade": "5c",
        "circuitNumber": "15",
        "steepness": "slab",
        "height": null,
        "name": "L'Amie Dalle",
        "bleauInfoId": "3485",
        "circuitColor": "red",
        "circuitId": 79,
        "tags": [

        ]
      },
      "id": "problem_5548"
    },
    {
      "type": "Feature",
      "geometry": {
        "type": "Point",
        "coordinates": [
          2.56320040639,
          48.39060168343
        ]
      },
      "properties": {
        "grade": "4a",
        "circuitNumber": "4",
        "steepness": "slab",
        "height": null,
        "name": "La Sélective",
        "bleauInfoId": "3396",
        "circuitColor": "orange",
        "circuitId": 77,
        "tags": [

        ]
      },
      "id": "problem_5531"
    },
    {
      "type": "Feature",
      "geometry": {
        "type": "Point",
        "coordinates": [
          2.56173625555,
          48.3908844351
        ]
      },
      "properties": {
        "grade": "5a",
        "circuitNumber": "22",
        "steepness": "wall",
        "height": null,
        "name": "La Mise à Doigts",
        "bleauInfoId": "3455",
        "circuitColor": "blue",
        "circuitId": 78,
        "tags": [

        ]
      },
      "id": "problem_5653"
    },
    {
      "type": "Feature",
      "geometry": {
        "type": "Point",
        "coordinates": [
          2.56285574254,
          48.39089957452
        ]
      },
      "properties": {
        "grade": "3b+",
        "circuitNumber": "36",
        "steepness": "traverse",
        "height": null,
        "name": "Mise en Boule",
        "bleauInfoId": "3430",
        "circuitColor": "orange",
        "circuitId": 77,
        "tags": [

        ]
      },
      "id": "problem_5730"
    },
    {
      "type": "Feature",
      "geometry": {
        "type": "Point",
        "coordinates": [
          2.56277527627,
          48.3901755492
        ]
      },
      "properties": {
        "grade": "4b",
        "circuitNumber": "10",
        "steepness": "wall",
        "height": null,
        "name": "La Perplexe",
        "bleauInfoId": "3442",
        "circuitColor": "blue",
        "circuitId": 78,
        "tags": [

        ]
      },
      "id": "problem_5567"
    },
    {
      "type": "Feature",
      "geometry": {
        "type": "Point",
        "coordinates": [
          2.56115488674,
          48.39042535245
        ]
      },
      "properties": {
        "grade": "5a",
        "circuitNumber": "",
        "steepness": "other",
        "height": null,
        "name": "Aéroplane",
        "bleauInfoId": "",
        "circuitColor": null,
        "circuitId": null,
        "tags": [

        ]
      },
      "id": "problem_5627"
    },
    {
      "type": "Feature",
      "geometry": {
        "type": "Point",
        "coordinates": [
          2.56280411001,
          48.39100621821
        ]
      },
      "properties": {
        "grade": "6a+",
        "circuitNumber": "",
        "steepness": "wall",
        "height": null,
        "name": "Pierre Ponce",
        "bleauInfoId": "11871",
        "circuitColor": null,
        "circuitId": null,
        "tags": [

        ]
      },
      "id": "problem_5723"
    },
    {
      "type": "Feature",
      "geometry": {
        "type": "Point",
        "coordinates": [
          2.56303125976,
          48.39041132599
        ]
      },
      "properties": {
        "grade": "7b",
        "circuitNumber": "",
        "steepness": "overhang",
        "height": null,
        "name": "La Dent Fer (assis)",
        "bleauInfoId": "14288",
        "circuitColor": null,
        "circuitId": null,
        "tags": [
          "sit_start"
        ]
      },
      "id": "problem_5558"
    },
    {
      "type": "Feature",
      "geometry": {
        "type": "Point",
        "coordinates": [
          2.5616318172,
          48.39103237805
        ]
      },
      "properties": {
        "grade": "5b",
        "circuitNumber": "",
        "steepness": "other",
        "height": null,
        "name": "Acid Rain",
        "bleauInfoId": "",
        "circuitColor": null,
        "circuitId": null,
        "tags": [

        ]
      },
      "id": "problem_5668"
    },
    {
      "type": "Feature",
      "geometry": {
        "type": "Point",
        "coordinates": [
          2.56325874444,
          48.39064443024
        ]
      },
      "properties": {
        "grade": "4a",
        "circuitNumber": "3",
        "steepness": "slab",
        "height": null,
        "name": "Le Violon d'Indre",
        "bleauInfoId": "3395",
        "circuitColor": "orange",
        "circuitId": 77,
        "tags": [

        ]
      },
      "id": "problem_5530"
    },
    {
      "type": "Feature",
      "geometry": {
        "type": "Point",
        "coordinates": [
          2.56266798791,
          48.39039640918
        ]
      },
      "properties": {
        "grade": "3a",
        "circuitNumber": "13",
        "steepness": "traverse",
        "height": null,
        "name": "Le Chameau",
        "bleauInfoId": "3407",
        "circuitColor": "orange",
        "circuitId": 77,
        "tags": [

        ]
      },
      "id": "problem_5578"
    },
    {
      "type": "Feature",
      "geometry": {
        "type": "Point",
        "coordinates": [
          2.56280276891,
          48.39106076448
        ]
      },
      "properties": {
        "grade": "6b",
        "circuitNumber": "5",
        "steepness": "other",
        "height": null,
        "name": "Casa Nova",
        "bleauInfoId": "3471",
        "circuitColor": "red",
        "circuitId": 79,
        "tags": [

        ]
      },
      "id": "problem_5718"
    },
    {
      "type": "Feature",
      "geometry": {
        "type": "Point",
        "coordinates": [
          2.56308607724,
          48.39036702061
        ]
      },
      "properties": {
        "grade": "3a",
        "circuitNumber": "",
        "steepness": "other",
        "height": null,
        "name": "Cassius",
        "bleauInfoId": "",
        "circuitColor": null,
        "circuitId": null,
        "tags": [

        ]
      },
      "id": "problem_5559"
    },
    {
      "type": "Feature",
      "geometry": {
        "type": "Point",
        "coordinates": [
          2.5624624633,
          48.3902140664
        ]
      },
      "properties": {
        "grade": "3a",
        "circuitNumber": "16",
        "steepness": "slab",
        "height": null,
        "name": "L'Air Chaud",
        "bleauInfoId": "3410",
        "circuitColor": "orange",
        "circuitId": 77,
        "tags": [

        ]
      },
      "id": "problem_5582"
    },
    {
      "type": "Feature",
      "geometry": {
        "type": "Point",
        "coordinates": [
          2.56282590296,
          48.39082699434
        ]
      },
      "properties": {
        "grade": "3b",
        "circuitNumber": "37",
        "steepness": "other",
        "height": null,
        "name": "L'Arrivée",
        "bleauInfoId": "3431",
        "circuitColor": "orange",
        "circuitId": 77,
        "tags": [

        ]
      },
      "id": "problem_5729"
    },
    {
      "type": "Feature",
      "geometry": {
        "type": "Point",
        "coordinates": [
          2.56277158823,
          48.39016174542
        ]
      },
      "properties": {
        "grade": "2c",
        "circuitNumber": "10",
        "steepness": "other",
        "height": null,
        "name": "La Tromperie",
        "bleauInfoId": "3404",
        "circuitColor": "orange",
        "circuitId": 77,
        "tags": [

        ]
      },
      "id": "problem_5566"
    },
    {
      "type": "Feature",
      "geometry": {
        "type": "Point",
        "coordinates": [
          2.56287518855,
          48.39102269342
        ]
      },
      "properties": {
        "grade": "5c",
        "circuitNumber": "6",
        "steepness": "wall",
        "height": null,
        "name": "Le Mur du Songe",
        "bleauInfoId": "3475",
        "circuitColor": "red",
        "circuitId": 79,
        "tags": [

        ]
      },
      "id": "problem_5719"
    },
    {
      "type": "Feature",
      "geometry": {
        "type": "Point",
        "coordinates": [
          2.56221368875,
          48.39034542445
        ]
      },
      "properties": {
        "grade": "4c",
        "circuitNumber": "13",
        "steepness": "wall",
        "height": null,
        "name": "La Smirsch",
        "bleauInfoId": "3445",
        "circuitColor": "blue",
        "circuitId": 78,
        "tags": [

        ]
      },
      "id": "problem_5589"
    },
    {
      "type": "Feature",
      "geometry": {
        "type": "Point",
        "coordinates": [
          2.5632255521,
          48.3905362273
        ]
      },
      "properties": {
        "grade": "4a",
        "circuitNumber": "4",
        "steepness": "wall",
        "height": null,
        "name": "La Dorée",
        "bleauInfoId": "3436",
        "circuitColor": "blue",
        "circuitId": 78,
        "tags": [

        ]
      },
      "id": "problem_5534"
    },
    {
      "type": "Feature",
      "geometry": {
        "type": "Point",
        "coordinates": [
          2.56113845821,
          48.3904278015
        ]
      },
      "properties": {
        "grade": "5a",
        "circuitNumber": "19",
        "steepness": "overhang",
        "height": null,
        "name": "La Rolls Royce",
        "bleauInfoId": "3451",
        "circuitColor": "blue",
        "circuitId": 78,
        "tags": [

        ]
      },
      "id": "problem_5623"
    },
    {
      "type": "Feature",
      "geometry": {
        "type": "Point",
        "coordinates": [
          2.56290435757,
          48.39087775595
        ]
      },
      "properties": {
        "grade": "5c",
        "circuitNumber": "31",
        "steepness": "wall",
        "height": null,
        "name": "La Sévère",
        "bleauInfoId": "3465",
        "circuitColor": "blue",
        "circuitId": 78,
        "tags": [

        ]
      },
      "id": "problem_5733"
    },
    {
      "type": "Feature",
      "geometry": {
        "type": "Point",
        "coordinates": [
          2.56313636882,
          48.39048479732
        ]
      },
      "properties": {
        "grade": "7b",
        "circuitNumber": "",
        "steepness": "traverse",
        "height": null,
        "name": "Cascades en Chaîne",
        "bleauInfoId": "11876",
        "circuitColor": null,
        "circuitId": null,
        "tags": [

        ]
      },
      "id": "problem_5552"
    },
    {
      "type": "Feature",
      "geometry": {
        "type": "Point",
        "coordinates": [
          2.56165847149,
          48.3910496326
        ]
      },
      "properties": {
        "grade": "3c",
        "circuitNumber": "",
        "steepness": "other",
        "height": null,
        "name": "Avocat",
        "bleauInfoId": "",
        "circuitColor": null,
        "circuitId": null,
        "tags": [

        ]
      },
      "id": "problem_5664"
    },
    {
      "type": "Feature",
      "geometry": {
        "type": "Point",
        "coordinates": [
          2.56177749451,
          48.39094677384
        ]
      },
      "properties": {
        "grade": "6b",
        "circuitNumber": "36",
        "steepness": "roof",
        "height": null,
        "name": "Obli-Yettes",
        "bleauInfoId": "11056",
        "circuitColor": "red",
        "circuitId": 79,
        "tags": [
          "sit_start"
        ]
      },
      "id": "problem_5652"
    },
    {
      "type": "Feature",
      "geometry": {
        "type": "Point",
        "coordinates": [
          2.56287183579,
          48.39085571473
        ]
      },
      "properties": {
        "grade": "7c",
        "circuitNumber": "",
        "steepness": "other",
        "height": null,
        "name": "Sensation",
        "bleauInfoId": "123",
        "circuitColor": null,
        "circuitId": null,
        "tags": [

        ]
      },
      "id": "problem_5744"
    },
    {
      "type": "Feature",
      "geometry": {
        "type": "Point",
        "coordinates": [
          2.56252046641,
          48.39038483187
        ]
      },
      "properties": {
        "grade": "7a",
        "circuitNumber": "",
        "steepness": "traverse",
        "height": null,
        "name": "Le Tourniquet du 93.7",
        "bleauInfoId": "114",
        "circuitColor": null,
        "circuitId": null,
        "tags": [

        ]
      },
      "id": "problem_5581"
    },
    {
      "type": "Feature",
      "geometry": {
        "type": "Point",
        "coordinates": [
          2.56317794289,
          48.39046052964
        ]
      },
      "properties": {
        "grade": "3a",
        "circuitNumber": "6",
        "steepness": "wall",
        "height": null,
        "name": "Plein Gaz",
        "bleauInfoId": "3399",
        "circuitColor": "orange",
        "circuitId": 77,
        "tags": [

        ]
      },
      "id": "problem_5545"
    },
    {
      "type": "Feature",
      "geometry": {
        "type": "Point",
        "coordinates": [
          2.56196424332,
          48.3911994676
        ]
      },
      "properties": {
        "grade": "4c",
        "circuitNumber": "27",
        "steepness": "other",
        "height": null,
        "name": "La Belle Prise",
        "bleauInfoId": "3461",
        "circuitColor": "blue",
        "circuitId": 78,
        "tags": [
          "risky"
        ]
      },
      "id": "problem_5695"
    },
    {
      "type": "Feature",
      "geometry": {
        "type": "Point",
        "coordinates": [
          2.56303243306,
          48.39027262084
        ]
      },