{
  "type": "FeatureCollection",
  "features": [
    {
      "type": "Feature",
      "geometry": {
        "type": "Point",
        "coordinates": [
          2.66412233251,
          48.46235700838
        ]
      },
      "properties": {
        "grade": "4c",
        "circuitNumber": "5",
        "steepness": "slab",
        "height": 5,
        "name": "Le Dalle Bleu",
        "circuitColor": "orange",
        "tags": [
          "risky"
        ],
        "topos": [
          {
            "id": 341
          }
        ]
      },
      "id": "problem_82"
    },
    {
      "type": "Feature",
      "geometry": {
        "type": "Point",
        "coordinates": [
          2.66341417791,
          48.46159598848
        ]
      },
      "properties": {
        "grade": "4b",
        "circuitNumber": "40",
        "steepness": "slab",
        "height": 6,
        "name": "Le Cervin",
        "circuitColor": "skyblue",
        "tags": [
          "risky"
        ],
        "topos": [
          {
            "id": 538
          }
        ]
      },
      "id": "problem_101"
    },
    {
      "type": "Feature",
      "geometry": {
        "type": "Point",
        "coordinates": [
          2.66368458313,
          48.46174954247
        ]
      },
      "properties": {
        "grade": "3b",
        "circuitNumber": "31",
        "steepness": "wall",
        "height": null,
        "name": null,
        "circuitColor": "yellow",
        "topos": [
          {
            "id": 453
          }
        ]
      },
      "id": "problem_19"
    },
    {
      "type": "Feature",
      "geometry": {
        "type": "Point",
        "coordinates": [
          2.6632900322,
          48.46306758608
        ]
      },
      "properties": {
        "grade": "4b",
        "circuitNumber": "29",
        "steepness": "wall",
        "height": 4,
        "name": "Hôtels",
        "circuitColor": "blue",
        "topos": [
          {
            "id": 390
          }
        ]
      },
      "id": "problem_136"
    },
    {
      "type": "Feature",
      "geometry": {
        "type": "Point",
        "coordinates": [
          2.66359799446,
          48.46243792646
        ]
      },
      "properties": {
        "grade": "2c",
        "circuitNumber": "10",
        "steepness": "wall",
        "height": null,
        "name": null,
        "circuitColor": "orange",
        "topos": [
          {
            "id": 350
          }
        ]
      },
      "id": "problem_78"
    },
    {
      "type": "Feature",
      "geometry": {
        "type": "Point",
        "coordinates": [
          2.66365369692,
          48.46285624968
        ]
      },
      "properties": {
        "grade": "6b",
        "circuitNumber": "29",
        "steepness": "traverse",
        "height": null,
        "name": "Les Temps Modernes",
        "circuitColor": "red",
        "topos": [
          {
            "id": 465
          }
        ]
      },
      "id": "problem_149"
    },
    {
      "type": "Feature",
      "geometry": {
        "type": "Point",
        "coordinates": [
          2.6631659426,
          48.46284557586
        ]
      },
      "properties": {
        "grade": "2c",
        "circuitNumber": "1",
        "steepness": "traverse",
        "height": null,
        "name": null,
        "circuitColor": "yellow",
        "topos": [
          {
            "id": 370
          }
        ]
      },
      "id": "problem_48"
    },
    {
      "type": "Feature",
      "geometry": {
        "type": "Point",
        "coordinates": [
          2.66369726534,
          48.4617527648
        ]
      },
      "properties": {
        "grade": "5a+",
        "circuitNumber": "34",
        "steepness": "wall",
        "height": null,
        "name": "L'Imprévue",
        "circuitColor": "skyblue",
        "topos": [
          {
            "id": 388
          }
        ]
      },
      "id": "problem_95"
    },
    {
      "type": "Feature",
      "geometry": {
        "type": "Point",
        "coordinates": [
          2.66270887235,
          48.46285149487
        ]
      },
      "properties": {
        "grade": "3a",
        "circuitNumber": "14",
        "steepness": "slab",
        "height": 3,
        "name": "Le Bistrot",
        "circuitColor": "yellow",
        "topos": [
          {
            "id": 336
          }
        ]
      },
      "id": "problem_36"
    },
    {
      "type": "Feature",
      "geometry": {
        "type": "Point",
        "coordinates": [
          2.66345942106,
          48.46265770332
        ]
      },
      "properties": {
        "grade": "3b+",
        "circuitNumber": "16",
        "steepness": "traverse",
        "height": 4,
        "name": "Mariage de Figaro",
        "circuitColor": "orange",
        "topos": [
          {
            "id": 314
          }
        ]
      },
      "id": "problem_154"
    },
    {
      "type": "Feature",
      "geometry": {
        "type": "Point",
        "coordinates": [
          2.66382314877,
          48.46184841617
        ]
      },
      "properties": {
        "grade": "4c",
        "circuitNumber": "14",
        "steepness": "wall",
        "height": 5,
        "name": "Le Pilier du Dromadaire",
        "circuitColor": "skyblue",
        "tags": [
          "risky"
        ],
        "topos": [
          {
            "id": 375
          }
        ]
      },
      "id": "problem_88"
    },
    {
      "type": "Feature",
      "geometry": {
        "type": "Point",
        "coordinates": [
          2.66361199446,
          48.46255692905
        ]
      },
      "properties": {
        "grade": "4b",
        "circuitNumber": "17",
        "steepness": "wall",
        "height": 4,
        "name": "Soleil Couchant",
        "circuitColor": "blue",
        "topos": [
          {
            "id": 281
          }
        ]
      },
      "id": "problem_214"
    },
    {
      "type": "Feature",
      "geometry": {
        "type": "Point",
        "coordinates": [
          2.66354862254,
          48.46157698463
        ]
      },
      "properties": {
        "grade": "2c",
        "circuitNumber": "33",
        "steepness": "slab",
        "height": null,
        "name": "Lola",
        "circuitColor": "yellow",
        "topos": [
          {
            "id": 294
          }
        ]
      },
      "id": "problem_17"
    },
    {
      "type": "Feature",
      "geometry": {
        "type": "Point",
        "coordinates": [
          2.66352170275,
          48.46297825408
        ]
      },
      "properties": {
        "grade": "6b",
        "circuitNumber": "33",
        "steepness": "wall",
        "height": 4,
        "name": "L'Astragale",
        "circuitColor": "red",
        "topos": [
          {
            "id": 472
          }
        ]
      },
      "id": "problem_144"
    },
    {
      "type": "Feature",
      "geometry": {
        "type": "Point",
        "coordinates": [
          2.66374847239,
          48.46158509628
        ]
      },
      "properties": {
        "grade": "5c+",
        "circuitNumber": "8",
        "steepness": "wall",
        "height": 4,
        "name": "Le Sphinx (droite)",
        "circuitColor": "skyblue",
        "topos": [
          {
            "id": 320
          }
        ]
      },
      "id": "problem_97"
    },
    {
      "type": "Feature",
      "geometry": {
        "type": "Point",
        "coordinates": [
          2.66349704527,
          48.46147992771
        ]
      },
      "properties": {
        "grade": "1b",
        "circuitNumber": "34",
        "steepness": "slab",
        "height": null,
        "name": null,
        "circuitColor": "yellow",
        "topos": [
          {
            "id": 329
          }
        ]
      },
      "id": "problem_16"
    },
    {
      "type": "Feature",
      "geometry": {
        "type": "Point",
        "coordinates": [
          2.66419827007,
          48.46284014677
        ]
      },
      "properties": {
        "grade": "5c",
        "circuitNumber": "28",
        "steepness": "overhang",
        "height": 4,
        "name": "Puzzle",
        "circuitColor": "red",
        "topos": [
          {
            "id": 460
          }
        ]
      },
      "id": "problem_161"
    },
    {
      "type": "Feature",
      "geometry": {
        "type": "Point",
        "coordinates": [
          2.66216888401,
          48.4623119089
        ]
      },
      "properties": {
        "grade": "4c",
        "circuitNumber": "38",
        "steepness": "wall",
        "height": 3,
        "name": "Méditation",
        "circuitColor": "blue",
        "topos": [
          {
            "id": 517
          }
        ]
      },
      "id": "problem_210"
    },
    {
      "type": "Feature",
      "geometry": {
        "type": "Point",
        "coordinates": [
          2.66363500029,
          48.46245859247
        ]
      },
      "properties": {
        "grade": "3c",
        "circuitNumber": "11",
        "steepness": "wall",
        "height": null,
        "name": "Opus Dei",
        "circuitColor": "orange",
        "topos": [
          {
            "id": 337
          }
        ]
      },
      "id": "problem_167"
    },
    {
      "type": "Feature",
      "geometry": {
        "type": "Point",
        "coordinates": [
          2.66343289261,
          48.46272459022
        ]
      },
      "properties": {
        "grade": "3a",
        "circuitNumber": "13",
        "steepness": "wall",
        "height": null,
        "name": null,
        "circuitColor": "orange",
        "topos": [
          {
            "id": 392
          }
        ]
      },
      "id": "problem_74"
    },
    {
      "type": "Feature",
      "geometry": {
        "type": "Point",
        "coordinates": [
          2.66366367667,
          48.462555263
        ]
      },
      "properties": {
        "grade": "4a",
        "circuitNumber": "15",
        "steepness": "wall",
        "height": 4,
        "name": "L'Amérique",
        "circuitColor": "blue",
        "topos": [
          {
            "id": 427
          }
        ]
      },
      "id": "problem_216"
    },
    {
      "type": "Feature",
      "geometry": {
        "type": "Point",
        "coordinates": [
          2.66258748099,
          48.46129401167
        ]
      },
      "properties": {
        "grade": "5c",
        "circuitNumber": "9",
        "steepness": "wall",
        "height": null,
        "name": "Coup de Poker",
        "circuitColor": "red"
      },
      "id": "problem_108"
    },
    {
      "type": "Feature",
      "geometry": {
        "type": "Point",
        "coordinates": [
          2.66332120014,
          48.4622201827
        ]
      },
      "properties": {
        "grade": "2b",
        "circuitNumber": "23",
        "steepness": "wall",
        "height": null,
        "name": null,
        "circuitColor": "yellow",
        "tags": [
          "risky"
        ],
        "topos": [
          {
            "id": 363
          }
        ]
      },
      "id": "problem_27"
    },
    {
      "type": "Feature",
      "geometry": {
        "type": "Point",
        "coordinates": [
          2.66322988788,
          48.46309747534
        ]
      },
      "properties": {
        "grade": "6c+",
        "circuitNumber": "9",
        "steepness": "overhang",
        "height": 3,
        "name": "Beaux Mouvements sur Fonds Sableux",
        "circuitColor": "white",
        "tags": [
          "sit_start"
        ],
        "topos": [
          {
            "id": 405
          }
        ]
      },
      "id": "problem_229"
    },
    {
      "type": "Feature",
      "geometry": {
        "type": "Point",
        "coordinates": [
          2.66341703927,
          48.46216124691
        ]
      },
      "properties": {
        "grade": "6a",
        "circuitNumber": "19",
        "steepness": "slab",
        "height": 4,
        "name": "Les Petits Pieds",
        "circuitColor": "red",
        "topos": [
          {
            "id": 412
          }
        ]
      },
      "id": "problem_193"
    },
    {
      "type": "Feature",
      "geometry": {
        "type": "Point",
        "coordinates": [
          2.66277314352,
          48.46286738322
        ]
      },
      "properties": {
        "grade": "6b+",
        "circuitNumber": "42",
        "steepness": "wall",
        "height": 3,
        "name": "Saillie d'Esprit",
        "circuitColor": "red",
        "topos": [
          {
            "id": 423
          }
        ]
      },
      "id": "problem_132"
    },
    {
      "type": "Feature",
      "geometry": {
        "type": "Point",
        "coordinates": [
          2.66342234226,
          48.46223544753
        ]
      },
      "properties": {
        "grade": "6c+",
        "circuitNumber": "13",
        "steepness": "wall",
        "height": null,
        "name": "Expositions retrospectives",
        "circuitColor": "white",
        "tags": [
          "risky"
        ],
        "topos": [
          {
            "id": 323
          }
        ]
      },
      "id": "problem_233"
    },
    {
      "type": "Feature",
      "geometry": {
        "type": "Point",
        "coordinates": [
          2.66381744325,
          48.46183130167
        ]
      },
      "properties": {
        "grade": "3b",
        "circuitNumber": "29",
        "steepness": "wall",
        "height": 5,
        "name": "Magouilles",
        "circuitColor": "yellow",
        "tags": [
          "risky"
        ],
        "topos": [
          {
            "id": 306
          }
        ]
      },
      "id": "problem_21"
    },
    {
      "type": "Feature",
      "geometry": {
        "type": "Point",
        "coordinates": [
          2.66339946656,
          48.46151098459
        ]
      },
      "properties": {
        "grade": "6a+",
        "circuitNumber": "13",
        "steepness": "wall",
        "height": 4,
        "name": "Le Smig",
        "circuitColor": "red",
        "topos": [
          {
            "id": 468
          }
        ]
      },
      "id": "problem_109"
    },
    {
      "type": "Feature",
      "geometry": {
        "type": "Point",
        "coordinates": [
          2.66387644907,
          48.46180130448
        ]
      },
      "properties": {
        "grade": "2b",
        "circuitNumber": "30",
        "steepness": "slab",
        "height": null,
        "name": null,
        "circuitColor": "yellow",
        "topos": [
          {
            "id": 439
          }
        ]
      },
      "id": "problem_20"
    },
    {
      "type": "Feature",
      "geometry": {
        "type": "Point",
        "coordinates": [
          2.66379571747,
          48.46247514965
        ]
      },
      "properties": {
        "grade": "4b",
        "circuitNumber": "23",
        "steepness": "wall",
        "height": null,
        "name": "Les Plats",
        "circuitColor": "skyblue",
        "topos": [
          {
            "id": 399
          }
        ]
      },
      "id": "problem_189"
    },
    {
      "type": "Feature",
      "geometry": {
        "type": "Point",
        "coordinates": [
          2.6626727791,
          48.46287005293
        ]
      },
      "properties": {
        "grade": "3c",
        "circuitNumber": "32",
        "steepness": "wall",
        "height": 3,
        "name": "Nocturne",
        "circuitColor": "blue",
        "topos": [
          {
            "id": 415
          }
        ]
      },
      "id": "problem_130"
    },
    {
      "type": "Feature",
      "geometry": {
        "type": "Point",
        "coordinates": [
          2.66351381941,
          48.46225720376
        ]
      },
      "properties": {
        "grade": "4a",
        "circuitNumber": "18",
        "steepness": "overhang",
        "height": 5,
        "name": "La Soprano",
        "circuitColor": "skyblue",
        "tags": [
          "risky"
        ],
        "topos": [
          {
            "id": 385
          }
        ]
      },
      "id": "problem_180"
    },
    {
      "type": "Feature",
      "geometry": {
        "type": "Point",
        "coordinates": [
          2.66346214554,
          48.46223898888
        ]
      },
      "properties": {
        "grade": "4a",
        "circuitNumber": "22",
        "steepness": "slab",
        "height": 6,
        "name": "Confiance",
        "circuitColor": "orange",
        "tags": [
          "risky"
        ],
        "topos": [
          {
            "id": 467
          }
        ]
      },
      "id": "problem_69"
    },
    {
      "type": "Feature",
      "geometry": {
        "type": "Point",
        "coordinates": [
          2.66355740966,
          48.4617259895
        ]
      },
      "properties": {
        "grade": "3a",
        "circuitNumber": "24",
        "steepness": "wall",
        "height": null,
        "name": "Drambruie",
        "circuitColor": "orange",
        "topos": [
          {
            "id": 421
          }
        ]
      },
      "id": "problem_67"
    },
    {
      "type": "Feature",
      "geometry": {
        "type": "Point",
        "coordinates": [
          2.664168,
          48.461068
        ]
      },
      "properties": {
        "grade": "3a",
        "circuitNumber": "42",
        "steepness": "overhang",
        "height": null,
        "name": "La calandre",
        "circuitColor": "orange",
        "tags": [
          "risky"
        ]
      },
      "id": "problem_50"
    },
    {
      "type": "Feature",
      "geometry": {
        "type": "Point",
        "coordinates": [
          2.66355693589,
          48.46170254196
        ]
      },
      "properties": {
        "grade": "4c",
        "circuitNumber": "35",
        "steepness": "wall",
        "height": 4,
        "name": "La Cachée",
        "circuitColor": "skyblue",
        "topos": [
          {
            "id": 534
          }
        ]
      },
      "id": "problem_96"
    },
    {
      "type": "Feature",
      "geometry": {
        "type": "Point",
        "coordinates": [
          2.663892,
          48.461092
        ]
      },
      "properties": {
        "grade": "4a",
        "circuitNumber": "43",
        "steepness": "slab",
        "height": 5,
        "name": "La Crêpe",
        "circuitColor": "orange",
        "tags": [
          "risky"
        ],
        "topos": [
          {
            "id": 553
          }
        ]
      },
      "id": "problem_49"
    },
    {
      "type": "Feature",
      "geometry": {
        "type": "Point",
        "coordinates": [
          2.6625394957,
          48.46328312145
        ]
      },
      "properties": {
        "grade": "2b",
        "circuitNumber": "10",
        "steepness": "slab",
        "height": null,
        "name": null,
        "circuitColor": "yellow",
        "topos": [
          {
            "id": 432
          }
        ]
      },
      "id": "problem_39"
    },
    {
      "type": "Feature",
      "geometry": {
        "type": "Point",
        "coordinates": [
          2.66349371164,
          48.4625243719
        ]
      },
      "properties": {
        "grade": "3a+",
        "circuitNumber": "18",
        "steepness": "overhang",
        "height": null,
        "name": null,
        "circuitColor": "orange",
        "topos": [
          {
            "id": 463
          }
        ]
      },
      "id": "problem_75"
    },
    {
      "type": "Feature",
      "geometry": {
        "type": "Point",
        "coordinates": [
          2.66299540799,
          48.46144567763
        ]
      },
      "properties": {
        "grade": "2c",
        "circuitNumber": "27",
        "steepness": "wall",
        "height": 4,
        "name": null,
        "circuitColor": "orange",
        "topos": [
          {
            "id": 542
          }
        ]
      },
      "id": "problem_63"
    },
    {
      "type": "Feature",
      "geometry": {
        "type": "Point",
        "coordinates": [
          2.66427504969,
          48.46186774637
        ]
      },
      "properties": {
        "grade": "7a",
        "circuitNumber": "14",
        "steepness": "overhang",
        "height": null,
        "name": "Les Copains d'abord",
        "circuitColor": "white",
        "tags": [
          "sit_start"
        ]
      },
      "id": "problem_234"
    },
    {
      "type": "Feature",
      "geometry": {
        "type": "Point",
        "coordinates": [
          2.66341672087,
          48.46281908029
        ]
      },
      "properties": {
        "grade": "4a",
        "circuitNumber": "22",
        "steepness": "wall",
        "height": null,
        "name": "Le Chou-Fleur",
        "circuitColor": "blue",
        "topos": [
          {
            "id": 466
          }
        ]
      },
      "id": "problem_150"
    },
    {
      "type": "Feature",
      "geometry": {
        "type": "Point",
        "coordinates": [
          2.66414673218,
          48.46257367066
        ]
      },
      "properties": {
        "grade": "5a",
        "circuitNumber": "8",
        "steepness": "wall",
        "height": 4,
        "name": "L'Espace",
        "circuitColor": "blue",
        "topos": [
          {
            "id": 322
          }
        ]
      },
      "id": "problem_177"
    },
    {
      "type": "Feature",
      "geometry": {
        "type": "Point",
        "coordinates": [
          2.66428806596,
          48.46261258269
        ]
      },
      "properties": {
        "grade": "3a",
        "circuitNumber": "2",
        "steepness": "traverse",
        "height": null,
        "name": null,
        "circuitColor": "orange",
        "topos": [
          {
            "id": 307
          }
        ]
      },
      "id": "problem_85"
    },
    {
      "type": "Feature",
      "geometry": {
        "type": "Point",
        "coordinates": [
          2.664256,
          48.461113
        ]
      },
      "properties": {
        "grade": "3b",
        "circuitNumber": "41",
        "steepness": "overhang",
        "height": null,
        "name": null,
        "circuitColor": "orange"
      },
      "id": "problem_51"
    },
    {
      "type": "Feature",
      "geometry": {
        "type": "Point",
        "coordinates": [
          2.664348,
          48.461095
        ]
      },
      "properties": {
        "grade": "3b+",
        "circuitNumber": "40",
        "steepness": "wall",
        "height": null,
        "name": null,
        "circuitColor": "orange"
      },
      "id": "problem_52"
    },
    {
      "type": "Feature",
      "geometry": {
        "type": "Point",
        "coordinates": [
          2.664191,
          48.460957
        ]
      },
      "properties": {
        "grade": "3a",
        "circuitNumber": "38",
        "steepness": "wall",
        "height": null,
        "name": null,
        "circuitColor": "orange"
      },
      "id": "problem_54"
    },
    {
      "type": "Feature",
      "geometry": {
        "type": "Point",
        "coordinates": [
          2.66257369138,
          48.4630424745
        ]
      },
      "properties": {
        "grade": "4a",
        "circuitNumber": "31",
        "steepness": "slab",
        "height": null,
        "name": "Poésies",
        "circuitColor": "blue",
        "topos": [
          {
            "id": 318
          }
        ]
      },
      "id": "problem_128"
    },
    {
      "type": "Feature",
      "geometry": {
        "type": "Point",
        "coordinates": [
          2.66362067667,
          48.46251337099
        ]
      },
      "properties": {
        "grade": "6a+",
        "circuitNumber": "25",
        "steepness": "overhang",
        "height": 4,
        "name": "Nuage Blanc",
        "circuitColor": "red",
        "topos": [
          {
            "id": 474
          }
        ]
      },
      "id": "problem_219"
    },
    {
      "type": "Feature",
      "geometry": {
        "type": "Point",
        "coordinates": [
          2.66421158147,
          48.4625725422
        ]
      },
      "properties": {
        "grade": "2a",
        "circuitNumber": "3",
        "steepness": "traverse",
        "height": null,
        "name": "La Folklorique",
        "circuitColor": "orange",
        "topos": [
          {
            "id": 276
          }
        ]
      },
      "id": "problem_84"
    },
    {
      "type": "Feature",
      "geometry": {
        "type": "Point",
        "coordinates": [
          2.6641860966,
          48.46256089161
        ]
      },
      "properties": {
        "grade": "3b",
        "circuitNumber": "4",
        "steepness": "slab",
        "height": 3,
        "name": "Le Butte",
        "circuitColor": "orange",
        "topos": [
          {
            "id": 346
          }
        ]
      },
      "id": "problem_83"
    },
    {
      "type": "Feature",
      "geometry": {
        "type": "Point",
        "coordinates": [
          2.66336248404,
          48.46158476807
        ]
      },
      "properties": {
        "grade": "5a+",
        "circuitNumber": "38",
        "steepness": "wall",
        "height": null,
        "name": "L'Impossible",
        "circuitColor": "skyblue",
        "topos": [
          {
            "id": 379
          }
        ]
      },
      "id": "problem_102"
    },
    {
      "type": "Feature",
      "geometry": {
        "type": "Point",
        "coordinates": [
          2.66343316625,
          48.46157665066
        ]
      },
      "properties": {
        "grade": "7a+",
        "circuitNumber": "17",
        "steepness": "slab",
        "height": 6,
        "name": "Délivrance / Marquis de Sade",
        "circuitColor": "white",
        "tags": [
          "risky"
        ],
        "topos": [
          {
            "id": 539
          }
        ]
      },
      "id": "problem_237"
    },
    {
      "type": "Feature",
      "geometry": {
        "type": "Point",
        "coordinates": [
          2.66351005551,
          48.46296080582
        ]
      },
      "properties": {
        "grade": "6c+",
        "circuitNumber": "4",
        "steepness": "wall",
        "height": 4,
        "name": "L'Innominata",
        "circuitColor": "white",
        "topos": [
          {
            "id": 380
          }
        ]
      },
      "id": "problem_223"
    },
    {
      "type": "Feature",
      "geometry": {
        "type": "Point",
        "coordinates": [
          2.66340011254,
          48.46221870792
        ]
      },
      "properties": {
        "grade": "5c",
        "circuitNumber": "23",
        "steepness": "overhang",
        "height": null,
        "name": "SOS Glycogène",
        "circuitColor": "red",
        "topos": [
          {
            "id": 406
          }
        ]
      },
      "id": "problem_191"
    },
    {
      "type": "Feature",
      "geometry": {
        "type": "Point",
        "coordinates": [
          2.66320600306,
          48.46299625043
        ]
      },
      "properties": {
        "grade": "4a+",
        "circuitNumber": "27",
        "steepness": "wall",
        "height": 4,
        "name": "Quatrain",
        "circuitColor": "blue",
        "topos": [
          {
            "id": 321
          }
        ]
      },
      "id": "problem_138"
    },
    {
      "type": "Feature",
      "geometry": {
        "type": "Point",
        "coordinates": [
          2.66360803526,
          48.46239926047
        ]
      },
      "properties": {
        "grade": "3c+",
        "circuitNumber": "9",
        "steepness": "slab",
        "height": null,
        "name": "La Contrabasse",
        "circuitColor": "orange",
        "topos": [
          {
            "id": 325
          }
        ]
      },
      "id": "problem_79"
    },
    {
      "type": "Feature",
      "geometry": {
        "type": "Point",
        "coordinates": [
          2.66316597392,
          48.46299202811
        ]
      },
      "properties": {
        "grade": "5a",
        "circuitNumber": "26",
        "steepness": "wall",
        "height": 4,
        "name": "Le Sylphe",
        "circuitColor": "blue",
        "topos": [
          {
            "id": 366
          }
        ]
      },
      "id": "problem_139"
    },
    {
      "type": "Feature",
      "geometry": {
        "type": "Point",
        "coordinates": [
          2.66308144167,
          48.4630285433
        ]
      },
      "properties": {
        "grade": "2b",
        "circuitNumber": "4",
        "steepness": "overhang",
        "height": null,
        "name": null,
        "circuitColor": "yellow",
        "topos": [
          {
            "id": 292
          }
        ]
      },
      "id": "problem_45"
    },
    {
      "type": "Feature",
      "geometry": {
        "type": "Point",
        "coordinates": [
          2.66418812574,
          48.46285936906
        ]
      },
      "properties": {
        "grade": "6c+",
        "circuitNumber": "2",
        "steepness": "overhang",
        "height": 4,
        "name": "Magifix",
        "circuitColor": "white",
        "topos": [
          {
            "id": 445
          }
        ]
      },
      "id": "problem_221"
    },
    {
      "type": "Feature",
      "geometry": {
        "type": "Point",
        "coordinates": [
          2.66343080184,
          48.4615589827
        ]
      },
      "properties": {
        "grade": "2a",
        "circuitNumber": "36",
        "steepness": "slab",
        "height": null,
        "name": null,
        "circuitColor": "yellow",
        "tags": [
          "risky"
        ],
        "topos": [
          {
            "id": 541
          }
        ]
      },
      "id": "problem_14"
    },
    {
      "type": "Feature",
      "geometry": {
        "type": "Point",
        "coordinates": [
          2.663884,
          48.461251
        ]
      },
      "properties": {
        "grade": "5b",
        "circuitNumber": "4",
        "steepness": "slab",
        "height": 5,
        "name": "L'Appuyette",
        "circuitColor": "skyblue",
        "tags": [
          "risky"
        ],
        "topos": [
          {
            "id": 335
          }
        ]
      },
      "id": "problem_118"
    },
    {
      "type": "Feature",
      "geometry": {
        "type": "Point",
        "coordinates": [
          2.66330099388,
          48.46083302777
        ]
      },
      "properties": {
        "grade": "4a+",
        "circuitNumber": "32",
        "steepness": "overhang",
        "height": 4,
        "name": "Candide",
        "circuitColor": "orange",
        "topos": [
          {
            "id": 426
          }
        ]
      },
      "id": "problem_59"
    },
    {
      "type": "Feature",
      "geometry": {
        "type": "Point",
        "coordinates": [
          2.66371769387,
          48.46106777865
        ]
      },
      "properties": {
        "grade": "6a+",
        "circuitNumber": "1",
        "steepness": "wall",
        "height": 6,
        "name": "Force G",
        "circuitColor": "red",
        "tags": [
          "risky"
        ],
        "topos": [
          {
            "id": 397
          }
        ]
      },
      "id": "problem_122"
    },
    {
      "type": "Feature",
      "geometry": {
        "type": "Point",
        "coordinates": [
          2.663775,
          48.46131700194
        ]
      },
      "properties": {
        "grade": "6a+",
        "circuitNumber": "3",
        "steepness": "wall",
        "height": 3,
        "name": "Le Talon d'Achille",
        "circuitColor": "red",
        "topos": [
          {
            "id": 333
          }
        ]
      },
      "id": "problem_115"
    },
    {
      "type": "Feature",
      "geometry": {
        "type": "Point",
        "coordinates": [
          2.66368998834,
          48.46110533301
        ]
      },
      "properties": {
        "grade": "4a",
        "circuitNumber": "2",
        "steepness": "overhang",
        "height": 6,
        "name": "Le Pied Levé",
        "circuitColor": "skyblue",
        "tags": [
          "risky"
        ],
        "topos": [
          {
            "id": 268
          }
        ]
      },
      "id": "problem_119"
    },
    {
      "type": "Feature",
      "geometry": {
        "type": "Point",
        "coordinates": [
          2.66373404663,
          48.46138689126
        ]
      },
      "properties": {
        "grade": "4b",
        "circuitNumber": "7",
        "steepness": "overhang",
        "height": 3,
        "name": "Le dévers",
        "circuitColor": "skyblue",
        "topos": [
          {
            "id": 401
          }
        ]
      },
      "id": "problem_114"
    },
    {
      "type": "Feature",
      "geometry": {
        "type": "Point",
        "coordinates": [
          2.66385061227,
          48.4610675573
        ]
      },
      "properties": {
        "grade": "5a",
        "circuitNumber": "1",
        "steepness": "slab",
        "height": 5,
        "name": "Le Cap Gap",
        "circuitColor": "skyblue",
        "tags": [
          "risky"
        ],
        "topos": [
          {
            "id": 552
          }
        ]
      },
      "id": "problem_126"
    },
    {
      "type": "Feature",
      "geometry": {
        "type": "Point",
        "coordinates": [
          2.66392902331,
          48.46131588932
        ]
      },
      "properties": {
        "grade": "5b",
        "circuitNumber": "5",
        "steepness": "wall",
        "height": 4,
        "name": "Le Bloc",
        "circuitColor": "skyblue",
        "topos": [
          {
            "id": 351
          }
        ]
      },
      "id": "problem_117"
    },
    {
      "type": "Feature",
      "geometry": {
        "type": "Point",
        "coordinates": [
          2.66377580766,
          48.46164942742
        ]
      },
      "properties": {
        "grade": "4a",
        "circuitNumber": "10",
        "steepness": "wall",
        "height": null,
        "name": "L'Intermédiaire",
        "circuitColor": "skyblue",
        "topos": [
          {
            "id": 287
          }
        ]
      },
      "id": "problem_123"
    },
    {
      "type": "Feature",
      "geometry": {
        "type": "Point",
        "coordinates": [
          2.66297140799,
          48.46144067763
        ]
      },
      "properties": {
        "grade": "2a",
        "circuitNumber": "39",
        "steepness": "slab",
        "height": null,
        "name": null,
        "circuitColor": "yellow",
        "topos": [
          {
            "id": 345
          }
        ]
      },
      "id": "problem_11"
    },
    {
      "type": "Feature",
      "geometry": {
        "type": "Point",
        "coordinates": [
          2.66342048404,
          48.46153154187
        ]
      },
      "properties": {
        "grade": "3b",
        "circuitNumber": "26",
        "steepness": "slab",
        "height": 4,
        "name": "Bofinger",
        "circuitColor": "orange",
        "topos": [
          {
            "id": 362
          }
        ]
      },
      "id": "problem_65"
    },
    {
      "type": "Feature",
      "geometry": {
        "type": "Point",
        "coordinates": [
          2.66304418986,
          48.46242639349
        ]
      },
      "properties": {
        "grade": "2c",
        "circuitNumber": "19",
        "steepness": "overhang",
        "height": null,
        "name": "Autoroute du Soleil",
        "circuitColor": "yellow",
        "topos": [
          {
            "id": 369
          }
        ]
      },
      "id": "problem_31"
    },
    {
      "type": "Feature",
      "geometry": {
        "type": "Point",
        "coordinates": [
          2.66345538496,
          48.46218902064
        ]
      },
      "properties": {
        "grade": "6b",
        "circuitNumber": "20",
        "steepness": "slab",
        "height": 6,
        "name": "Chlorophylle",
        "circuitColor": "red",
        "tags": [
          "risky"
        ],
        "topos": [
          {
            "id": 338
          }
        ]
      },
      "id": "problem_183"
    },
    {
      "type": "Feature",
      "geometry": {
        "type": "Point",
        "coordinates": [
          2.66364142765,
          48.46237075019
        ]
      },
      "properties": {
        "grade": "4b",
        "circuitNumber": "10",
        "steepness": "slab",
        "height": 4,
        "name": "Égérie",
        "circuitColor": "blue",
        "topos": [
          {
            "id": 344
          }
        ]
      },
      "id": "problem_164"
    },
    {
      "type": "Feature",
      "geometry": {
        "type": "Point",
        "coordinates": [
          2.66356450298,
          48.46225733607
        ]
      },
      "properties": {
        "grade": "3c",
        "circuitNumber": "19",
        "steepness": "wall",
        "height": 3,
        "name": "La Goulotte",
        "circuitColor": "skyblue",
        "topos": [
          {
            "id": 411
          }
        ]
      },
      "id": "problem_179"
    },
    {
      "type": "Feature",
      "geometry": {
        "type": "Point",
        "coordinates": [
          2.66304013988,
          48.46121556559
        ]
      },
      "properties": {
        "grade": "5c",
        "circuitNumber": "6",
        "steepness": "slab",
        "height": 4,
        "name": "Quintessence",
        "circuitColor": "red",
        "topos": [
          {
            "id": 548
          }
        ]
      },
      "id": "problem_124"
    },
    {
      "type": "Feature",
      "geometry": {
        "type": "Point",
        "coordinates": [
          2.66354367084,
          48.46252059423
        ]
      },
      "properties": {
        "grade": "1a+",
        "circuitNumber": "12",
        "steepness": "wall",
        "height": null,
        "name": null,
        "circuitColor": "orange",
        "topos": [
          {
            "id": 402
          }
        ]
      },
      "id": "problem_76"
    },
    {
      "type": "Feature",
      "geometry": {
        "type": "Point",
        "coordinates": [
          2.66259237359,
          48.46305280843
        ]
      },
      "properties": {
        "grade": "3b",
        "circuitNumber": "13",
        "steepness": "slab",
        "height": 4,
        "name": "Poseurs",
        "circuitColor": "yellow",
        "topos": [
          {
            "id": 312
          }
        ]
      },
      "id": "problem_1"
    },
    {
      "type": "Feature",
      "geometry": {
        "type": "Point",
        "coordinates": [
          2.66417826424,
          48.46287814717
        ]
      },
      "properties": {
        "grade": "4b+",
        "circuitNumber": "4",
        "steepness": "overhang",
        "height": null,
        "name": "L'Hiver",
        "circuitColor": "blue",
        "topos": [
          {
            "id": 340
          }
        ]
      },
      "id": "problem_160"
    },
    {
      "type": "Feature",
      "geometry": {
        "type": "Point",
        "coordinates": [
          2.663514,
          48.461235
        ]
      },
      "properties": {
        "grade": "6a",
        "circuitNumber": "5",
        "steepness": "overhang",
        "height": 4,
        "name": "L'Ancien",
        "circuitColor": "red",
        "topos": [
          {
            "id": 267
          }
        ]
      },
      "id": "problem_112"
    },
    {
      "type": "Feature",
      "geometry": {
        "type": "Point",
        "coordinates": [
          2.663547,
          48.461234
        ]
      },
      "properties": {
        "grade": "6b",
        "circuitNumber": "4",
        "steepness": "overhang",
        "height": 4,
        "name": "Dure Limite",
        "circuitColor": "red",
        "topos": [
          {
            "id": 316
          }
        ]
      },
      "id": "problem_113"
    },
    {
      "type": "Feature",
      "geometry": {
        "type": "Point",
        "coordinates": [
          2.663918,
          48.46138
        ]
      },
      "properties": {
        "grade": "5a+",
        "circuitNumber": "6",
        "steepness": "wall",
        "height": 4,
        "name": "L'Atrappe-Mouche",
        "circuitColor": "skyblue",
        "topos": [
          {
            "id": 395
          }
        ]
      },
      "id": "problem_116"
    },
    {
      "type": "Feature",
      "geometry": {
        "type": "Point",
        "coordinates": [
          2.66358760644,
          48.46172009875
        ]
      },
      "properties": {
        "grade": "2a",
        "circuitNumber": "32",
        "steepness": "traverse",
        "height": null,
        "name": null,
        "circuitColor": "yellow",
        "topos": [
          {
            "id": 535
          }
        ]
      },
      "id": "problem_18"
    },
    {
      "type": "Feature",
      "geometry": {
        "type": "Point",
        "coordinates": [
          2.66292835305,
          48.46231704717
        ]
      },
      "properties": {
        "grade": "4b",
        "circuitNumber": "27",
        "steepness": "wall",
        "height": null,
        "name": "L'Oubliée",
        "circuitColor": "skyblue",
        "topos": [
          {
            "id": 317
          }
        ]
      },
      "id": "problem_200"
    },
    {
      "type": "Feature",
      "geometry": {
        "type": "Point",
        "coordinates": [
          2.66356344907,
          48.46157631668
        ]
      },
      "properties": {
        "grade": "5c",
        "circuitNumber": "15",
        "steepness": "wall",
        "height": 3,
        "name": "Faute de Frappe",
        "circuitColor": "red",
        "topos": [
          {
            "id": 425
          }
        ]
      },
      "id": "problem_127"
    },
    {
      "type": "Feature",
      "geometry": {
        "type": "Point",
        "coordinates": [
          2.66328368804,
          48.46316889109
        ]
      },
      "properties": {
        "grade": "6a",
        "circuitNumber": "38",
        "steepness": "overhang",
        "height": null,
        "name": "L'Araignée",
        "circuitColor": "red",
        "topos": [
          {
            "id": 441
          }
        ]
      },
      "id": "problem_133"
    },
    {
      "type": "Feature",
      "geometry": {
        "type": "Point",
        "coordinates": [
          2.66264348462,
          48.46286538505
        ]
      },
      "properties": {
        "grade": "6a",
        "circuitNumber": "41",
        "steepness": "wall",
        "height": null,
        "name": "Macadam",
        "circuitColor": "red",
        "topos": [
          {
            "id": 327
          }
        ]
      },
      "id": "problem_131"
    },
    {
      "type": "Feature",
      "geometry": {
        "type": "Point",
        "coordinates": [
          2.66368597086,
          48.46111922233
        ]
      },
      "properties": {
        "grade": "6b",
        "circuitNumber": "2",
        "steepness": "slab",
        "height": null,
        "name": "Scarlatine",
        "circuitColor": "red",
        "topos": [
          {
            "id": 352
          }
        ]
      },
      "id": "problem_120"
    },
    {
      "type": "Feature",
      "geometry": {
        "type": "Point",
        "coordinates": [
          2.663209,
          48.463181
        ]
      },
      "properties": {
        "grade": "5a",
        "circuitNumber": "28",
        "steepness": "slab",
        "height": 4,
        "name": "Le Pont Mirabeau",
        "circuitColor": "blue",
        "topos": [
          {
            "id": 407
          }
        ]
      },
      "id": "problem_134"
    },
    {
      "type": "Feature",
      "geometry": {
        "type": "Point",
        "coordinates": [
          2.6639864957,
          48.46188752502
        ]
      },
      "properties": {
        "grade": "5b",
        "circuitNumber": "12",
        "steepness": "overhang",
        "height": 5,
        "name": "Le Beaufort",
        "circuitColor": "skyblue",
        "tags": [
          "risky"
        ],
        "topos": [
          {
            "id": 442
          }
        ]
      },
      "id": "problem_86"
    },
    {
      "type": "Feature",
      "geometry": {
        "type": "Point",
        "coordinates": [
          2.66419559755,
          48.46088012254
        ]
      },
      "properties": {
        "grade": "3c",
        "circuitNumber": "37",
        "steepness": "wall",
        "height": null,
        "name": null,
        "circuitColor": "orange",
        "topos": [
          {
            "id": 288
          }
        ]
      },
      "id": "problem_125"
    },
    {
      "type": "Feature",
      "geometry": {
        "type": "Point",
        "coordinates": [
          2.66368604109,
          48.46244259436
        ]
      },
      "properties": {
        "grade": "2c",
        "circuitNumber": "8",
        "steepness": "traverse",
        "height": null,
        "name": "L'Ex Saut du Jaune",
        "circuitColor": "orange",
        "topos": [
          {
            "id": 361
          }
        ]
      },
      "id": "problem_80"
    },
    {
      "type": "Feature",
      "geometry": {
        "type": "Point",
        "coordinates": [
          2.66324669692,
          48.46304502804
        ]
      },
      "properties": {
        "grade": "2a",
        "circuitNumber": "2",
        "steepness": "slab",
        "height": null,
        "name": null,
        "circuitColor": "yellow",
        "topos": [
          {
            "id": 354
          }
        ]
      },
      "id": "problem_47"
    },
    {
      "type": "Feature",
      "geometry": {
        "type": "Point",
        "coordinates": [
          2.66337105474,
          48.46212311706
        ]
      },
      "properties": {
        "grade": "4c",
        "circuitNumber": "15",
        "steepness": "slab",
        "height": null,
        "name": "La Dalle de Marbre",
        "circuitColor": "skyblue",
        "topos": [
          {
            "id": 422
          }
        ]
      },
      "id": "problem_186"
    },
    {
      "type": "Feature",
      "geometry": {
        "type": "Point",
        "coordinates": [
          2.66347495311,
          48.46266031563
        ]
      },
      "properties": {
        "grade": "3b",
        "circuitNumber": "19",
        "steepness": "wall",
        "height": 4,
        "name": "Paysage",
        "circuitColor": "blue",
        "topos": [
          {
            "id": 440
          }
        ]
      },
      "id": "problem_156"
    },
    {
      "type": "Feature",
      "geometry": {
        "type": "Point",
        "coordinates": [
          2.66347264447,
          48.46293947009
        ]
      },
      "properties": {
        "grade": "5a",
        "circuitNumber": "32",
        "steepness": "wall",
        "height": 4,
        "name": "Le Pion Cassé",
        "circuitColor": "red",
        "topos": [
          {
            "id": 433
          }
        ]
      },
      "id": "problem_143"
    },
    {
      "type": "Feature",
      "geometry": {
        "type": "Point",
        "coordinates": [
          2.66316898557,
          48.46294058534
        ]
      },
      "properties": {
        "grade": "3c",
        "circuitNumber": "25",
        "steepness": "wall",
        "height": null,
        "name": "Il va Neiger",
        "circuitColor": "blue",
        "topos": [
          {
            "id": 381
          }
        ]
      },
      "id": "problem_142"
    },
    {
      "type": "Feature",
      "geometry": {
        "type": "Point",
        "coordinates": [
          2.66336963281,
          48.46297391833
        ]
      },
      "properties": {
        "grade": "6a",
        "circuitNumber": "31",
        "steepness": "wall",
        "height": 3,
        "name": "L'Oeuf de Colombe",
        "circuitColor": "red",
        "topos": [
          {
            "id": 313
          }
        ]
      },
      "id": "problem_147"
    },
    {
      "type": "Feature",
      "geometry": {
        "type": "Point",
        "coordinates": [
          2.66395559507,
          48.46273391313
        ]
      },
      "properties": {
        "grade": "4b+",
        "circuitNumber": "7",
        "steepness": "wall",
        "height": 3,
        "name": "Ode",
        "circuitColor": "blue",
        "topos": [
          {
            "id": 409
          }
        ]
      },
      "id": "problem_157"
    },
    {
      "type": "Feature",
      "geometry": {
        "type": "Point",
        "coordinates": [
          2.66393632362,
          48.46292255445
        ]
      },
      "properties": {
        "grade": "5c",
        "circuitNumber": "36",
        "steepness": "slab",
        "height": null,
        "name": "Pyramide",
        "circuitColor": "red",
        "tags": [
          "risky"
        ]
      },
      "id": "problem_148"
    },
    {
      "type": "Feature",
      "geometry": {
        "type": "Point",
        "coordinates": [
          2.66429461009,
          48.46261922919
        ]
      },
      "properties": {
        "grade": "3c",
        "circuitNumber": "3",
        "steepness": "wall",
        "height": 5,
        "name": "La Belle Vieille",
        "circuitColor": "blue",
        "tags": [
          "risky"
        ],
        "topos": [
          {
            "id": 308
          }
        ]
      },
      "id": "problem_173"
    },
    {
      "type": "Feature",
      "geometry": {
        "type": "Point",
        "coordinates": [
          2.66326133833,
          48.46307592001
        ]
      },
      "properties": {
        "grade": "6b",
        "circuitNumber": "40",
        "steepness": "overhang",
        "height": 4,
        "name": "Le Pot de Fer",
        "circuitColor": "red",
        "topos": [
          {
            "id": 358
          }
        ]
      },
      "id": "problem_137"
    },
    {
      "type": "Feature",
      "geometry": {
        "type": "Point",
        "coordinates": [
          2.66343189844,
          48.46268325909
        ]
      },
      "properties": {
        "grade": "2b",
        "circuitNumber": "15",
        "steepness": "wall",
        "height": null,
        "name": "Prison",
        "circuitColor": "orange",
        "topos": [
          {
            "id": 431
          }
        ]
      },
      "id": "problem_152"
    },
    {
      "type": "Feature",
      "geometry": {
        "type": "Point",
        "coordinates": [
          2.66406748404,
          48.4618370803
        ]
      },
      "properties": {
        "grade": "3c+",
        "circuitNumber": "11",
        "steepness": "wall",
        "height": null,
        "name": "L'Ex-Souche",
        "circuitColor": "skyblue",
        "topos": [
          {
            "id": 297
          }
        ]
      },
      "id": "problem_87"
    },
    {
      "type": "Feature",
      "geometry": {
        "type": "Point",
        "coordinates": [
          2.66376607023,
          48.46249014963
        ]
      },
      "properties": {
        "grade": "4b",
        "circuitNumber": "9",
        "steepness": "wall",
        "height": null,
        "name": "Crépuscule",
        "circuitColor": "blue",
        "topos": [
          {
            "id": 365
          }
        ]
      },
      "id": "problem_170"
    },
    {
      "type": "Feature",
      "geometry": {
        "type": "Point",
        "coordinates": [
          2.66315678312,
          48.46215968646
        ]
      },
      "properties": {
        "grade": "3a",
        "circuitNumber": "22",
        "steepness": "wall",
        "height": null,
        "name": null,
        "circuitColor": "yellow",
        "topos": [
          {
            "id": 527
          }
        ]
      },
      "id": "problem_28"
    },
    {
      "type": "Feature",
      "geometry": {
        "type": "Point",
        "coordinates": [
          2.66349574879,
          48.46217108615
        ]
      },
      "properties": {
        "grade": "6a",
        "circuitNumber": "18",
        "steepness": "wall",
        "height": null,
        "name": "Bateau Pilote",
        "circuitColor": "red",
        "topos": [
          {
            "id": 383
          }
        ]
      },
      "id": "problem_198"
    },
    {
      "type": "Feature",
      "geometry": {
        "type": "Point",
        "coordinates": [
          2.66424838529,
          48.4626414556
        ]
      },
      "properties": {
        "grade": "7b",
        "circuitNumber": "1",
        "steepness": "overhang",
        "height": 5,
        "name": "Cadeau du Vent",
        "circuitColor": "white",
        "tags": [
          "risky"
        ],
        "topos": [
          {
            "id": 300
          }
        ]
      },
      "id": "problem_220"
    },
    {
      "type": "Feature",
      "geometry": {
        "type": "Point",
        "coordinates": [
          2.66342280766,
          48.46158731861
        ]
      },
      "properties": {
        "grade": "6b+",
        "circuitNumber": "14",
        "steepness": "slab",
        "height": 6,
        "name": "Superlative",
        "circuitColor": "red",
        "tags": [
          "risky"
        ],
        "topos": [
          {
            "id": 537
          }
        ]
      },
      "id": "problem_104"
    },
    {
      "type": "Feature",
      "geometry": {
        "type": "Point",
        "coordinates": [
          2.66371233528,
          48.46113777963
        ]
      },
      "properties": {
        "grade": "5a",
        "circuitNumber": "3",
        "steepness": "overhang",
        "height": null,
        "name": "Le Bombé",
        "circuitColor": "skyblue",
        "topos": [
          {
            "id": 315
          }
        ]
      },
      "id": "problem_121"
    },
    {
      "type": "Feature",
      "geometry": {
        "type": "Point",
        "coordinates": [
          2.66417558786,
          48.46257400415
        ]
      },
      "properties": {
        "grade": "6b+",
        "circuitNumber": "26",
        "steepness": "slab",
        "height": 4,
        "name": "Le Damier",
        "circuitColor": "red",
        "topos": [
          {
            "id": 272
          }
        ]
      },
      "id": "problem_176"
    },
    {
      "type": "Feature",
      "geometry": {
        "type": "Point",
        "coordinates": [
          2.66347418235,
          48.46215135557
        ]
      },
      "properties": {
        "grade": "4a",
        "circuitNumber": "16",
        "steepness": "wall",
        "height": null,
        "name": "L'Emmenthal",
        "circuitColor": "skyblue",
        "topos": [
          {
            "id": 326
          }
        ]
      },
      "id": "problem_194"
    },
    {
      "type": "Feature",
      "geometry": {
        "type": "Point",
        "coordinates": [
          2.66382200029,
          48.46242837206
        ]
      },
      "properties": {
        "grade": "3c",
        "circuitNumber": "7",
        "steepness": "overhang",
        "height": null,
        "name": null,
        "circuitColor": "orange",
        "topos": [
          {
            "id": 386
          }
        ]
      },
      "id": "problem_190"
    },
    {
      "type": "Feature",
      "geometry": {
        "type": "Point",
        "coordinates": [
          2.66362234707,
          48.46234290747
        ]
      },
      "properties": {
        "grade": "5a",
        "circuitNumber": "20",
        "steepness": "wall",
        "height": 6,
        "name": "La Contralto",
        "circuitColor": "skyblue",
        "tags": [
          "risky"
        ],
        "topos": [
          {
            "id": 332
          }
        ]
      },
      "id": "problem_163"
    },
    {
      "type": "Feature",
      "geometry": {
        "type": "Point",
        "coordinates": [
          2.66293741687,
          48.46126668746
        ]
      },
      "properties": {
        "grade": "6a+",
        "circuitNumber": "7",
        "steepness": "wall",
        "height": 4,
        "name": "Jets Interdits",
        "circuitColor": "red",
        "topos": [
          {
            "id": 544
          }
        ]
      },
      "id": "problem_110"
    },
    {
      "type": "Feature",
      "geometry": {
        "type": "Point",
        "coordinates": [
          2.66372299446,
          48.46249370497
        ]
      },
      "properties": {
        "grade": "4c",
        "circuitNumber": "24",
        "steepness": "wall",
        "height": null,
        "name": "La Frouch'mammouth",
        "circuitColor": "skyblue",
        "topos": [
          {
            "id": 437
          }
        ]
      },
      "id": "problem_188"
    },
    {
      "type": "Feature",
      "geometry": {
        "type": "Point",
        "coordinates": [
          2.66349377735,
          48.46221677986
        ]
      },
      "properties": {
        "grade": "5b+",
        "circuitNumber": "17",
        "steepness": "wall",
        "height": 6,
        "name": "Le Cheval d'Arçon",
        "circuitColor": "skyblue",
        "tags": [
          "risky"
        ],
        "topos": [
          {
            "id": 359
          }
        ]
      },
      "id": "problem_182"
    },
    {
      "type": "Feature",
      "geometry": {
        "type": "Point",
        "coordinates": [
          2.66222671528,
          48.46270744823
        ]
      },
      "properties": {
        "grade": "7a",
        "circuitNumber": "11",
        "steepness": "traverse",
        "height": 2,
        "name": "Sledgehammer",
        "circuitColor": "white",
        "topos": [
          {
            "id": 514
          },
          {
            "id": 515
          }
        ]
      },
      "id": "problem_231"
    },
    {
      "type": "Feature",
      "geometry": {
        "type": "Point",
        "coordinates": [
          2.66364901777,
          48.46241170417
        ]
      },
      "properties": {
        "grade": "5b+",
        "circuitNumber": "21",
        "steepness": "wall",
        "height": 5,
        "name": "La Bendix",
        "circuitColor": "skyblue",
        "tags": [
          "risky"
        ],
        "topos": [
          {
            "id": 353
          }
        ]
      },
      "id": "problem_166"
    },
    {
      "type": "Feature",
      "geometry": {
        "type": "Point",
        "coordinates": [
          2.66427617961,
          48.46262709133
        ]
      },
      "properties": {
        "grade": "4a",
        "circuitNumber": "2",
        "steepness": "wall",
        "height": 5,
        "name": "Solitude",
        "circuitColor": "blue",
        "tags": [
          "risky"
        ],
        "topos": [
          {
            "id": 275
          }
        ]
      },
      "id": "problem_174"
    },
    {
      "type": "Feature",
      "geometry": {
        "type": "Point",
        "coordinates": [
          2.66368867667,
          48.46243192647
        ]
      },
      "properties": {
        "grade": "4c",
        "circuitNumber": "13",
        "steepness": "overhang",
        "height": null,
        "name": "Stances",
        "circuitColor": "blue",
        "topos": [
          {
            "id": 384
          }
        ]
      },
      "id": "problem_169"
    },
    {
      "type": "Feature",
      "geometry": {
        "type": "Point",
        "coordinates": [
          2.66343039662,
          48.46300925222
        ]
      },
      "properties": {
        "grade": "6b",
        "circuitNumber": "35",
        "steepness": "traverse",
        "height": null,
        "name": "La Longue Marche",
        "circuitColor": "red",
        "topos": [
          {
            "id": 404
          }
        ]
      },
      "id": "problem_146"
    },
    {
      "type": "Feature",
      "geometry": {
        "type": "Point",
        "coordinates": [
          2.66426216117,
          48.46263653588
        ]
      },
      "properties": {
        "grade": "6a+",
        "circuitNumber": "27",
        "steepness": "wall",
        "height": 5,
        "name": "La Prothèse",
        "circuitColor": "red",
        "tags": [
          "risky"
        ],
        "topos": [
          {
            "id": 311
          }
        ]
      },
      "id": "problem_172"
    },
    {
      "type": "Feature",
      "geometry": {
        "type": "Point",
        "coordinates": [
          2.66319234693,
          48.46318866427
        ]
      },
      "properties": {
        "grade": "5c",
        "circuitNumber": "39",
        "steepness": "slab",
        "height": 4,
        "name": "La Dame de Pique",
        "circuitColor": "red",
        "topos": [
          {
            "id": 414
          }
        ]
      },
      "id": "problem_135"
    },
    {
      "type": "Feature",
      "geometry": {
        "type": "Point",
        "coordinates": [
          2.66363733556,
          48.46255615137
        ]
      },
      "properties": {
        "grade": "5c",
        "circuitNumber": "16",
        "steepness": "wall",
        "height": 4,
        "name": "Le Vallon",
        "circuitColor": "blue",
        "topos": [
          {
            "id": 304
          }
        ]
      },
      "id": "problem_215"
    },
    {
      "type": "Feature",
      "geometry": {
        "type": "Point",
        "coordinates": [
          2.66327568527,
          48.46307203072
        ]
      },
      "properties": {
        "grade": "6c+",
        "circuitNumber": "8",
        "steepness": "wall",
        "height": null,
        "name": "Pot de Terre",
        "circuitColor": "white",
        "topos": [
          {
            "id": 391
          }
        ]
      },
      "id": "problem_228"
    },
    {
      "type": "Feature",
      "geometry": {
        "type": "Point",
        "coordinates": [
          2.6637696589,
          48.4609372243
        ]
      },
      "properties": {
        "grade": "7a",
        "circuitNumber": "22",
        "steepness": "wall",
        "height": 5,
        "name": "Les Grimpeurs se Cachent pour Médire",
        "circuitColor": "white",
        "tags": [
          "risky"
        ]
      },
      "id": "problem_243"
    },
    {
      "type": "Feature",
      "geometry": {
        "type": "Point",
        "coordinates": [
          2.66292711547,
          48.46229848624
        ]
      },
      "properties": {
        "grade": "7b",
        "circuitNumber": "12",
        "steepness": "overhang",
        "height": 4,
        "name": "Jour de Pluie",
        "circuitColor": "white",
        "tags": [
          "sit_start"
        ],
        "topos": [
          {
            "id": 364
          }
        ]
      },
      "id": "problem_232"
    },
    {
      "type": "Feature",
      "geometry": {
        "type": "Point",
        "coordinates": [
          2.66337852634,
          48.4628567918
        ]
      },
      "properties": {
        "grade": "7a",
        "circuitNumber": "3",
        "steepness": "traverse",
        "height": null,
        "name": "Lune de Fiel",
        "circuitColor": "white",
        "topos": [
          {
            "id": 448
          }
        ]
      },
      "id": "problem_222"
    },
    {
      "type": "Feature",
      "geometry": {
        "type": "Point",
        "coordinates": [
          2.66311263558,
          48.46332500089
        ]
      },
      "properties": {
        "grade": "6c",
        "circuitNumber": "7",
        "steepness": "traverse",
        "height": null,
        "name": "Canonnerie",
        "circuitColor": "white"
      },
      "id": "problem_227"
    },
    {
      "type": "Feature",
      "geometry": {
        "type": "Point",
        "coordinates": [
          2.66375203497,
          48.46136866602
        ]
      },
      "properties": {
        "grade": "7a",
        "circuitNumber": "20",
        "steepness": "overhang",
        "height": null,
        "name": "36.15 Gauche",
        "circuitColor": "white"
      },
      "id": "problem_241"
    },
    {
      "type": "Feature",
      "geometry": {
        "type": "Point",
        "coordinates": [
          2.66326935859,
          48.46315811071
        ]
      },
      "properties": {
        "grade": "7a",
        "circuitNumber": "5",
        "steepness": "overhang",
        "height": null,
        "name": "Les Câlins de Kim",
        "circuitColor": "white",
        "topos": [
          {
            "id": 417
          }
        ]
      },
      "id": "problem_224"
    },
    {
      "type": "Feature",
      "geometry": {
        "type": "Point",
        "coordinates": [
          2.66202375884,
          48.46243514972
        ]
      },
      "properties": {
        "grade": "4a",
        "circuitNumber": "36",
        "steepness": "overhang",
        "height": null,
        "name": "Tristesse",
        "circuitColor": "blue",
        "topos": [
          {
            "id": 302
          }
        ]
      },
      "id": "problem_208"
    },
    {
      "type": "Feature",
      "geometry": {
        "type": "Point",
        "coordinates": [
          2.66304684292,
          48.46244072741
        ]
      },
      "properties": {
        "grade": "4a",
        "circuitNumber": "26",
        "steepness": "wall",
        "height": null,
        "name": "Le But",
        "circuitColor": "skyblue",
        "topos": [
          {
            "id": 266
          }
        ]
      },
      "id": "problem_199"
    },
    {
      "type": "Feature",
      "geometry": {
        "type": "Point",
        "coordinates": [
          2.66383979018,
          48.46160276328
        ]
      },
      "properties": {
        "grade": "6b+",
        "circuitNumber": "15",
        "steepness": "traverse",
        "height": 4,
        "name": "La Singlette",
        "circuitColor": "white",
        "topos": [
          {
            "id": 284
          }
        ]
      },
      "id": "problem_235"
    },
    {
      "type": "Feature",
      "geometry": {
        "type": "Point",
        "coordinates": [
          2.66386698834,
          48.46112322331
        ]
      },
      "properties": {
        "grade": "7a+",
        "circuitNumber": "21",
        "steepness": "overhang",
        "height": 4,
        "name": "Fantasia chez les Ploucs",
        "circuitColor": "white",
        "topos": [
          {
            "id": 428
          }
        ]
      },
      "id": "problem_242"
    },
    {
      "type": "Feature",
      "geometry": {
        "type": "Point",
        "coordinates": [
          2.66358081932,
          48.46149109333
        ]
      },
      "properties": {
        "grade": "7a+",
        "circuitNumber": "18",
        "steepness": "wall",
        "height": 4,
        "name": "La Dénoyautée",
        "circuitColor": "white",
        "topos": [
          {
            "id": 310
          }
        ]
      },
      "id": "problem_238"
    },
    {
      "type": "Feature",
      "geometry": {
        "type": "Point",
        "coordinates": [
          2.66368968221,
          48.46139389126
        ]
      },
      "properties": {
        "grade": "7b",
        "circuitNumber": "19",
        "steepness": "overhang",
        "height": 4,
        "name": "Nut's",
        "circuitColor": "white",
        "topos": [
          {
            "id": 274
          }
        ]
      },
      "id": "problem_239"
    },
    {
      "type": "Feature",
      "geometry": {
        "type": "Point",
        "coordinates": [
          2.66353103941,
          48.46171710018
        ]
      },
      "properties": {
        "grade": "6c",
        "circuitNumber": "16",
        "steepness": "traverse",
        "height": 3,
        "name": "Gainage et Dévers",
        "circuitColor": "white",
        "topos": [
          {
            "id": 449
          }
        ]
      },
      "id": "problem_236"
    },
    {
      "type": "Feature",
      "geometry": {
        "type": "Point",
        "coordinates": [
          2.66322939714,
          48.46291200633
        ]
      },
      "properties": {
        "grade": "4a",
        "circuitNumber": "23",
        "steepness": "wall",
        "height": 5,
        "name": "Chanson d'Automne",
        "circuitColor": "blue",
        "tags": [
          "risky"
        ],
        "topos": [
          {
            "id": 461
          }
        ]
      },
      "id": "problem_140"
    },
    {
      "type": "Feature",
      "geometry": {
        "type": "Point",
        "coordinates": [
          2.66455314848,
          48.46099622922
        ]
      },
      "properties": {
        "grade": "7a",
        "circuitNumber": "24",
        "steepness": "wall",
        "height": 5,
        "name": "Chasseur de Prises",
        "circuitColor": "white",
        "topos": [
          {
            "id": 554
          }
        ]
      },
      "id": "problem_245"
    },
    {
      "type": "Feature",
      "geometry": {
        "type": "Point",
        "coordinates": [
          2.6637960086,
          48.46078
        ]
      },
      "properties": {
        "grade": "2b",
        "circuitNumber": "34",
        "steepness": "wall",
        "height": null,
        "name": "Le Tour de Canon",
        "circuitColor": "orange",
        "topos": [
          {
            "id": 557
          }
        ]
      },
      "id": "problem_57"
    },
    {
      "type": "Feature",
      "geometry": {
        "type": "Point",
        "coordinates": [
          2.66276546627,
          48.4613931592
        ]
      },
      "properties": {
        "grade": "6a",
        "circuitNumber": "10",
        "steepness": "overhang",
        "height": null,
        "name": "Adrénaline",
        "circuitColor": "red",
        "topos": [
          {
            "id": 290
          }
        ]
      },
      "id": "problem_107"
    },
    {
      "type": "Feature",
      "geometry": {
        "type": "Point",
        "coordinates": [
          2.66347831944,
          48.46188431428
        ]
      },
      "properties": {
        "grade": "5c",
        "circuitNumber": "17",
        "steepness": "wall",
        "height": 4,
        "name": "Le Whist",
        "circuitColor": "red",
        "topos": [
          {
            "id": 357
          }
        ]
      },
      "id": "problem_93"
    },
    {
      "type": "Feature",
      "geometry": {
        "type": "Point",
        "coordinates": [
          2.66455114848,
          48.46103922921
        ]
      },
      "properties": {
        "grade": "4a",
        "circuitNumber": "39",
        "steepness": "traverse",
        "height": null,
        "name": null,
        "circuitColor": "orange",
        "topos": [
          {
            "id": 555
          }
        ]
      },
      "id": "problem_53"
    },
    {
      "type": "Feature",
      "geometry": {
        "type": "Point",
        "coordinates": [
          2.6630024227,
          48.4612614661
        ]
      },
      "properties": {
        "grade": "2b",
        "circuitNumber": "43",
        "steepness": "traverse",
        "height": null,
        "name": null,
        "circuitColor": "yellow",
        "topos": [
          {
            "id": 334
          }
        ]
      },
      "id": "problem_7"
    },
    {
      "type": "Feature",
      "geometry": {
        "type": "Point",
        "coordinates": [
          2.66215805638,
          48.46276567026
        ]
      },
      "properties": {
        "grade": "7a+",
        "circuitNumber": "10",
        "steepness": "roof",
        "height": 4,
        "name": "Lévitation",
        "circuitColor": "white",
        "tags": [
          "sit_start"
        ],
        "topos": [
          {
            "id": 509
          }
        ]
      },
      "id": "problem_230"
    },
    {
      "type": "Feature",
      "geometry": {
        "type": "Point",
        "coordinates": [
          2.66349578464,
          48.46185475205
        ]
      },
      "properties": {
        "grade": "4b+",
        "circuitNumber": "23",
        "steepness": "traverse",
        "height": 4,
        "name": "Ninkenphoop",
        "circuitColor": "orange",
        "topos": [
          {
            "id": 533
          }
        ]
      },
      "id": "problem_68"
    },
    {
      "type": "Feature",
      "geometry": {
        "type": "Point",
        "coordinates": [
          2.6628830408,
          48.46126013504
        ]
      },
      "properties": {
        "grade": "2a+",
        "circuitNumber": "45",
        "steepness": "slab",
        "height": 5,
        "name": null,
        "circuitColor": "yellow",
        "topos": [
          {
            "id": 547
          }
        ]
      },
      "id": "problem_5"
    },
    {
      "type": "Feature",
      "geometry": {
        "type": "Point",
        "coordinates": [
          2.66224170362,
          48.46276000054
        ]
      },
      "properties": {
        "grade": "5b+",
        "circuitNumber": "43",
        "steepness": "wall",
        "height": 4,
        "name": "Outrage",
        "circuitColor": "red",
        "topos": [
          {
            "id": 513
          }
        ]
      },
      "id": "problem_196"
    },
    {
      "type": "Feature",
      "geometry": {
        "type": "Point",
        "coordinates": [
          2.66257574661,
          48.4612266953
        ]
      },
      "properties": {
        "grade": "3a",
        "circuitNumber": "47",
        "steepness": "slab",
        "height": null,
        "name": null,
        "circuitColor": "yellow",
        "topos": [
          {
            "id": 436
          }
        ]
      },
      "id": "problem_3"
    },
    {
      "type": "Feature",
      "geometry": {
        "type": "Point",
        "coordinates": [
          2.66188146881,
          48.46234323537
        ]
      },
      "properties": {
        "grade": "4a+",
        "circuitNumber": "40",
        "steepness": "slab",
        "height": 5,
        "name": "Fables",
        "circuitColor": "blue",
        "tags": [
          "risky"
        ],
        "topos": [
          {
            "id": 520
          }
        ]
      },
      "id": "problem_212"
    },
    {
      "type": "Feature",
      "geometry": {
        "type": "Point",
        "coordinates": [
          2.66410105523,
          48.46079079157
        ]
      },
      "properties": {
        "grade": "3a",
        "circuitNumber": "35",
        "steepness": "wall",
        "height": 2,
        "name": null,
        "circuitColor": "orange",
        "topos": [
          {
            "id": 556
          }
        ]
      },
      "id": "problem_56"
    },
    {
      "type": "Feature",
      "geometry": {
        "type": "Point",
        "coordinates": [
          2.66213352542,
          48.46232779912
        ]
      },
      "properties": {
        "grade": "4a",
        "circuitNumber": "37",
        "steepness": "traverse",
        "height": 3,
        "name": "Les Chimères",
        "circuitColor": "blue",
        "topos": [
          {
            "id": 518
          }
        ]
      },
      "id": "problem_209"
    },
    {
      "type": "Feature",
      "geometry": {
        "type": "Point",
        "coordinates": [
          2.66429340856,
          48.46265711438
        ]
      },
      "properties": {
        "grade": "4a",
        "circuitNumber": "1",
        "steepness": "wall",
        "height": 4,
        "name": "l'Abîme",
        "circuitColor": "blue",
        "topos": [
          {
            "id": 475
          }
        ]
      },
      "id": "problem_175"
    },
    {
      "type": "Feature",
      "geometry": {
        "type": "Point",
        "coordinates": [
          2.66342008494,
          48.46189830743
        ]
      },
      "properties": {
        "grade": "2b",
        "circuitNumber": "27",
        "steepness": "wall",
        "height": 3,
        "name": "Tintin",
        "circuitColor": "yellow",
        "topos": [
          {
            "id": 531
          }
        ]
      },
      "id": "problem_23"
    },
    {
      "type": "Feature",
      "geometry": {
        "type": "Point",
        "coordinates": [
          2.66327179186,
          48.46201634672
        ]
      },
      "properties": {
        "grade": "2a",
        "circuitNumber": "25",
        "steepness": "wall",
        "height": 4,
        "name": "Fun and Games",
        "circuitColor": "yellow",
        "tags": [
          "risky"
        ],
        "topos": [
          {
            "id": 528
          }
        ]
      },
      "id": "problem_25"
    },
    {
      "type": "Feature",
      "geometry": {
        "type": "Point",
        "coordinates": [
          2.66311958035,
          48.46221392588
        ]
      },
      "properties": {
        "grade": "2b",
        "circuitNumber": "20",
        "steepness": "wall",
        "height": 2,
        "name": "Pseudonyme",
        "circuitColor": "yellow",
        "topos": [
          {
            "id": 525
          }
        ]
      },
      "id": "problem_30"
    },
    {
      "type": "Feature",
      "geometry": {
        "type": "Point",
        "coordinates": [
          2.66405605523,
          48.46076201491
        ]
      },
      "properties": {
        "grade": "7b",
        "circuitNumber": "23",
        "steepness": "overhang",
        "height": 4,
        "name": "La Théorie du Chaos",
        "circuitColor": "white",
        "tags": [
          "risky"
        ],
        "topos": [
          {
            "id": 278
          }
        ]
      },
      "id": "problem_244"
    },
    {
      "type": "Feature",
      "geometry": {
        "type": "Point",
        "coordinates": [
          2.6622067619,
          48.4627712219
        ]
      },
      "properties": {
        "grade": "3b",
        "circuitNumber": "33",
        "steepness": "wall",
        "height": 4,
        "name": "Les Horloges",
        "circuitColor": "blue",
        "topos": [
          {
            "id": 512
          }
        ]
      },
      "id": "problem_203"
    },
    {
      "type": "Feature",
      "geometry": {
        "type": "Point",
        "coordinates": [
          2.66282287732,
          48.46139737958
        ]
      },
      "properties": {
        "grade": "5c+",
        "circuitNumber": "11",
        "steepness": "wall",
        "height": null,
        "name": "Le Nain Jaune",
        "circuitColor": "red",
        "topos": [
          {
            "id": 295
          }
        ]
      },
      "id": "problem_106"
    },
    {
      "type": "Feature",
      "geometry": {
        "type": "Point",
        "coordinates": [
          2.66344786088,
          48.4618780264
        ]
      },
      "properties": {
        "grade": "6b",
        "circuitNumber": "16",
        "steepness": "overhang",
        "height": 4,
        "name": "Le Bossu",
        "circuitColor": "red",
        "topos": [
          {
            "id": 330
          }
        ]
      },
      "id": "problem_92"
    },
    {
      "type": "Feature",
      "geometry": {
        "type": "Point",
        "coordinates": [
          2.66417239051,
          48.46079679454
        ]
      },
      "properties": {
        "grade": "3b",
        "circuitNumber": "36",
        "steepness": "traverse",
        "height": null,
        "name": "La cheminée",
        "circuitColor": "orange",
        "topos": [
          {
            "id": 293
          }
        ]
      },
      "id": "problem_55"
    },
    {
      "type": "Feature",
      "geometry": {
        "type": "Point",
        "coordinates": [
          2.66191871804,
          48.46232712002
        ]
      },
      "properties": {
        "grade": "4b",
        "circuitNumber": "39",
        "steepness": "slab",
        "height": 4,
        "name": "Anthologie",
        "circuitColor": "blue",
        "topos": [
          {
            "id": 519
          }
        ]
      },
      "id": "problem_211"
    },
    {
      "type": "Feature",
      "geometry": {
        "type": "Point",
        "coordinates": [
          2.66285253039,
          48.46145337947
        ]
      },
      "properties": {
        "grade": "5b+",
        "circuitNumber": "12",
        "steepness": "wall",
        "height": null,
        "name": "Le Rouge et le Noir",
        "circuitColor": "red"
      },
      "id": "problem_105"
    },
    {
      "type": "Feature",
      "geometry": {
        "type": "Point",
        "coordinates": [
          2.66323776271,
          48.46194767929
        ]
      },
      "properties": {
        "grade": "2a",
        "circuitNumber": "26",
        "steepness": "slab",
        "height": 4,
        "name": null,
        "circuitColor": "yellow",
        "topos": [
          {
            "id": 529
          }
        ]
      },
      "id": "problem_24"
    },
    {
      "type": "Feature",
      "geometry": {
        "type": "Point",
        "coordinates": [
          2.66213472693,
          48.46279233803
        ]
      },
      "properties": {
        "grade": "4a",
        "circuitNumber": "34",
        "steepness": "overhang",
        "height": 3,
        "name": "Gravitation",
        "circuitColor": "blue",
        "topos": [
          {
            "id": 511
          }
        ]
      },
      "id": "problem_204"
    },
    {
      "type": "Feature",
      "geometry": {
        "type": "Point",
        "coordinates": [
          2.66304754787,
          48.46141990094
        ]
      },
      "properties": {
        "grade": "2a",
        "circuitNumber": "40",
        "steepness": "slab",
        "height": null,
        "name": null,
        "circuitColor": "yellow",
        "tags": [
          "risky"
        ],
        "topos": [
          {
            "id": 400
          }
        ]
      },
      "id": "problem_10"
    },
    {
      "type": "Feature",
      "geometry": {
        "type": "Point",
        "coordinates": [
          2.6628410805,
          48.46229538492
        ]
      },
      "properties": {
        "grade": "4b",
        "circuitNumber": "29",
        "steepness": "wall",
        "height": 3,
        "name": "La Bizuth",
        "circuitColor": "skyblue",
        "topos": [
          {
            "id": 447
          }
        ]
      },
      "id": "problem_202"
    },
    {
      "type": "Feature",
      "geometry": {
        "type": "Point",
        "coordinates": [
          2.66327297115,
          48.46197745979
        ]
      },
      "properties": {
        "grade": "5a+",
        "circuitNumber": "32",
        "steepness": "wall",
        "height": 3,
        "name": "La Fédérale",
        "circuitColor": "skyblue",
        "topos": [
          {
            "id": 429
          }
        ]
      },
      "id": "problem_91"
    },
    {
      "type": "Feature",
      "geometry": {
        "type": "Point",
        "coordinates": [
          2.66323542744,
          48.46203468303
        ]
      },
      "properties": {
        "grade": "4c",
        "circuitNumber": "31",
        "steepness": "wall",
        "height": null,
        "name": "Le Prétoire",
        "circuitColor": "skyblue",
        "topos": [
          {
            "id": 309
          }
        ]
      },
      "id": "problem_90"
    },
    {
      "type": "Feature",
      "geometry": {
        "type": "Point",
        "coordinates": [
          2.66288270443,
          48.46230482956
        ]
      },
      "properties": {
        "grade": "4a+",
        "circuitNumber": "28",
        "steepness": "wall",
        "height": 4,
        "name": "La Spéciale",
        "circuitColor": "skyblue",
        "topos": [
          {
            "id": 524
          }
        ]
      },
      "id": "problem_201"
    },
    {
      "type": "Feature",
      "geometry": {
        "type": "Point",
        "coordinates": [
          2.66296311657,
          48.46130180005
        ]
      },
      "properties": {
        "grade": "3a",
        "circuitNumber": "29",
        "steepness": "slab",
        "height": 6,
        "name": null,
        "circuitColor": "orange",
        "topos": [
          {
            "id": 549
          }
        ]
      },
      "id": "problem_64"
    },
    {
      "type": "Feature",
      "geometry": {
        "type": "Point",
        "coordinates": [
          2.66224024565,
          48.46254761644
        ]
      },
      "properties": {
        "grade": "4c",
        "circuitNumber": "45",
        "steepness": "wall",
        "height": null,
        "name": "Boute-en-Train",
        "circuitColor": "red"
      },
      "id": "problem_206"
    },
    {
      "type": "Feature",
      "geometry": {
        "type": "Point",
        "coordinates": [
          2.66368798528,
          48.46081881042
        ]
      },
      "properties": {
        "grade": "4a",
        "circuitNumber": "33",
        "steepness": "traverse",
        "height": null,
        "name": null,
        "circuitColor": "orange",
        "topos": [
          {
            "id": 558
          }
        ]
      },
      "id": "problem_58"
    },
    {
      "type": "Feature",
      "geometry": {
        "type": "Point",
        "coordinates": [
          2.66291402914,
          48.46130658064
        ]
      },
      "properties": {
        "grade": "2a",
        "circuitNumber": "44",
        "steepness": "traverse",
        "height": 4,
        "name": null,
        "circuitColor": "yellow",
        "topos": [
          {
            "id": 543
          }
        ]
      },
      "id": "problem_6"
    },
    {
      "type": "Feature",
      "geometry": {
        "type": "Point",
        "coordinates": [
          2.66188411605,
          48.46235045723
        ]
      },
      "properties": {
        "grade": "6a",
        "circuitNumber": "46",
        "steepness": "wall",
        "height": 5,
        "name": "Boomerang",
        "circuitColor": "red",
        "tags": [
          "risky"
        ],
        "topos": [
          {
            "id": 521
          }
        ]
      },
      "id": "problem_213"
    },
    {
      "type": "Feature",
      "geometry": {
        "type": "Point",
        "coordinates": [
          2.66277615431,
          48.46140571355
        ]
      },
      "properties": {
        "grade": "2a",
        "circuitNumber": "37",
        "steepness": "wall",
        "height": null,
        "name": null,
        "circuitColor": "yellow",
        "topos": [
          {
            "id": 424
          }
        ]
      },
      "id": "problem_13"
    },
    {
      "type": "Feature",
      "geometry": {
        "type": "Point",
        "coordinates": [
          2.66352331146,
          48.46229316002
        ]
      },
      "properties": {
        "grade": "6a+",
        "circuitNumber": "24",
        "steepness": "traverse",
        "height": 4,
        "name": "Le Fourre-Tout",
        "circuitColor": "red",
        "topos": [
          {
            "id": 430
          }
        ]
      },
      "id": "problem_178"
    },
    {
      "type": "Feature",
      "geometry": {
        "type": "Point",
        "coordinates": [
          2.66369832182,
          48.46157693886
        ]
      },
      "properties": {
        "grade": "5b+",
        "circuitNumber": "9",
        "steepness": "wall",
        "height": 4,
        "name": "La Golgotha (gauche)",
        "circuitColor": "skyblue",
        "topos": [
          {
            "id": 367
          }
        ]
      },
      "id": "problem_98"
    },
    {
      "type": "Feature",
      "geometry": {
        "type": "Point",
        "coordinates": [
          2.66412235103,
          48.46233351466
        ]
      },
      "properties": {
        "grade": "3c",
        "circuitNumber": "6",
        "steepness": "traverse",
        "height": null,
        "name": null,
        "circuitColor": "orange",
        "topos": [
          {
            "id": 410
          }
        ]
      },
      "id": "problem_81"
    },
    {
      "type": "Feature",
      "geometry": {
        "type": "Point",
        "coordinates": [
          2.66325881104,
          48.4629061876
        ]
      },
      "properties": {
        "grade": "5b",
        "circuitNumber": "30",
        "steepness": "overhang",
        "height": 5,
        "name": "Le Dé",
        "circuitColor": "red",
        "tags": [
          "risky"
        ],
        "topos": [
          {
            "id": 477
          }
        ]
      },
      "id": "problem_162"
    },
    {
      "type": "Feature",
      "geometry": {
        "type": "Point",
        "coordinates": [
          2.66335868374,
          48.46218701987
        ]
      },
      "properties": {
        "grade": "4b",
        "circuitNumber": "30",
        "steepness": "wall",
        "height": null,
        "name": "Le Couloir",
        "circuitColor": "skyblue",
        "topos": [
          {
            "id": 273
          }
        ]
      },
      "id": "problem_192"
    },
    {
      "type": "Feature",
      "geometry": {
        "type": "Point",
        "coordinates": [
          2.66332915221,
          48.46219536903
        ]
      },
      "properties": {
        "grade": "3a",
        "circuitNumber": "24",
        "steepness": "wall",
        "height": null,
        "name": null,
        "circuitColor": "yellow",
        "topos": [
          {
            "id": 286
          }
        ]
      },
      "id": "problem_26"
    },
    {
      "type": "Feature",
      "geometry": {
        "type": "Point",
        "coordinates": [
          2.66347686527,
          48.46223317609
        ]
      },
      "properties": {
        "grade": "5c+",
        "circuitNumber": "21",
        "steepness": "wall",
        "height": 6,
        "name": "La Vieille",
        "circuitColor": "red",
        "tags": [
          "risky"
        ],
        "topos": [
          {
            "id": 349
          }
        ]
      },
      "id": "problem_184"
    },
    {
      "type": "Feature",
      "geometry": {
        "type": "Point",
        "coordinates": [
          2.66361731376,
          48.46235997756
        ]
      },
      "properties": {
        "grade": "3b",
        "circuitNumber": "19",
        "steepness": "slab",
        "height": 6,
        "name": "Tour d'Eiffel",
        "circuitColor": "orange",
        "tags": [
          "risky"
        ],
        "topos": [
          {
            "id": 462
          }
        ]
      },
      "id": "problem_72"
    },
    {
      "type": "Feature",
      "geometry": {
        "type": "Point",
        "coordinates": [
          2.66357440796,
          48.46225157109
        ]
      },
      "properties": {
        "grade": "3b",
        "circuitNumber": "21",
        "steepness": "overhang",
        "height": 3,
        "name": "Le Bouchon",
        "circuitColor": "orange",
        "tags": [
          "risky"
        ],
        "topos": [
          {
            "id": 285
          }
        ]
      },
      "id": "problem_70"
    },
    {
      "type": "Feature",
      "geometry": {
        "type": "Point",
        "coordinates": [
          2.6634723733,
          48.46299480941
        ]
      },
      "properties": {
        "grade": "6a",
        "circuitNumber": "34",
        "steepness": "wall",
        "height": 4,
        "name": "Caprice",
        "circuitColor": "red",
        "topos": [
          {
            "id": 394
          }
        ]
      },
      "id": "problem_145"
    },
    {
      "type": "Feature",
      "geometry": {
        "type": "Point",
        "coordinates": [
          2.66241938525,
          48.46308980747
        ]
      },
      "properties": {
        "grade": "3a",
        "circuitNumber": "12",
        "steepness": "slab",
        "height": null,
        "name": null,
        "circuitColor": "yellow",
        "topos": [
          {
            "id": 269
          }
        ]
      },
      "id": "problem_37"
    },
    {
      "type": "Feature",
      "geometry": {
        "type": "Point",
        "coordinates": [
          2.66343336783,
          48.46224386516
        ]
      },
      "properties": {
        "grade": "5c",
        "circuitNumber": "22",
        "steepness": "wall",
        "height": null,
        "name": "Styrax",
        "circuitColor": "red",
        "tags": [
          "risky"
        ],
        "topos": [
          {
            "id": 389
          }
        ]
      },
      "id": "problem_185"
    },
    {
      "type": "Feature",
      "geometry": {
        "type": "Point",
        "coordinates": [
          2.66363093168,
          48.46233578362
        ]
      },
      "properties": {
        "grade": "2a",
        "circuitNumber": "20",
        "steepness": "overhang",
        "height": null,
        "name": null,
        "circuitColor": "orange",
        "topos": [
          {
            "id": 298
          }
        ]
      },
      "id": "problem_71"
    },
    {
      "type": "Feature",
      "geometry": {
        "type": "Point",
        "coordinates": [
          2.66270029531,
          48.46329412636
        ]
      },
      "properties": {
        "grade": "2a",
        "circuitNumber": "9",
        "steepness": "wall",
        "height": 5,
        "name": "Sauvetage",
        "circuitColor": "yellow",
        "tags": [
          "risky"
        ],
        "topos": [
          {
            "id": 280
          }
        ]
      },
      "id": "problem_40"
    },
    {
      "type": "Feature",
      "geometry": {
        "type": "Point",
        "coordinates": [
          2.66285567944,
          48.46314246355
        ]
      },
      "properties": {
        "grade": "2a",
        "circuitNumber": "8",
        "steepness": "slab",
        "height": 4,
        "name": "Champagne Frappé",
        "circuitColor": "yellow",
        "topos": [
          {
            "id": 305
          }
        ]
      },
      "id": "problem_41"
    },
    {
      "type": "Feature",
      "geometry": {
        "type": "Point",
        "coordinates": [
          2.66344047239,
          48.46156742832
        ]
      },
      "properties": {
        "grade": "2c+",
        "circuitNumber": "25",
        "steepness": "slab",
        "height": 6,
        "name": "L'Arête gauche du Cervin",
        "circuitColor": "orange",
        "tags": [
          "risky"
        ],
        "topos": [
          {
            "id": 540
          }
        ]
      },
      "id": "problem_66"
    },
    {
      "type": "Feature",
      "geometry": {
        "type": "Point",
        "coordinates": [
          2.66251411991,
          48.46305714145
        ]
      },
      "properties": {
        "grade": "5b",
        "circuitNumber": "30",
        "steepness": "wall",
        "height": 3,
        "name": "Contemplations",
        "circuitColor": "blue",
        "topos": [
          {
            "id": 368
          }
        ]
      },
      "id": "problem_129"
    },
    {
      "type": "Feature",
      "geometry": {
        "type": "Point",
        "coordinates": [
          2.66354935305,
          48.46255715137
        ]
      },
      "properties": {
        "grade": "3a",
        "circuitNumber": "17",
        "steepness": "wall",
        "height": 4,
        "name": "Couche-Tard",
        "circuitColor": "orange",
        "topos": [
          {
            "id": 271
          }
        ]
      },
      "id": "problem_77"
    },
    {
      "type": "Feature",
      "geometry": {
        "type": "Point",
        "coordinates": [
          2.66404110381,
          48.46276669123
        ]
      },
      "properties": {
        "grade": "3b",
        "circuitNumber": "5",
        "steepness": "slab",
        "height": null,
        "name": "Complainte",
        "circuitColor": "blue",
        "topos": [
          {
            "id": 347
          }
        ]
      },
      "id": "problem_159"
    },
    {
      "type": "Feature",
      "geometry": {
        "type": "Point",
        "coordinates": [
          2.66384476686,
          48.46185641618
        ]
      },
      "properties": {
        "grade": "4b+",
        "circuitNumber": "13",
        "steepness": "wall",
        "height": 4,
        "name": "La Queue du Dromadaire",
        "circuitColor": "skyblue",
        "topos": [
          {
            "id": 451
          }
        ]
      },
      "id": "problem_89"
    },
    {
      "type": "Feature",
      "geometry": {
        "type": "Point",
        "coordinates": [
          2.66301952681,
          48.46246032983
        ]
      },
      "properties": {
        "grade": "2a",
        "circuitNumber": "18",
        "steepness": "wall",
        "height": null,
        "name": null,
        "circuitColor": "yellow",
        "tags": [
          "risky"
        ],
        "topos": [
          {
            "id": 319
          }
        ]
      },
      "id": "problem_32"
    },
    {
      "type": "Feature",
      "geometry": {
        "type": "Point",
        "coordinates": [
          2.66303613988,
          48.46110834379
        ]
      },
      "properties": {
        "grade": "3c",
        "circuitNumber": "30",
        "steepness": "slab",
        "height": null,
        "name": null,
        "circuitColor": "orange",
        "topos": [
          {
            "id": 355
          }
        ]
      },
      "id": "problem_61"
    },
    {
      "type": "Feature",
      "geometry": {
        "type": "Point",
        "coordinates": [
          2.66285673247,
          48.46256880445
        ]
      },
      "properties": {
        "grade": "2b",
        "circuitNumber": "17",
        "steepness": "wall",
        "height": null,
        "name": null,
        "circuitColor": "yellow",
        "topos": [
          {
            "id": 403
          }
        ]
      },
      "id": "problem_33"
    },
    {
      "type": "Feature",
      "geometry": {
        "type": "Point",
        "coordinates": [
          2.66330599388,
          48.46081902778
        ]
      },
      "properties": {
        "grade": "3c",
        "circuitNumber": "31",
        "steepness": "wall",
        "height": 5,
        "name": "Imogen",
        "circuitColor": "orange",
        "tags": [
          "risky"
        ],
        "topos": [
          {
            "id": 328
          }
        ]
      },
      "id": "problem_60"
    },
    {
      "type": "Feature",
      "geometry": {
        "type": "Point",
        "coordinates": [
          2.66316971441,
          48.46303947451
        ]
      },
      "properties": {
        "grade": "2c",
        "circuitNumber": "3",
        "steepness": "traverse",
        "height": null,
        "name": null,
        "circuitColor": "yellow",
        "topos": [
          {
            "id": 331
          }
        ]
      },
      "id": "problem_46"
    },
    {
      "type": "Feature",
      "geometry": {
        "type": "Point",
        "coordinates": [
          2.66277073247,
          48.46268680432
        ]
      },
      "properties": {
        "grade": "1c",
        "circuitNumber": "15",
        "steepness": "slab",
        "height": null,
        "name": null,
        "circuitColor": "yellow",
        "topos": [
          {
            "id": 522
          }
        ]
      },
      "id": "problem_35"
    },
    {
      "type": "Feature",
      "geometry": {
        "type": "Point",
        "coordinates": [
          2.66349074967,
          48.46191408513
        ]
      },